time_x,x,y,z,roll,pitch,yaw,xdot,ydot,zdot,p,q,r,Gap,time_u,thrust,roll angle,pitch angle,yaw angle
0,0.018419532,0.018419532,0.018419532,0.018419532,0.018419532,0.018419532,0.018419532,0.018419532,0.018419532,0.018419532,0.018419532,0.018419532,,0,7.003120561,-0.000872478,-0.000856965,-0.000837644
0.1,0.02036642,0.02036642,0.02036642,0.020490228,0.020231365,0.020359988,-0.043548224,0.080521509,2.318178439,-0.028941933,-0.026185244,-0.009532394,,0.1,5.452602785,-0.000126252,-0.000110053,-1.13265E-05
0.2,-0.017217904,0.037564231,1.068933399,-0.010770729,-0.009527033,-0.0018521,-0.054521258,0.057427827,0.813857687,-0.00798688,-0.006702441,-0.000848465,,0.2,6.096570527,0.000100425,6.14349E-05,7.26216E-05
0.3,-0.016816201,0.037666797,0.521332958,0.002371696,0.003114941,0.006813206,-0.017031576,0.034753793,1.58113235,0.005992667,0.004432103,0.005453568,,0.3,5.761981769,-0.000570381,-0.000545648,-0.000289475
0.4,-0.026085689,0.008890793,0.903100063,-0.011564863,-0.01205016,-0.010224451,-0.063704703,0.015802715,1.314788671,-0.039921649,-0.037594233,-0.019368072,,0.4,5.805436782,0.000639517,0.000521151,0.000891825
0.5,0.003557839,0.054841255,0.920891182,0.013054753,0.014285623,0.024044008,0.031729772,0.070665479,1.487081856,0.049325968,0.043222957,0.045264257,,0.5,5.651154509,-0.001943511,-0.001799639,-0.001789022
0.6,0.00387223,0.042802708,1.047949468,0.021109751,0.017610331,0.021582479,-0.044724579,0.04214254,1.380880942,-0.089126124,-0.078151712,-0.040967043,,0.6,5.679658595,0.000627129,0.000471959,0.000977823
0.7,0.010887191,0.073542613,1.121340706,-0.007047741,-0.002176395,0.017527934,-0.010217722,0.120167663,1.514450465,0.044767698,0.038231258,0.046932268,,0.7,5.537455284,-0.001681619,-0.001568691,-0.001770992
0.8,-0.01062483,0.075673946,1.236587045,0.020478956,0.017142099,0.0265133,-0.052321482,0.060838733,1.410901385,-0.079566008,-0.070247322,-0.039015903,,0.8,5.553732984,0.000210975,7.70853E-05,0.000794811
0.9,-0.014844017,0.071924451,1.29127941,-0.022847142,-0.018526271,0.0012653,-0.051824866,0.100761648,1.501593512,0.007219389,0.002889894,0.026375751,,0.9,5.461780468,-0.000731833,-0.00071073,-0.000856163
1,-0.067156725,0.043609681,1.373751899,-0.03173588,-0.032987848,-0.014929714,-0.107887367,0.008360153,1.431394499,-0.069784618,-0.067468144,-0.046871757,,1,5.478529039,0.001133887,0.000862577,0.002239347
1.1,-0.077222268,0.028647272,1.445605698,-0.052189197,-0.05156689,-0.032982634,-0.053241526,-0.000248719,1.519997204,0.020533602,0.009401653,0.034886607,,1.1,5.369159704,-0.000315301,-0.000340666,-0.000378698
1.2,-0.021782858,0.066986052,1.609330598,0.021947195,0.016951527,0.038883343,0.048246133,0.016948817,1.494334455,-0.00741976,-0.008215374,0.009688361,,1.2,5.241924784,-0.001513231,-0.001528964,-0.001395407
1.3,-0.024754111,0.03481089,1.65336242,-0.025598965,-0.026194827,-0.006414781,-0.001486889,-0.050540434,1.358761573,-0.091407403,-0.089981431,-0.04450817,,1.3,5.348027369,0.001282782,0.001058099,0.002020973
1.4,-0.014428208,0.032723199,1.70303571,-0.041327858,-0.041552859,-0.007789167,0.042738713,-0.017025094,1.528451844,0.044735937,0.033814592,0.050997577,,1.4,5.16949039,-0.001253501,-0.001231043,-0.001681753
1.5,-0.01804498,0.024782634,1.845304694,-0.002057451,-0.007673365,0.015800667,0.04121591,-0.073935638,1.365163138,-0.076702422,-0.074312157,-0.045426992,,1.5,5.187515536,0.000358145,0.000165119,0.001268126
1.6,-0.01240598,0.00686634,1.86656772,-0.051016056,-0.051103952,-0.021285388,0.077358172,-0.094329213,1.407124343,-0.007523133,-0.015788127,0.022977937,,1.6,5.144897415,1.1431E-05,-8.30728E-05,-2.76689E-06
1.7,-0.018913561,-0.033873094,1.944125764,-0.04709012,-0.0513152,-0.015591371,0.060488303,-0.149902239,1.378100574,-0.039405118,-0.046081523,-0.022981025,,1.7,5.105009189,0.00062771,0.000418502,0.001688849
1.8,-0.021843308,-0.057383216,2.017806778,-0.060520537,-0.064966524,-0.03390556,0.110248624,-0.195604559,1.355184126,-0.011559614,-0.023242035,0.01749095,,1.8,5.062696709,0.000399673,0.000226065,0.000792454
1.9,0.048806958,-0.037861951,2.132947832,-0.007415812,-0.014249765,0.026184983,0.228384056,-0.171322437,1.366403209,0.017291983,0.005263217,0.035932514,,1.9,4.907272172,-0.001396424,-0.001441045,-0.002251958
2,0.080587272,-0.061214635,2.200693487,-0.014202757,-0.022285146,0.01627325,0.248568809,-0.255654431,1.181980178,-0.077134477,-0.080526017,-0.049321154,,2,4.999132289,0.000736214,0.000553998,0.001645348
2.1,0.092020224,-0.127113097,2.181657589,-0.070629659,-0.07603759,-0.035184968,0.241466211,-0.287432449,1.270475076,-0.001712272,-0.012217659,0.024370176,,2.1,4.940765206,0.000499738,0.000226217,0.000916834
2.2,0.105470379,-0.155378269,2.294137656,-0.040421886,-0.048204606,-0.003647214,0.265061482,-0.301115767,1.227479772,-0.006954307,-0.025004016,0.011538895,,2.2,4.854021825,-6.03057E-05,-0.000147009,0.000100709
2.3,0.158739616,-0.138379292,2.384029551,-0.012067133,-0.023995476,0.022860569,0.379540958,-0.315134763,1.14551753,-0.004090877,-0.014112208,0.020254367,,2.3,4.797137265,-0.00069613,-0.000817071,-0.001424888
2.4,0.205583042,-0.186849479,2.401240694,-0.028531023,-0.037968737,0.010155622,0.397925214,-0.384537515,1.061902742,-0.047031197,-0.057594691,-0.029454206,,2.4,4.826473102,0.000624865,0.000408843,0.001480686
2.5,0.25301351,-0.227436337,2.44113202,-0.037590166,-0.048137241,-0.000765199,0.437867898,-0.376389052,1.089855976,0.017137073,0.000595297,0.043945762,,2.5,4.736645957,-0.000455791,-0.000579718,-0.001229126
2.6,0.290807275,-0.249582114,2.516080602,-0.013241388,-0.026920352,0.029086373,0.465202303,-0.402342332,0.97977845,-0.029485114,-0.041778788,-0.017634456,,2.6,4.717529719,2.39069E-05,-0.000172228,0.000204653
2.7,0.336309084,-0.275517752,2.538080353,-0.02677998,-0.039597368,0.010206956,0.524684645,-0.430717882,0.947831797,-0.004658511,-0.021094404,0.018710216,,2.7,4.685439177,-0.000117614,-0.000270784,-0.000507861
2.8,0.386882804,-0.32523164,2.574428392,-0.024009572,-0.039198629,0.019102597,0.535885466,-0.450197519,0.884998422,-0.016082401,-0.031753843,-0.003010236,,2.8,4.660290117,0.000128892,-7.8881E-05,0.000205583
2.9,0.387231319,-0.395712973,2.569798364,-0.062518892,-0.078516171,-0.022908112,0.519281586,-0.529597045,0.806953478,-0.033519971,-0.052052021,-0.015082984,,2.9,4.700207746,0.001526719,0.001013393,0.00329625
3,0.451738868,-0.421706266,2.619351119,-0.038827747,-0.057321047,0.003772509,0.605075196,-0.492628241,0.851911266,0.056090358,0.021037957,0.084201314,,3,4.554662819,-0.000792671,-0.000810408,-0.002869307
3.1,0.529023916,-0.418114508,2.704641939,0.014754311,-0.012932867,0.063101885,0.693111138,-0.526264716,0.675699595,-0.028778399,-0.039132927,-0.040050091,,3.1,4.552265893,-9.42849E-05,-0.000407103,-0.000379411
3.2,0.599261328,-0.477188072,2.665969102,-0.028405199,-0.046753759,0.003432725,0.74581565,-0.587730285,0.64857286,-0.007460483,-0.032570306,0.005392393,,3.2,4.557408027,0.000512453,0.000284879,0.000775633
3.3,0.61087185,-0.613665597,2.633739856,-0.07970475,-0.104449789,-0.037329003,0.655405119,-0.662029311,0.552164401,-0.029599003,-0.0543277,-0.017720134,,3.3,4.620596329,0.002418009,0.001468649,0.005403751
3.4,0.660223818,-0.628650101,2.668634091,-0.050077224,-0.076981377,-0.007968057,0.760553743,-0.618720007,0.617474264,0.089934879,0.030365754,0.1245638,,3.4,4.463275259,-0.000710291,-0.000489172,-0.003525829
3.5,0.732875906,-0.643850409,2.733780943,0.001684821,-0.042286017,0.055741898,0.84135554,-0.69132447,0.40265775,-0.039362885,-0.045539012,-0.072011834,,3.5,4.504800984,0.000968808,0.000510671,0.002208305
3.6,0.833507716,-0.707150855,2.682421743,-0.039105507,-0.063905565,-0.014757583,0.940270367,-0.728550756,0.426084633,0.041144759,0.003504702,0.063718198,,3.6,4.451498744,0.000389078,6.61906E-05,-0.000323003
3.7,0.9200834,-0.798829382,2.700292706,-0.021512241,-0.058311318,0.027402395,0.947107474,-0.743173684,0.297539683,0.008043623,-0.02702623,-0.003446391,,3.7,4.464848759,0.000820436,0.000623399,0.0011828
3.8,0.99016239,-0.831177867,2.676569161,-0.023907393,-0.063160107,0.010018391,1.021935472,-0.766819759,0.276182819,0.036387231,0.004517488,0.038853065,,3.8,4.419540573,0.00045566,0.000177822,-0.000127114
3.9,1.117666933,-0.8612943,2.714615574,0.01992368,-0.019571622,0.059968723,1.120330513,-0.732967364,0.202424121,0.049086567,0.014070927,0.03637974,,3.9,4.366175557,-0.000616596,-0.000718192,-0.003458467
4,1.207721661,-0.913568532,2.682826545,0.013912673,-0.029781291,0.046847863,1.158128454,-0.781728282,0.113501803,-0.008587998,-0.035150434,-0.053200343,,4,4.380044986,0.000832862,0.000587743,0.001646703
4.1,1.297066149,-1.005948784,2.64332069,-0.020465539,-0.06246625,-0.003307581,1.156857191,-0.780141162,0.05795156,0.043359618,0.007666539,0.048801019,,4.1,4.370539207,0.000671948,0.000322199,0.000194909
4.2,1.345503622,-1.080742918,2.601747077,-0.020817981,-0.06655692,0.017576702,1.145720651,-0.803173995,-0.048825041,0.021992264,-0.020153029,-0.00024365,,4.2,4.389055398,0.001294343,0.000882478,0.002433937
4.3,1.426115214,-1.113873168,2.570895394,-0.011106027,-0.063394665,0.014111387,1.2292539,-0.795739286,-0.072950039,0.065550727,0.018039789,0.065607322,,4.3,4.34552332,0.000313194,0.00026503,-0.000971949
4.4,1.538985361,-1.159941972,2.560774932,0.013947695,-0.042768434,0.048574977,1.293145004,-0.805082773,-0.168180365,0.030899341,-0.00012038,-0.00484842,,4.4,4.338992842,0.000612944,0.00040234,0.000288008
4.5,1.632264236,-1.233985922,2.499233586,-0.010756648,-0.063822809,0.006820564,1.327269505,-0.832875315,-0.224959454,0.034274211,-0.00565148,0.011193857,,4.5,4.326242142,0.00133434,0.000841681,0.002385196
4.6,1.742630731,-1.301601505,2.468206896,-0.003692369,-0.06161852,0.017963663,1.373657359,-0.815991047,-0.313906436,0.072520699,0.018058863,0.063953739,,4.6,4.329134893,0.000507306,0.000502339,-0.000453499
4.7,1.858466353,-1.326617667,2.426105837,0.030159061,-0.037089066,0.057177251,1.453705564,-0.800473183,-0.356388042,0.053165848,0.020202811,0.014990772,,4.7,4.305494631,0.000246571,0.000260904,-0.000980085
4.8,2.006392808,-1.352880004,2.409388524,0.047967557,-0.013764918,0.060418699,1.537184675,-0.758850467,-0.395956671,0.061640923,0.029132227,0.019869684,,4.8,4.271108239,-0.000231481,-0.000141311,-0.002483808
4.9,2.060733022,-1.483428494,2.297346612,-0.021383355,-0.083905068,-0.012710816,1.437912272,-0.84580766,-0.530114526,-0.021293022,-0.050868231,-0.080351628,,4.9,4.295648758,0.003641304,0.001713926,0.010001143
5,2.158153456,-1.545471579,2.239552172,-0.029059281,-0.095038731,-0.032422853,1.514019043,-0.788641304,-0.618005433,0.168703517,0.049003315,0.22539121,,5,4.328554,-0.000148727,0.000501806,-0.002941847
5.1,2.308275917,-1.51082766,2.200334857,0.097045643,-0.010685376,0.145358999,1.661578488,-0.743816724,-0.621728802,0.050782503,0.050784932,-0.018777545,,5.1,4.316083139,-0.000670999,-0.000367725,-0.003485247
5.2,2.454028827,-1.553657137,2.150161378,0.04564185,-0.017484719,0.036832244,1.685074705,-0.719510837,-0.579700801,0.020292371,-0.004583242,-0.046124917,,5.2,4.193536533,0.001214132,0.000986668,0.002328637
5.3,2.585512253,-1.648413326,2.134562102,0.016561969,-0.053295357,0.007208866,1.663310471,-0.696595279,-0.838361474,0.087716998,0.03766815,0.067979674,,5.3,4.296434804,0.000667433,0.000709587,0.000349477
5.4,2.697285928,-1.658838253,1.985646669,0.06109142,-0.021253352,0.069638864,1.722908223,-0.649933861,-0.826856447,0.079237737,0.04317177,0.037784063,,5.4,4.301947483,-0.000193826,0.000336422,-0.002011698
5.5,2.791643563,-1.706961573,1.907923221,0.037139096,-0.043726615,0.033288287,1.705480649,-0.64381241,-0.857391967,0.022264734,0.006902123,-0.038270532,,5.5,4.245862044,0.001774256,0.001285501,0.004222379
5.6,2.909078905,-1.761366311,1.852233453,0.015043256,-0.058233038,0.000150816,1.734676217,-0.61058292,-1.01286973,0.108130701,0.046533574,0.101481371,,5.6,4.300040793,0.000626194,0.000809698,0.00029952
5.7,3.054372385,-1.756213837,1.748555858,0.080000409,-0.01415179,0.087140568,1.827577217,-0.55253007,-1.021621229,0.085012259,0.0569255,0.040497031,,5.7,4.328577235,-0.000498021,0.000298762,-0.002355841
5.8,3.22750991,-1.741368644,1.701569147,0.100503423,0.014921797,0.087947136,1.875823068,-0.441507926,-0.967987279,0.05674121,0.05567774,-0.001559968,,5.8,4.25715948,-0.00048681,3.67512E-05,-0.002166959
5.9,3.367620773,-1.767104054,1.666585028,0.077273065,0.004469501,0.056511696,1.828353307,-0.376921703,-1.082641635,0.0439279,0.03205367,-0.014248732,,5.9,4.253110281,0.000302695,0.000750328,0.000154509
6,3.454625007,-1.80039598,1.540717108,0.050442836,-0.026392361,0.026938485,1.783118544,-0.350279461,-1.200825417,0.057578178,0.042274471,0.01520542,,6,4.283829134,0.000788731,0.001011306,0.001551612
6.1,3.583364562,-1.780380274,1.441662048,0.085587258,0.006559175,0.066061395,1.853505661,-0.267281153,-1.253415941,0.10213464,0.079342598,0.069964294,,6.1,4.344341267,-0.001059516,-8.28057E-05,-0.003446209
6.2,3.697276422,-1.787381096,1.314130279,0.088619731,0.003374903,0.070073304,1.800382363,-0.209633664,-1.224935458,0.004533947,0.02136826,-0.06069799,,6.2,4.281070039,0.000901451,0.001193941,0.00241801
6.3,3.798943935,-1.799333026,1.256217768,0.041522844,-0.026770078,0.005948668,1.777406483,-0.14883347,-1.363847054,0.081227683,0.064410301,0.060623732,,6.3,4.298949233,0.000440163,0.000880126,0.000518827
6.4,3.914342901,-1.783554765,1.124758621,0.080482326,-4.32153E-05,0.06294508,1.822279301,-0.120641949,-1.449270314,0.067927914,0.063027914,0.026062637,,6.4,4.385858422,-0.000226006,0.000640071,-0.000419996
6.5,4.037793038,-1.774585224,0.984285671,0.07753754,-0.000493165,0.047436986,1.801269416,-0.02894592,-1.383944064,0.038076082,0.052851895,0.002723139,,6.5,4.319180051,0.000384543,0.000971861,0.00101192
6.6,4.167195048,-1.745474771,0.949387123,0.075158098,0.006749609,0.046156151,1.811141199,0.046399401,-1.509681633,0.070964325,0.075394622,0.041465869,,6.6,4.368813448,-0.000353082,0.000519711,-0.00078
6.7,4.306356052,-1.700058154,0.822400413,0.107116942,0.034473486,0.078438391,1.822450209,0.139393693,-1.500498807,0.050952347,0.074158957,0.014173254,,6.7,4.388869155,-0.000804317,0.000151001,-0.00116959
6.8,4.398738323,-1.692087744,0.706988406,0.071704571,0.007737234,0.037517831,1.710004269,0.210313641,-1.527101723,0.00474913,0.033946375,-0.022197142,,6.8,4.328329101,0.000903141,0.001468818,0.002289316
6.9,4.510604971,-1.628932132,0.647132944,0.079937815,0.021062308,0.049035123,1.769075736,0.285266698,-1.663659167,0.100088501,0.112354441,0.07801444,,6.9,4.436648513,-0.001364548,-0.00022951,-0.002304094
7,4.657903369,-1.56280186,0.491705952,0.139355325,0.072228932,0.107527691,1.759707298,0.394820909,-1.581308414,0.011924395,0.063445611,-0.011529066,,7,4.438087226,-0.001069786,-0.000141445,-0.000827304
7.1,4.754001384,-1.520465879,0.417494314,0.086630063,0.039170948,0.05275247,1.591790546,0.538624722,-1.590163121,0.007226069,0.046961632,0.002448375,,7.1,4.35073992,-0.000103209,0.000874825,0.000240434
7.2,4.823095331,-1.429414197,0.361735132,0.094439781,0.046251215,0.069368221,1.615959457,0.574734337,-1.775655148,0.054236276,0.098878925,0.03423265,,7.2,4.475674049,-0.001299566,-0.000254701,-0.00116563
7.3,4.916922241,-1.389646002,0.142366576,0.102658977,0.058056109,0.069219011,1.531167089,0.653237405,-1.70527221,-0.012488995,0.04424035,-0.009898967,,7.3,4.450928309,-0.000296894,0.000680953,0.000457526
7.4,5.035026449,-1.276435525,0.112590859,0.114555862,0.078776686,0.090550381,1.525946846,0.810576395,-1.741957387,0.060632548,0.114553163,0.058111539,,7.4,4.484736375,-0.002225574,-0.001145173,-0.001991275
7.5,5.112260487,-1.192085909,-0.020367426,0.127204537,0.091577794,0.09963312,1.380564617,0.891507492,-1.759527218,-0.046395326,0.025930229,-0.015162053,,7.5,4.486254269,-0.000600453,0.000396354,0.000297288
7.6,5.098624296,-1.161521846,-0.173003143,0.029540292,0.007002949,0.018893549,1.178585018,0.93271413,-1.848241276,-0.023625233,0.041528165,-0.009440269,,7.6,4.437020759,0.000757168,0.001706007,0.000789785
7.7,5.148415614,-1.046643848,-0.274737289,0.071306433,0.050889828,0.055852991,1.34912189,0.902043296,-1.967450751,0.06296594,0.128115388,0.031837795,,7.7,4.60499293,-0.001752116,-0.000690636,1.92758E-05
7.8,5.247352386,-1.028365655,-0.532006217,0.075145794,0.057922513,0.03843735,1.176839607,0.969174258,-1.842574388,-0.075948701,0.005945139,-0.013612702,,7.8,4.535322085,0.000674164,0.001625565,0.000884334
7.9,5.332885782,-0.885161212,-0.512065521,0.069014297,0.06365128,0.073852047,1.206346742,1.122479215,-1.907594406,0.07068869,0.144980487,0.051444077,,7.9,4.584614962,-0.002263894,-0.001193824,-0.000270518
8,5.409058391,-0.771791129,-0.66076419,0.120294989,0.114837681,0.089622379,1.108942781,1.155459705,-1.897752349,-0.070927779,0.025617483,0.016305445,,8,4.623306102,-0.000720479,0.000244688,0.000658748
8.1,5.455213797,-0.677192541,-0.763998174,0.064252248,0.074124853,0.08176324,0.913882573,1.337252969,-1.877665971,-0.005047455,0.083302803,0.041330204,,8.1,4.569559745,-0.001265728,-0.000245315,-0.000472404
8.2,5.453957112,-0.520701731,-0.829019385,0.09448783,0.106457109,0.098551751,0.92201211,1.315347542,-1.9771007,-0.030562956,0.06913317,0.020114392,,8.2,4.663633139,-0.001435533,-0.000457587,0.001072659
8.3,5.536852271,-0.422109471,-1.001136652,0.099258808,0.121850602,0.107468542,0.779891461,1.467012846,-1.896319046,-0.029099449,0.073012161,0.068867638,,8.3,4.65321213,-0.001825404,-0.000800762,0.000244498
8.4,5.49493777,-0.315236039,-1.099907992,0.059173576,0.087948936,0.092156377,0.563428626,1.488526512,-1.974472631,-0.086404974,0.024840426,0.0191312,,8.4,4.662533519,-0.000259798,0.000487455,-0.00059278
8.5,5.46150226,-0.203787358,-1.236828891,0.033992053,0.074738854,0.077478189,0.54504693,1.484666268,-1.995289006,-0.020093731,0.078721555,0.00312137,,8.5,4.699353051,-0.001162131,-0.000243621,0.000886295
8.6,5.509095217,-0.09160222,-1.374840024,0.073002896,0.115049113,0.085303268,0.519823969,1.498310668,-1.964245047,-0.050319247,0.063042658,0.04804595,,8.6,4.743395441,-0.00137611,-0.000460403,0.001414676
8.7,5.542676882,0.020354523,-1.484487851,0.065497915,0.118833084,0.112504902,0.339489565,1.63110729,-1.946914508,-0.060626194,0.058851468,0.067913573,,8.7,4.749538975,-0.001319436,-0.000540262,0.000419268
8.8,5.455762226,0.131951704,-1.606907938,0.018284493,0.081586363,0.085424415,0.143024372,1.597783641,-1.99596629,-0.097355017,0.020770119,0.014694059,,8.8,4.766637299,-3.16303E-05,0.000443064,-0.001390496
8.9,5.409859596,0.238909167,-1.733915329,0.007809816,0.078852511,0.076028178,0.156933744,1.553341366,-1.972421287,-0.035753855,0.06966614,-0.017486869,,8.9,4.788979367,-0.001039337,-0.000282516,0.001565823
9,5.440813197,0.337378789,-1.85850393,0.040834824,0.11329618,0.073222826,0.105137206,1.556381121,-1.949980388,-0.071847884,0.051384879,0.057471751,,9,4.832516232,-0.001007377,-0.000321662,0.001297212
9.1,5.376385955,0.388477691,-2.017558909,-0.025290091,0.061169215,0.059239094,-0.159225666,1.568531926,-1.982251049,-0.116483695,0.008244359,0.014661522,,9.1,4.85708279,0.000647117,0.000760374,-0.004044525
9.2,5.348842074,0.575862134,-2.056358156,0.018979593,0.11409817,0.111173085,0.004996384,1.535775217,-1.864328598,0.010511683,0.110250399,-0.048981526,,9.2,4.845659068,-0.002405412,-0.001213144,0.006795914
9.3,5.363759221,0.616389426,-2.198823859,0.027944659,0.119796089,0.041884331,-0.281590405,1.541970202,-1.949257667,-0.156317914,-0.002635042,0.159413005,,9.3,4.927138192,0.000364591,0.000313995,-0.003456807
9.4,5.286647753,0.769430014,-2.274541225,-0.00411451,0.115991942,0.174603101,-0.344881616,1.665869211,-1.850589219,-0.01330154,0.085187765,-0.029630827,,9.4,4.903648244,-0.001914361,-0.001121465,0.004158762
9.5,5.198492538,0.883249442,-2.379445197,0.013615456,0.120374858,0.062089051,-0.504072527,1.488000427,-1.882011026,-0.141842775,0.002424484,0.109053707,,9.5,4.947264914,0.000124423,4.31847E-05,-0.001402754
9.6,5.142257259,0.946159272,-2.483705592,-0.018141416,0.113386645,0.149687314,-0.591367963,1.600024782,-1.84293967,-0.039857204,0.06499692,0.011289265,,9.6,4.972232219,-0.001371826,-0.000953484,0.002430252
9.7,5.074381504,1.098155605,-2.569544137,0.022895337,0.146395223,0.115712691,-0.674234602,1.487976796,-1.784499709,-0.103435921,0.030851243,0.100165738,,9.7,4.986363263,-0.000975151,-0.000582265,0.002380045
9.8,4.981782595,1.131932344,-2.680118155,-0.026702963,0.115055741,0.13796239,-0.926437271,1.546701658,-1.831896617,-0.109708539,0.024281393,0.088403351,,9.8,5.04743705,-0.000108835,-0.000647521,-0.001736607
9.9,4.840438255,1.276807385,-2.772230626,-0.021717508,0.129271635,0.152344335,-0.944306046,1.427145417,-1.709513605,-0.064731449,0.030992856,0.009571772,,9.9,5.018151227,-0.001108842,-0.000798044,0.003352685
10,4.764991434,1.30783643,-2.86033543,-0.021962964,0.119840288,0.109056147,-1.113467166,1.369149637,-1.756930981,-0.119932815,0.014112094,0.113070697,,10,5.083641437,-9.68495E-05,-0.00058952,-0.001008979
10.1,4.643784637,1.393357079,-2.963407283,-0.036913452,0.127159511,0.169319777,-1.196592902,1.367720354,-1.674523823,-0.072254324,0.026543823,0.029731417,,10.1,5.093465381,-0.000826444,-0.000950118,0.002075734
10.2,4.501831557,1.449866988,-3.066889299,-0.054878605,0.102591224,0.107508695,-1.375154772,1.20885038,-1.673483662,-0.130904571,-0.013540302,0.073048543,,10.2,5.130820153,0.000703674,-0.000352787,-0.002585521
10.3,4.356336377,1.47888183,-3.157664825,-0.078962288,0.093043666,0.135319898,-1.413817365,1.13676533,-1.600882194,-0.061862934,0.010740974,-0.024956427,,10.3,5.135594779,-0.00016345,-0.000718987,0.000605081
10.4,4.299905816,1.573462192,-3.19521463,-0.015682946,0.142768575,0.135658846,-1.396352619,1.059554504,-1.519207695,-0.064265346,0.031185808,0.077408967,,10.4,5.135115193,-0.001474501,-0.001052908,0.004614678
10.5,4.17285709,1.568531257,-3.300186256,-0.057372865,0.113967877,0.143120121,-1.713286835,1.08213407,-1.615606219,-0.159358684,-0.019733175,0.139730306,,10.5,5.254163432,0.001236056,-0.000635499,-0.004579571
10.6,3.952083302,1.678714537,-3.3906222,-0.08821541,0.112360441,0.190935938,-1.735246881,0.947655191,-1.414898808,-0.032745266,0.000645094,-0.050314211,,10.6,5.182086464,-0.000638538,-0.001072791,0.002640696
10.7,3.800350175,1.6471349,-3.446660256,-0.076556423,0.082833952,0.079402564,-1.858004839,0.710433388,-1.479604056,-0.139122295,-0.040172586,0.078698979,,10.7,5.249957621,0.001499788,-0.000186821,-0.004047242
10.8,3.663388783,1.629720591,-3.54137028,-0.103264283,0.087431201,0.156627044,-1.865050687,0.714348357,-1.366536184,-0.03027195,0.005185895,-0.052175191,,10.8,5.24994221,-0.000155783,-0.001078264,0.001235684
10.9,3.533868327,1.67749347,-3.595338323,-0.070246155,0.097223688,0.095798822,-1.934765058,0.514666707,-1.330290708,-0.104758471,-0.033677677,0.056063004,,10.9,5.264788537,0.000771361,-0.00059696,-0.001309365
11,3.393747352,1.644768564,-3.651463529,-0.09501014,0.0900628,0.150821745,-2.048171603,0.530678052,-1.313545311,-0.058458473,-0.014318238,0.007656492,,11,5.31576714,0.000378125,-0.000985924,-0.000796304
11.1,3.238314779,1.721388673,-3.692719698,-0.057512399,0.120350419,0.155979346,-2.057709042,0.397435899,-1.186177683,-0.054947846,-0.011941789,0.036422351,,11.1,5.279717548,-0.000596062,-0.001313982,0.00241274
11.2,3.102638444,1.693154722,-3.718327037,-0.05866551,0.120303222,0.169762713,-2.231161538,0.393751781,-1.239485875,-0.098837346,-0.030974786,0.109254313,,11.2,5.365627262,0.000333373,-0.001210074,-0.001361731
11.3,2.886511297,1.73126318,-3.797139433,-0.077791309,0.115982664,0.208234141,-2.34163725,0.309617285,-1.11589811,-0.059053695,-0.03325092,0.029819269,,11.3,5.353106996,1.73157E-05,-0.001356594,0.000307355
11.4,2.671574016,1.700339143,-3.835104525,-0.086271052,0.093382734,0.159718466,-2.450037208,0.132283839,-1.099435698,-0.088452138,-0.057585705,0.04969694,,11.4,5.387719072,0.001116082,-0.000830569,-0.002347578
11.5,2.483068002,1.648456218,-3.89074921,-0.09631745,0.086643226,0.176366472,-2.485399185,0.037568169,-1.003924237,-0.035362903,-0.0378891,-0.005878025,,11.5,5.383248411,0.000383296,-0.001198261,-0.000309826
11.6,2.279773065,1.585944012,-3.951485686,-0.107290566,0.061663218,0.125186494,-2.584821053,-0.144640758,-0.989119941,-0.090137759,-0.079525384,0.011894443,,11.6,5.439350099,0.002186108,-0.00010333,-0.003911542
11.7,2.090793919,1.523912726,-3.99621219,-0.122559138,0.05180489,0.143185576,-2.578535558,-0.257480039,-0.856552396,0.000131418,-0.031202106,-0.062795383,,11.7,5.408465175,0.000837501,-0.000938857,-0.000655385
11.8,1.965421849,1.50341341,-3.969838152,-0.054421436,0.100689681,0.143871016,-2.530174079,-0.358044452,-0.799542433,-0.025591567,-0.03849961,0.031798666,,11.8,5.394305367,-0.000373866,-0.001642759,0.001371482
11.9,1.810549366,1.431912955,-4.007001106,-0.071827999,0.08932175,0.176459604,-2.734407984,-0.321438604,-0.851788591,-0.083877799,-0.080756577,0.071602877,,11.9,5.500988923,0.001430678,-0.000880775,-0.003469269
12,1.526588054,1.435116444,-4.073103174,-0.10995772,0.060541253,0.186555374,-2.808094266,-0.466375987,-0.685508197,-0.012701274,-0.066685557,-0.04512666,,12,5.466606048,0.001192188,-0.000792998,-0.001479294
12.1,1.285650963,1.31180777,-4.084725408,-0.114809134,0.027722954,0.105579598,-2.836455036,-0.702951966,-0.661536477,-0.04712464,-0.089709437,-0.032893543,,12.1,5.501620148,0.002552144,0.000339445,-0.003332574
12.2,1.135761767,1.205905752,-4.093698878,-0.100001394,0.042547841,0.137712744,-2.762645786,-0.774882829,-0.518587074,0.042236315,-0.022403412,-0.054155282,,12.2,5.452365962,0.000422303,-0.001461586,-7.1075E-05
12.3,0.987788159,1.132203099,-4.075737177,-0.061131985,0.069680019,0.129192604,-2.809354991,-0.851434579,-0.536471319,-0.04280794,-0.096672468,0.015592359,,12.3,5.511083311,0.001440757,-0.000651486,-0.001985053
12.4,0.762897145,1.037536233,-4.127657087,-0.112372628,0.020132773,0.141191518,-2.952615773,-0.892673644,-0.474369924,-0.008453691,-0.08419255,-0.041571769,,12.4,5.551124112,0.002240686,0.000180991,-0.003186226
12.5,0.518923863,0.993124456,-4.112562164,-0.086451832,0.032093689,0.129044816,-2.845243823,-1.070272689,-0.299662944,0.041880029,-0.040395263,-0.062561972,,12.5,5.476188465,0.000856844,-0.001153683,-0.000346576
12.6,0.438116536,0.891600607,-4.029643838,-0.020520301,0.090684477,0.161843374,-2.818727747,-1.040392919,-0.301129252,0.024735027,-0.061344924,0.032603107,,12.6,5.500088519,-0.000540405,-0.002135159,-0.000641266
12.7,0.188467045,0.7783035,-4.105161188,-0.082654661,0.022157102,0.144198569,-3.095952188,-1.09134587,-0.343060447,-0.082479296,-0.157073663,-0.022763814,,12.7,5.627542867,0.003651559,0.001319987,-0.003649043
12.8,-0.16393064,0.68798674,-4.155751875,-0.153129326,-0.048667695,0.09542124,-3.041190779,-1.30409301,-0.085527325,0.081811207,-0.039194911,-0.11229077,,12.8,5.532010598,0.002311984,0.000665765,-0.000900469
12.9,-0.336000244,0.485053344,-4.090788155,-0.100157828,-0.026062114,0.033656762,-2.896002568,-1.588136247,-0.061447804,0.017433619,-0.079504223,-0.072741903,,12.9,5.535694725,0.003077391,0.000978024,-0.00072581
13,-0.407923406,0.297710001,-4.061391762,-0.08796616,-0.009563219,0.081770645,-2.857918274,-1.55115186,-0.005690005,0.091217077,-0.034425636,-0.040409446,,13,5.560882789,0.00140415,-0.000396112,-0.00187145
13.1,-0.597960338,0.229439379,-4.033116529,-0.053074715,0.009427169,0.094958849,-2.855461525,-1.62209864,0.067114982,0.030698368,-0.088553285,-0.067152248,,13.1,5.566839578,0.002080533,0.000149864,-0.000805236
13.2,-0.803033846,0.092325636,-4.007860034,-0.084672876,-0.027716092,0.070065501,-2.902986613,-1.649759714,0.116356937,0.057301053,-0.076170431,-0.054222202,,13.2,5.582421781,0.002393368,0.000719361,-0.000853464
13.3,-0.954152316,0.056010106,-3.91979651,-0.009915188,0.034197531,0.133538011,-2.721484197,-1.671637643,0.286188743,0.131287848,-0.002000573,-0.006340528,,13.3,5.527505948,-0.000481828,-0.002380125,-0.003446671
13.4,-1.079537332,-0.098444108,-3.859456424,0.006581578,0.044295421,0.134259714,-2.862482127,-1.637568111,0.227230993,-0.004754742,-0.146305573,-0.085179081,,13.4,5.615468287,0.001974904,0.00020295,-0.000426946
13.5,-1.353537289,-0.171151722,-3.872772182,-0.053359048,-0.028956166,0.089704804,-2.935889514,-1.631475863,0.375885845,0.096701635,-0.053695667,-0.027091108,,13.5,5.578807014,0.001218281,-0.000195306,-0.001150772
13.6,-1.584426013,-0.275992877,-3.796844522,-0.011356671,0.001168775,0.106780426,-2.825103871,-1.746945309,0.473117346,0.067978984,-0.074115098,-0.048688077,,13.6,5.564566772,0.001281647,-0.00040725,-0.001236132
13.7,-1.768318062,-0.524042468,-3.796039502,-0.08143986,-0.07468755,0.031745479,-2.961890164,-1.821515728,0.451209944,0.022057967,-0.137449261,-0.10515965,,13.7,5.599242635,0.003903334,0.001768988,0.006238792
13.8,-1.930906563,-0.555868302,-3.690908586,-0.010595062,-0.022928654,0.088892588,-2.662573209,-1.830573689,0.692255968,0.215292188,0.02405371,0.137777909,,13.8,5.545613662,-0.001120086,-0.001993039,-0.008040832
13.9,-2.00681557,-0.747158635,-3.587451081,0.046696141,0.012155404,0.164859398,-2.740579595,-1.823244498,0.643902092,-0.01811957,-0.144618808,-0.206708238,,13.9,5.605789544,0.002480371,0.000616978,0.00339834
14,-2.259745038,-0.852757526,-3.584698642,-0.064574907,-0.083960064,-0.003621597,-2.827695176,-1.761200846,0.749276321,0.11599544,-0.065258493,0.027071043,,14,5.559414957,0.001887731,0.000385251,0.002595134
14.1,-2.521289353,-0.948938994,-3.522754211,-0.025147465,-0.072772358,0.067861963,-2.689558856,-1.955215885,0.805826265,0.09012079,-0.092273195,-0.002490707,,14.1,5.591591031,0.001852906,0.000702442,0.002911743
14.2,-2.561333917,-1.149298982,-3.407819641,0.00731172,-0.050480655,0.09780045,-2.552707359,-1.874406696,0.953085679,0.130332872,-0.044052531,0.044200282,,14.2,5.548751931,0.0006148,-0.000191466,-0.002362718
14.3,-2.647746258,-1.184102473,-3.2536317,0.069383466,0.003831105,0.158562716,-2.461011767,-1.776200637,0.993356057,0.114823768,-0.044786031,-0.040490462,,14.3,5.581619787,2.72741E-05,-0.000995431,-0.004634984
14.4,-2.828321585,-1.290833443,-3.210076735,0.037354919,-0.031242838,0.08974363,-2.568546475,-1.725001997,1.039311018,0.063109401,-0.110625791,-0.125427897,,14.4,5.570252502,0.0014316,0.000598098,0.003810868
14.5,-3.054351004,-1.353466834,-3.125474385,0.03232433,-0.054252691,0.057056212,-2.501023252,-1.683785025,1.123630992,0.131221009,-0.041629915,0.068418418,,14.5,5.569165862,0.000187351,-0.000387988,-0.002607283
14.6,-3.200578141,-1.485694265,-3.038589872,0.046587435,-0.049027431,0.118468397,-2.464474742,-1.679989164,1.20119997,0.069396109,-0.092019763,-0.088788518,,14.6,5.556298951,0.001196475,0.000377818,0.002850896
14.7,-3.315704059,-1.572874452,-2.910213651,0.047997768,-0.052192271,0.074233495,-2.387588975,-1.581776135,1.271634695,0.132068538,-0.046647524,0.051595278,,14.7,5.547627406,-1.22797E-05,-0.000334753,-0.002537065
14.8,-3.506705701,-1.691231593,-2.85323209,0.032972379,-0.084909619,0.083497944,-2.41326224,-1.606208819,1.293855473,0.045568786,-0.112276904,-0.107859451,,14.8,5.562789682,0.001878303,0.000770538,0.008668118
14.9,-3.621438064,-1.754657882,-2.718350991,0.048510163,-0.071160222,0.061932352,-2.238532671,-1.491174635,1.441981508,0.165891007,-0.031090012,0.186217219,,14.9,5.51774776,-0.000669073,-0.000522565,-0.005907994
15,-3.705845159,-1.829381169,-2.575637771,0.097345495,-0.051316004,0.181635383,-2.189071748,-1.448672457,1.438441076,0.059254789,-0.077170399,-0.140675767,,15,5.557532867,0.000551471,0.000211936,0.002180305
15.1,-3.856437436,-1.921187298,-2.503368092,0.044276479,-0.08574415,0.029930748,-2.183049727,-1.346053847,1.535690434,0.093665665,-0.072158166,0.023306776,,15.1,5.494817495,0.000742048,0.000286999,0.003696831
15.2,-4.007581917,-1.945829773,-2.368376899,0.073518959,-0.07930598,0.103653728,-2.078982736,-1.300067688,1.539646538,0.115519141,-0.058066575,0.069193342,,15.2,5.547796675,-0.000279896,0.00013086,-0.001546375
15.3,-4.059453469,-2.013303922,-2.239238766,0.112723252,-0.053426243,0.153246796,-1.961136856,-1.167046034,1.681852204,0.096764472,-0.038338033,-0.022672939,,15.3,5.495972194,-0.000509991,-0.000429968,-0.003007213
15.4,-4.188773119,-2.063908427,-2.10890855,0.081794617,-0.076098799,0.085273275,-1.975850092,-1.094119955,1.654600048,0.059091673,-0.08994099,-0.084490588,,15.4,5.500091799,0.000621748,0.000704947,0.005190661
15.5,-4.323198935,-2.079789755,-2.008536428,0.088737055,-0.084264342,0.072334869,-1.880306777,-0.976896493,1.727239518,0.120315897,-0.031400215,0.112989493,,15.5,5.499862583,-0.000801951,-0.000196603,-0.003498205
15.6,-4.44796757,-2.16414095,-1.908418678,0.076933628,-0.106551056,0.114926267,-1.865863964,-0.943548083,1.764163997,0.029712608,-0.094527427,-0.11228448,,15.6,5.489885604,0.001107378,0.001050321,0.008541074
15.7,-4.512165937,-2.161800594,-1.737626109,0.089920891,-0.089006587,0.067095092,-1.694813562,-0.777892055,1.854190858,0.146405859,-0.009383911,0.198957214,,15.7,5.447400394,-0.001436555,-0.000546865,-0.006946241
15.8,-4.546409538,-2.14704653,-1.571526751,0.158040745,-0.048687542,0.214510011,-1.59339497,-0.668326685,1.849937149,0.053537928,-0.047214226,-0.132380917,,15.8,5.488918254,-0.000864776,-0.0004118,-0.002275981
15.9,-4.675142324,-2.203182842,-1.506886146,0.077115564,-0.106935875,0.029288891,-1.632071714,-0.583787531,1.899874096,0.030701945,-0.096321436,-0.076619899,,15.9,5.430844105,0.000904023,0.001327192,0.009090111
16,-4.834056239,-2.197861505,-1.393686274,0.066255642,-0.139491191,0.038460377,-1.568648127,-0.493247065,1.895820298,0.100483104,-0.029250691,0.17564152,,16,5.469725477,-0.000514022,0.000583913,-0.000230869
16.1,-4.880146501,-2.23140619,-1.259932727,0.095590549,-0.116973914,0.149609694,-1.430325086,-0.409823221,2.015687974,0.049521854,-0.046054104,-0.020662794,,16.1,5.401669088,-0.000205492,0.000773219,0.002283317
16.2,-4.881562153,-2.19927569,-1.050621392,0.10931561,-0.093738382,0.102729914,-1.275120774,-0.27243502,1.982739032,0.083973313,-0.015284945,0.063306759,,16.2,5.401856133,-0.001189124,-1.3695E-05,-0.003012546
16.3,-4.960103372,-2.187213124,-0.973037907,0.102294743,-0.110237075,0.111756689,-1.227037886,-0.200685436,1.980681064,0.018816825,-0.064848239,-0.077670014,,16.3,5.423490689,9.8849E-05,0.001286491,0.005244848
16.4,-5.020453105,-2.162476585,-0.845862083,0.090920847,-0.119661937,0.06448882,-1.114772476,-0.059447033,2.060783413,0.079861407,-0.002504958,0.118077219,,16.4,5.371336622,-0.001055802,0.000304505,-0.002087023
16.5,-5.078604586,-2.147963985,-0.707410667,0.094037978,-0.121910718,0.123377931,-1.052819922,0.006440521,2.029990272,0.013130283,-0.053402769,-0.061685345,,16.5,5.392892425,6.68186E-05,0.001391035,0.004880566
16.6,-5.072643325,-2.08148114,-0.547862892,0.114510527,-0.097200204,0.095824166,-0.866950846,0.182625574,2.115365412,0.095530578,0.028190546,0.134168898,,16.6,5.328828277,-0.002149202,-0.000665946,-0.007242747
16.7,-5.107361124,-2.044532748,-0.416843411,0.119657958,-0.100384279,0.146319312,-0.823004369,0.233706227,2.039543334,-0.02794646,-0.073595872,-0.16517167,,16.7,5.375471662,3.54768E-05,0.001642875,0.005871584
16.8,-5.123264223,-1.975699774,-0.299264067,0.100807758,-0.109614031,0.050437987,-0.685809571,0.412752129,2.139141918,0.082685479,0.040341115,0.149748805,,16.8,5.300557944,-0.002020846,-0.000427418,-0.006020352
16.9,-5.127183587,-1.888146802,-0.130841656,0.148162366,-0.069211445,0.180474549,-0.61156688,0.531727428,2.09254112,-0.005451323,-0.032171223,-0.115613107,,16.9,5.324468533,-0.00147617,-9.16086E-06,-0.002215508
17,-5.155881772,-1.841775998,-0.03512297,0.093355321,-0.112572896,0.05177661,-0.537311827,0.614114667,2.11108868,-0.004903263,-0.038261755,-0.054620894,,17,5.298547636,-0.000505255,0.001563843,0.003585899
17.1,-5.177608705,-1.752257483,0.09150512,0.104329991,-0.109010721,0.081699029,-0.483271317,0.784834037,2.133741818,0.042135969,0.03738289,0.082758711,,17.1,5.279064178,-0.002088265,-0.000382616,-0.005789016
17.2,-5.185480584,-1.67162188,0.235966352,0.112161535,-0.091179501,0.128178444,-0.396533585,0.86268477,2.124763225,-0.038050301,-0.044068975,-0.137081064,,17.2,5.26538639,-0.000846188,0.001034961,0.00155833
17.3,-5.187196047,-1.586676111,0.359578077,0.077725346,-0.123706957,0.033172785,-0.297950633,0.968993579,2.11625463,0.006088196,0.011178508,0.020518994,,17.3,5.256275994,-0.001215275,0.000881555,-0.000647467
17.4,-5.150487157,-1.455110689,0.504025962,0.124652206,-0.074498139,0.124931804,-0.184617085,1.144978038,2.175009074,0.014306788,0.035389154,-0.003367146,,17.4,5.192311327,-0.002615653,-0.001432864,-0.007399569
17.5,-5.136337232,-1.352966997,0.650384049,0.106520709,-0.083063701,0.093637492,-0.089605039,1.169714142,2.077334815,-0.069548233,-0.075875303,-0.178895932,,17.5,5.236567195,-0.000806047,0.001699186,0.002566151
17.6,-5.151886273,-1.282564622,0.696979754,0.050306827,-0.152139026,-0.006263663,-0.067555354,1.279909653,2.127465204,-0.02191022,0.034122296,0.018752287,,17.6,5.222425351,-0.000795733,0.001215688,6.9804E-05
17.7,-5.091072048,-1.110298966,0.897596405,0.11742053,-0.058463139,0.122225611,0.063497451,1.496004027,2.233706986,0.023575378,0.063132091,0.008424404,,17.7,5.071156589,-0.003273104,-0.002791287,-0.009677381
17.8,-5.078287445,-1.005250189,1.049471959,0.085627915,-0.091620481,0.068182607,0.161115633,1.41513346,1.976908029,-0.129875496,-0.141636838,-0.258943686,,17.8,5.243054862,0.000245505,0.00333357,0.005570122
17.9,-5.030608697,-0.89890808,1.05690393,0.049964918,-0.152677173,-0.021631086,0.241591646,1.615152227,2.203765278,0.026921396,0.13255802,0.097687066,,17.9,5.109760946,-0.002751615,-0.001118813,-0.006556654
18,-5.007077511,-0.754763326,1.270934881,0.087520914,-0.06416743,0.096875677,0.250450755,1.681990484,2.122976316,-0.115673918,-0.062100353,-0.191939404,,18,5.09171959,-0.000824244,0.000484344,-0.000270493
18.1,-4.963440853,-0.616707399,1.398556671,0.031737468,-0.130009588,-0.0169405,0.459635874,1.712805176,2.049355294,-0.034870409,0.010824945,-0.051453722,,18.1,5.130219847,-0.001665401,0.001138846,-0.001873409
18.2,-4.868148911,-0.474745928,1.467748992,0.076085769,-0.089543079,0.048685042,0.502252974,1.866987889,2.169342362,-0.059060652,0.049207393,-0.077912963,,18.2,5.013404848,-0.00238969,-0.001361807,-0.004714458
18.3,-4.796050331,-0.292352373,1.682714601,0.072840959,-0.056722811,0.044110979,0.658921781,1.873841204,2.014266836,-0.086471408,-0.041139965,-0.137459268,,18.3,5.04932373,-0.001893422,-7.62634E-05,-0.002866099
18.4,-4.737093955,-0.190174768,1.70336144,0.031232088,-0.121876909,-0.012223145,0.725691203,1.917034478,2.034560724,-0.098364295,-0.011873423,-0.126509475,,18.4,5.081345885,-0.001230967,0.001100627,-0.001740366
18.5,-4.657397187,-0.037025132,1.828118578,0.03477686,-0.099617906,-0.002378909,0.759679349,2.045342596,2.129908145,-0.064269649,0.048509347,-0.095694601,,18.5,4.957224968,-0.002216485,-0.001032391,-0.003593868
18.6,-4.600171917,0.127590189,2.010115505,0.032239758,-0.082921984,-0.007978646,0.862798066,2.048127167,1.982179059,-0.119642393,-0.046454607,-0.151145711,,18.6,5.011563432,-0.001195482,0.000577978,-0.002034771
18.7,-4.507958381,0.269227657,2.063703102,0.008354128,-0.119263242,-0.033160407,0.983957566,2.093437451,2.042559793,-0.082602016,0.023989188,-0.118828742,,18.7,4.97355482,-0.001828582,-5.0817E-05,-0.00326492
18.8,-4.429895467,0.397398858,2.178612221,-0.004447654,-0.113779633,-0.050763997,1.001767841,2.106370968,2.019382368,-0.132001671,-0.020228724,-0.170718589,,18.8,4.969042097,-0.000667113,0.000778366,-0.000722887
18.9,-4.333771671,0.56300503,2.324301327,-0.01171183,-0.113006759,-0.061125709,1.153694268,2.154400489,2.040417559,-0.073112593,0.033994614,-0.101873045,,18.9,4.889093285,-0.001978764,-0.000467465,-0.003685914
19,-4.17461713,0.756043997,2.480794713,0.036488589,-0.05815987,-0.01055996,1.302897895,2.201834438,1.983118077,-0.105018544,0.006142505,-0.14647943,,19,4.806199213,-0.002360379,-0.001632756,-0.00423852
19.1,-4.087824102,0.869724153,2.531823475,-0.027621617,-0.111761542,-0.08122192,1.377212628,2.060751205,1.800485396,-0.168483596,-0.078187406,-0.20385084,,19.1,5.016481044,2.82321E-05,0.001976837,-0.00066056
19.2,-3.983392221,0.948408177,2.535984028,-0.066741702,-0.163487786,-0.122340685,1.405080817,2.140684638,2.078886023,-0.086410937,0.065728979,-0.137247966,,19.2,4.851011217,-0.001210468,0.000121589,-0.002073756
19.3,-3.821783059,1.179963347,2.84472158,0.012374429,-0.046660401,-0.051839096,1.548190478,2.237940735,2.020817284,-0.086510267,0.033206931,-0.125770932,,19.3,4.614842616,-0.00273898,-0.002409201,-0.004129459
19.4,-3.679095749,1.353814331,2.954491196,-0.004417214,-0.061911682,-0.06405883,1.746989281,2.05838924,1.62355558,-0.166693595,-0.079111796,-0.184303722,,19.4,4.909289262,-0.000915541,0.000517495,-0.003192364
19.5,-3.504342107,1.420005525,2.838507236,-0.050574666,-0.120627331,-0.103575618,1.786889128,2.077713197,1.921624699,-0.109891902,0.034818716,-0.177426051,,19.5,4.783223849,-0.001522856,-0.000396398,-0.002636467
19.6,-3.421740084,1.518820362,3.036535822,-0.07628254,-0.118128822,-0.153681219,1.72826141,2.044375817,1.798687118,-0.17189762,-0.038585726,-0.206679765,,19.6,4.826496914,0.000356902,0.001288939,0.000708394
19.7,-3.267220718,1.711735876,3.176789773,-0.053891151,-0.093883387,-0.120673011,1.943729586,2.100455924,1.916737098,-0.051233891,0.081416835,-0.087020747,,19.7,4.584994329,-0.00280992,-0.002086001,-0.005198106
19.8,-3.110919491,1.828038428,3.293895048,-0.052203688,-0.079551793,-0.120079194,1.965481638,1.934811753,1.560980119,-0.218381542,-0.097495158,-0.256485495,,19.8,4.829948374,0.000674861,0.001513036,0.000759303
19.9,-2.986060536,1.888240883,3.225445743,-0.138404578,-0.171881117,-0.212663102,2.063042444,1.839468569,1.781601365,-0.101177265,0.054005152,-0.139249403,,19.9,4.782712843,-0.00023553,0.000970559,-0.001290766
20,-2.805544502,1.988995712,3.423869568,-0.089399869,-0.100295465,-0.164158595,2.114526415,1.861706458,1.879486253,-0.118421717,0.03214812,-0.176895478,,20,4.516501229,-0.000918044,-0.000314646,-0.000127405
20.1,-2.630326696,2.152575234,3.633688689,-0.08674903,-0.082734827,-0.171590935,2.272561691,1.726196503,1.468147019,-0.134579072,0.001228272,-0.135892685,,20.1,4.686459276,-0.000607731,0.000249745,-0.001421
20.2,-2.417815545,2.227381815,3.534908325,-0.095696613,-0.08972003,-0.157704906,2.390306486,1.619155659,1.61182743,-0.122227343,0.028619016,-0.161554506,,20.2,4.600901407,-0.000778067,3.2964E-05,-0.000867232
20.3,-2.227225913,2.290034155,3.673255136,-0.1060807,-0.085154992,-0.185630575,2.426819853,1.526511489,1.486727338,-0.139470216,0.015307586,-0.158593839,,20.3,4.615901283,-0.000132903,0.000483146,0.000430469
20.4,-2.065308403,2.353103251,3.708372355,-0.130123066,-0.100111548,-0.202570085,2.490873323,1.415107537,1.475997566,-0.124154277,0.029479309,-0.137943889,,20.4,4.607125243,5.83142E-05,0.000756337,0.000256362
20.5,-1.834184473,2.45731373,3.830596805,-0.092886251,-0.052872651,-0.163924106,2.608168278,1.389867466,1.494819901,-0.083224078,0.073903746,-0.108383464,,20.5,4.413416086,-0.001571497,-0.000921196,-0.000320533
20.6,-1.674053682,2.494908479,3.889636862,-0.128905974,-0.075192998,-0.204926282,2.611855202,1.159137375,1.161099832,-0.193354043,-0.032852334,-0.159869702,,20.6,4.685066555,0.001683998,0.001922295,0.001923707
20.7,-1.477138317,2.505381525,3.819597635,-0.16743483,-0.108876143,-0.219991703,2.680113769,1.087760691,1.455460357,-0.051982907,0.105742885,-0.096797346,,20.7,4.479330679,-0.000456477,0.00011264,0.000698687
20.8,-1.296573419,2.544016738,4.02168226,-0.131384153,-0.06170415,-0.215477277,2.671751481,0.983664498,1.225340928,-0.146524198,0.015253852,-0.134066021,,20.8,4.47987818,0.000946958,0.001036418,0.002890748
20.9,-1.102088549,2.609415751,4.045576906,-0.15641009,-0.074619321,-0.218109872,2.79244374,0.822752037,1.151393604,-0.074292795,0.081184073,-0.063838036,,20.9,4.487331135,0.000133959,0.000408648,0.001109145
21,-0.917764064,2.554148559,4.017053609,-0.176819457,-0.087339384,-0.236836623,2.746965808,0.629323245,1.086469808,-0.141865177,0.017965538,-0.136203218,,21,4.537750739,0.002238194,0.001888244,0.003478622
21.1,-0.698008386,2.593609567,4.117736915,-0.162122847,-0.06369038,-0.225850117,2.862926585,0.56248828,1.152278522,-0.011983638,0.131308278,-0.038018804,,21.1,4.341291906,-0.000567308,-0.000367784,0.002347827
21.2,-0.506848586,2.576355472,4.188364271,-0.146180959,-0.04150192,-0.221227226,2.846278843,0.351805607,0.838663527,-0.151638159,0.008690088,-0.084701471,,21.2,4.490930773,0.002243583,0.001645922,0.003185948
21.3,-0.297742462,2.550268618,4.123735054,-0.190778579,-0.070999749,-0.227560185,2.915541753,0.194462211,0.943926044,-0.020057994,0.118946061,-0.04465852,,21.3,4.410453606,0.000751702,0.000313221,0.00256744
21.4,-0.096595528,2.485797093,4.194095838,-0.158138107,-0.037592463,-0.230192126,2.882442076,0.059551503,0.810351921,-0.089037805,0.049448482,-0.06731656,,21.4,4.39011961,0.001766913,0.001061933,0.00397061
21.5,0.075475442,2.454043787,4.208797818,-0.194249028,-0.065499756,-0.248094673,2.910573151,-0.142985908,0.70298134,-0.047913478,0.086721804,-0.032249376,,21.5,4.428022724,0.002025548,0.000989492,0.002733595
21.6,0.272034438,2.355576471,4.177529161,-0.193070071,-0.057322197,-0.24694463,2.886119655,-0.30189837,0.678285632,-0.039391994,0.077588596,-0.062848411,,21.6,4.386073398,0.002176209,0.001039575,0.004159887
21.7,0.470130138,2.312788518,4.246264357,-0.174558286,-0.03911471,-0.246264481,2.928963173,-0.448746111,0.581096097,-0.011438542,0.101951864,-0.009541955,,21.7,4.344864776,0.001566969,0.000384754,0.003383661
21.8,0.70634203,2.260045325,4.263923193,-0.142024913,0.000846774,-0.203077269,2.976074491,-0.590656618,0.481235406,-0.011962839,0.097670727,-4.84238E-05,,21.8,4.319766273,0.001244573,-5.36967E-05,0.003667646
21.9,0.930110299,2.175101905,4.248393187,-0.136673631,0.011403403,-0.194461347,2.988758813,-0.75553136,0.399470673,-0.016812298,0.088319238,0.018102921,,21.9,4.315694224,0.001577724,4.94322E-05,0.002915208
22,1.164249223,2.08151372,4.242180973,-0.119094731,0.03339186,-0.166587833,2.997689567,-0.848811154,0.353305087,0.017906869,0.112347666,0.025013155,,22,4.277795953,0.000826129,-0.000740288,0.003315371
22.1,1.350655468,1.973105761,4.224508342,-0.120575615,0.032773278,-0.178612192,2.939642679,-0.999797803,0.245178249,-0.023553733,0.067510368,0.026161373,,22.1,4.292228218,0.001978663,0.000141844,0.002515488
22.2,1.474036652,1.790831967,4.134565752,-0.191846528,-0.033643208,-0.229925528,2.804306128,-1.19167864,0.137742249,-0.014001878,0.062011184,-0.029570459,,22.2,4.329965406,0.003644291,0.001326282,0.003255966
22.3,1.639138844,1.67203847,4.123797132,-0.168056269,-0.012763922,-0.232434382,2.78721191,-1.241196274,0.07725518,0.085264377,0.135134208,0.010600891,,22.3,4.310950778,0.001453965,-0.000607887,0.003317861
22.4,1.820294511,1.618766091,4.15630121,-0.106936033,0.042394105,-0.196784831,2.806057992,-1.387409101,0.0061602,0.017491703,0.072443921,0.032880726,,22.4,4.265840818,0.001863498,-0.000245481,0.002526774
22.5,1.968751669,1.419034541,4.07010217,-0.177445764,-0.022489408,-0.233263409,2.707230059,-1.619377849,-0.101920861,0.002559813,0.051955454,-0.016142341,,22.5,4.264477798,0.004112245,0.001358973,0.003019839
22.6,2.177575063,1.256585305,4.038188523,-0.14138278,0.013029367,-0.212284532,2.723487576,-1.619776249,-0.21141949,0.144359146,0.15877913,0.035611857,,22.6,4.31781133,0.000729371,-0.001424961,0.001853038
22.7,2.339934868,1.172299439,4.00680671,-0.080994476,0.060646804,-0.191001858,2.69548291,-1.80088616,-0.205459026,0.007465474,0.041666409,0.010356946,,22.7,4.237925263,0.00257728,0.000138097,0.00220257
22.8,2.538580319,0.997122518,3.998963211,-0.117624815,0.033904003,-0.187402141,2.680900004,-1.883167626,-0.266673243,0.105608792,0.122749279,0.037122418,,22.8,4.209863449,0.001648397,-0.000847606,0.000478223
22.9,2.731230301,0.823033121,3.941260498,-0.067263617,0.077951526,-0.167116049,2.628707182,-1.933862298,-0.420131038,0.079251391,0.086477643,0.005264631,,22.9,4.278671712,0.001361887,-0.000939519,0.001090695
23,2.886798537,0.701693149,3.874042228,-0.066968159,0.074799258,-0.17428089,2.574095363,-2.021213527,-0.331777021,0.079421895,0.087725092,0.025915145,,23,4.16387689,0.001623226,-0.000822037,-1.63935E-05
23.1,3.030551536,0.491913658,3.854521283,-0.083188311,0.060004491,-0.18535897,2.468571813,-2.09474576,-0.551407761,0.079435545,0.074223131,-0.014859805,,23.1,4.220211919,0.00221616,-0.000276276,0.000947611
23.2,3.157835859,0.327245009,3.734044043,-0.07955801,0.057909129,-0.203390505,2.395565153,-2.151302659,-0.601475694,0.113186309,0.095992128,0.00697077,,23.2,4.226770831,0.001704112,-0.000648626,-4.9225E-06
23.3,3.322928141,0.208505157,3.714758637,-0.027674572,0.104729686,-0.161433554,2.383657298,-2.159338384,-0.638070406,0.126339666,0.108154254,0.013432955,,23.3,4.23963396,0.000548595,-0.001645548,-0.001914434
23.4,3.48475688,0.068636071,3.66805138,-0.006782612,0.123153441,-0.150430756,2.303180354,-2.182194949,-0.588460929,0.088854824,0.071960637,-0.024806612,,23.4,4.154077699,0.001051264,-0.001176687,-0.001417097
23.5,3.578794817,-0.154723837,3.604577557,-0.059502065,0.07091101,-0.21057893,2.128473182,-2.244215765,-0.749985812,0.080341215,0.052026247,-0.052288808,,23.5,4.125914352,0.002522499,0.000123372,0.000716465
23.6,3.679522561,-0.323147402,3.507466039,-0.049001502,0.076184687,-0.214999558,2.077538702,-2.248000472,-0.969546398,0.159484638,0.113116932,0.002760236,,23.6,4.275642436,0.000865755,-0.001076622,-0.0023283
23.7,3.759217729,-0.473401532,3.342090314,-0.028468288,0.086820353,-0.212322529,1.957185907,-2.322868613,-0.893313173,0.080370615,0.045121705,-0.084166185,,23.7,4.185218521,0.002292184,8.48478E-05,0.000585546
23.8,3.871077152,-0.636612599,3.338000945,-0.036887138,0.08065,-0.235015761,1.912112667,-2.298480183,-1.012681605,0.164373326,0.109065537,-0.005490474,,23.8,4.215914093,0.000858575,-0.000899964,-0.002904826
23.9,4.000708582,-0.775528164,3.242218116,0.020131636,0.127620656,-0.188293895,1.857521741,-2.291670647,-1.05663385,0.122991175,0.07963608,-0.073889132,,23.9,4.271726392,0.000679478,-0.001056981,-0.002765786
24,4.075079726,-0.950720366,3.136329108,-0.014980599,0.094668924,-0.246900956,1.68422465,-2.286290522,-0.982304213,0.100474736,0.048366861,-0.098192195,,24,4.105191222,0.001963145,0.000127586,-6.05655E-05
24.1,4.157012317,-1.110530274,3.127365978,-0.005554841,0.099177466,-0.249488236,1.650182104,-2.263877633,-1.297550014,0.1727703,0.107708591,-0.02975203,,24.1,4.298988348,0.000400839,-0.000999753,-0.003769255
24.2,4.24307389,-1.241439795,2.917790628,0.032627594,0.12800837,-0.22444117,1.544352385,-2.249560548,-1.158581755,0.112374384,0.05857858,-0.117567075,,24.2,4.237269993,0.000989185,-0.000507513,-0.001738489
24.3,4.296306604,-1.403647949,2.892827111,0.002303943,0.099303926,-0.280314037,1.408141389,-2.198637491,-1.23583208,0.132685858,0.065911245,-0.088701954,,24.3,4.17548975,0.001241775,-0.000162587,-0.001223951
24.4,4.352429908,-1.546941992,2.797338031,0.019253715,0.10843573,-0.272428592,1.348123151,-2.185544293,-1.437954183,0.151379643,0.079884506,-0.079107639,,24.4,4.31272478,0.000628387,-0.00054918,-0.002464637
24.5,4.464631544,-1.625219364,2.67072957,0.081739106,0.165237219,-0.226737305,1.322415299,-2.058375077,-1.301920513,0.170543176,0.101205564,-0.072300387,,24.5,4.330203319,-0.000878411,-0.002116,-0.005558622
24.6,4.483354539,-1.785889534,2.595080607,0.045087638,0.125331803,-0.28290699,1.054243512,-1.981715686,-1.281045023,0.064436591,-0.014210347,-0.194895094,,24.6,4.128753415,0.002024927,0.000657629,0.002696117
24.7,4.4862048,-1.903927789,2.56052519,0.016187173,0.087229719,-0.335994511,1.031671006,-1.946397117,-1.644206152,0.195882593,0.106797974,-0.006888253,,24.7,4.331269983,-5.32202E-05,-0.001011744,-0.003366859
24.8,4.515024769,-2.030751091,2.282792956,0.062000109,0.123049085,-0.279167836,0.941864957,-1.956473154,-1.585741513,0.10173022,0.019482682,-0.158024625,,24.8,4.355646113,0.001084067,9.74062E-05,0.000706461
24.9,4.566998941,-2.121779799,2.225191517,0.057463527,0.116271893,-0.322957565,0.867582351,-1.783097819,-1.531862087,0.177402281,0.084122638,-0.048175378,,24.9,4.30815699,-0.000446818,-0.00118316,-0.002660304
25,4.616310356,-2.187815768,2.180277566,0.10689279,0.157154828,-0.271752619,0.814418275,-1.692387855,-1.651376972,0.125768834,0.036692763,-0.117201831,,25,4.411651612,-0.000359069,-0.001108207,-0.001903371
25.1,4.629522864,-2.288015758,2.013940635,0.076559437,0.123280342,-0.324312381,0.624859724,-1.514573609,-1.555038349,0.116612874,0.019213394,-0.119749524,,25.1,4.265852113,0.000332416,-0.00040202,0.001085368
25.2,4.632126788,-2.323912568,2.000657937,0.095912955,0.134536739,-0.316122023,0.622853745,-1.447473508,-1.819156179,0.162592007,0.057535339,-0.040629416,,25.2,4.451055489,-0.001003193,-0.001468572,-0.00260339
25.3,4.641960178,-2.411502907,1.748788558,0.10523453,0.131588005,-0.307084151,0.47609169,-1.313083202,-1.691615663,0.091520099,-0.007715662,-0.140918962,,25.3,4.364518597,0.000210025,-0.000336359,0.00227343
25.4,4.666896527,-2.415933901,1.745174297,0.119309807,0.144461014,-0.317761111,0.469361667,-1.130748427,-1.81491891,0.176050701,0.064461098,-0.001668937,,25.4,4.463715814,-0.001934056,-0.002205249,-0.003507568
25.5,4.665704735,-2.457931088,1.564368922,0.140535846,0.149883658,-0.28669572,0.319318826,-0.985252413,-1.785392439,0.065161694,-0.037828078,-0.151749007,,25.5,4.425046822,-0.000243389,-0.000479972,0.00291296
25.6,4.654026289,-2.459805968,1.494313331,0.114678223,0.124873943,-0.340417046,0.249417457,-0.780378837,-1.869927864,0.147403153,0.037179218,0.002805258,,25.6,4.440040357,-0.001647863,-0.001707838,-0.001229332
25.7,4.675919488,-2.416186038,1.384366506,0.184124042,0.180492979,-0.251780035,0.258454365,-0.645526534,-1.929872521,0.111223181,0.004459481,-0.065194655,,25.7,4.561245851,-0.002395194,-0.002346419,-0.001452005
25.8,4.653679013,-2.44378637,1.195372648,0.143066014,0.136050082,-0.315711368,-0.004203489,-0.347483942,-1.849377149,0.048722683,-0.062077465,-0.100455631,,25.8,4.417422894,-0.000763892,-0.00040659,0.004045482
25.9,4.589652954,-2.354164863,1.181129673,0.137813068,0.123918282,-0.318663418,0.034310354,-0.267508217,-2.091410769,0.12680331,0.024183377,0.038271531,,25.9,4.551356492,-0.002401235,-0.002021401,-0.001216072
26,4.575087362,-2.363720403,0.905976364,0.157866441,0.134661596,-0.282873355,-0.061546297,-0.136185638,-2.041089426,0.040039866,-0.065199994,-0.09256715,,26,4.558883787,-0.001259472,-0.000499341,0.003921511
26.1,4.524657813,-2.336939812,0.787386667,0.114574725,0.087725228,-0.350352274,-0.17475064,0.055853559,-2.096493459,0.073686055,-0.021808556,0.015296094,,26.1,4.536582966,-0.00135895,-0.000641267,0.002987165
26.2,4.462449096,-2.281484748,0.640746806,0.120835825,0.089566549,-0.319334185,-0.162352882,0.072391861,-2.198687231,0.0603852,-0.042323235,-0.007877862,,26.2,4.614738766,-0.001299916,-0.000250636,0.003759387
26.3,4.46003175,-2.253403045,0.443283375,0.129617732,0.089162633,-0.318354741,-0.198627044,0.238886799,-2.156850553,0.069567452,-0.023897875,0.024831594,,26.3,4.62105897,-0.001967114,-0.000635773,0.002776512
26.4,4.467626624,-2.148184358,0.364001222,0.166850375,0.123259885,-0.274499502,-0.184890332,0.438168904,-2.172385902,0.063869446,-0.019939079,0.034282424,,26.4,4.645859338,-0.00303812,-0.0014391,0.001068303
26.5,4.452457367,-2.057765207,0.223923454,0.16302834,0.117343289,-0.274175567,-0.313331773,0.690731501,-2.203315999,0.00789563,-0.064934822,-0.004222778,,26.5,4.651890764,-0.002302361,-0.000496137,0.003298016
26.6,4.351077373,-1.966653787,0.072146616,0.10480008,0.061085363,-0.325127801,-0.428914277,0.803131889,-2.278601381,0.000529384,-0.064132947,0.019770928,,26.6,4.667541148,-0.001096382,0.000480029,0.004951466
26.7,4.300563806,-1.856238989,-0.082294777,0.117615572,0.072954321,-0.298767432,-0.345017678,0.810909954,-2.274961924,0.062127834,-0.015155269,0.078371687,,26.7,4.69730311,-0.002795544,-0.00060915,0.002203277
26.8,4.277002716,-1.816133652,-0.280935264,0.12470299,0.068494415,-0.293203902,-0.433196174,0.935781478,-2.299702226,-0.029849039,-0.082239771,0.007458752,,26.8,4.741379881,-0.001310831,0.000872853,0.005286503
26.9,4.253679983,-1.678356596,-0.389208022,0.116871069,0.069690726,-0.288109353,-0.400403839,1.12902325,-2.263796602,0.051556902,0.000843102,0.109054604,,26.9,4.713818599,-0.00326808,-0.000795286,0.001727826
27,4.250986575,-1.523473246,-0.498975219,0.16526702,0.111184219,-0.231089139,-0.417702987,1.253977863,-2.311924331,-0.024763669,-0.059949448,0.04799457,,27,4.758892803,-0.003182702,-0.00023887,0.003128261
27.1,4.181228582,-1.431227987,-0.689788071,0.10018854,0.053623895,-0.282815504,-0.609186875,1.491011106,-2.359296977,-0.058829563,-0.071241157,0.057003265,,27.1,4.803056399,-0.001447584,0.000862957,0.003812275
27.2,4.034493336,-1.292869151,-0.855413724,0.043209556,0.006719967,-0.314434504,-0.606171403,1.395141292,-2.322847258,-0.024227812,-0.061320195,0.04701482,,27.2,4.795074749,-0.000746673,0.001507931,0.004819512
27.3,4.066605325,-1.157929193,-0.959665755,0.122275824,0.073420796,-0.250148231,-0.427840068,1.401205799,-2.24661821,0.059574138,0.019456938,0.133658057,,27.3,4.759576255,-0.004542299,-0.000716468,0.002513963
27.4,4.14740867,-1.003760345,-1.048756847,0.20836808,0.148486045,-0.162427431,-0.481101929,1.784024498,-2.337866929,-0.069142031,-0.030971675,0.129892026,,27.4,4.804903197,-0.004732743,-0.000357622,0.004110747
27.5,4.044499509,-0.815738502,-1.229558445,0.100792104,0.077246545,-0.204129898,-0.809460126,2.109668985,-2.454168143,-0.134467639,-0.066083331,0.130053978,,27.5,4.934427563,-0.001621485,0.000478001,0.001299758
27.6,3.872507567,-0.561255547,-1.369544024,0.060889778,0.058293765,-0.199394873,-0.768927487,2.00379838,-2.24598958,-0.016882935,-0.040014048,0.069689198,,27.6,4.811518291,-0.003132448,0.00036042,0.003402665
27.7,3.837649084,-0.468975159,-1.48057579,0.107336994,0.066895851,-0.221447731,-0.786277805,1.96933668,-2.345022522,-0.088228988,-0.047443957,0.120988007,,27.7,4.888587295,-0.002794065,0.000799589,0.003116396
27.8,3.79329255,-0.334713579,-1.664604551,0.085723156,0.072045398,-0.179681882,-0.798987261,2.210400772,-2.310706503,-0.07270862,-0.019529906,0.132177353,,27.8,4.911642118,-0.003158768,0.000393302,0.003367461
27.9,3.758909651,-0.082162729,-1.759021431,0.109371193,0.103210958,-0.14716742,-0.847861312,2.293550301,-2.263417016,-0.080493333,-0.018727741,0.162395766,,27.9,4.883711152,-0.00389221,0.000701082,0.005241357
28,3.673535905,0.088319712,-1.886648644,0.089942781,0.09072327,-0.135674328,-1.007675262,2.444117798,-2.352539111,-0.132431568,-0.016496207,0.204055663,,28,4.991041982,-0.002817704,0.000614026,0.003101072
28.1,3.513691671,0.269369207,-2.077955075,0.02707439,0.059887739,-0.138545799,-1.131277361,2.459449836,-2.251522819,-0.125405586,-0.049873005,0.138221319,,28.1,5.012989541,-0.001803788,0.000646717,0.00125126
28.2,3.401587134,0.442418796,-2.178379477,0.027125388,0.050754382,-0.152448158,-1.13501375,2.355503848,-2.138117954,-0.086472079,-0.04342183,0.105161607,,28.2,4.947094394,-0.002583136,0.000865073,0.002915854
28.3,3.331139404,0.565366939,-2.280504767,0.042488724,0.054154045,-0.155444719,-1.147209102,2.391635304,-2.193200139,-0.122952218,-0.029317408,0.150038696,,28.3,5.01205765,-0.002353734,0.001014952,0.002924948
28.4,3.227399751,0.713687453,-2.460069258,-0.001484157,0.036829834,-0.148743908,-1.232516472,2.44593866,-2.156718621,-0.13865927,-0.040429189,0.13897066,,28.4,5.089742578,-0.001338924,0.000822293,0.000557743
28.5,3.158738884,0.938327623,-2.534605349,0.023025727,0.069402674,-0.107301267,-1.18661146,2.40750508,-1.970589436,-0.070399728,-0.014285896,0.122029556,,28.5,4.96199454,-0.003315983,0.001310791,0.006419443
28.6,3.074817108,1.061215106,-2.608848455,0.02689111,0.05891625,-0.126217938,-1.34214641,2.462218391,-2.158923199,-0.177641023,-0.006636741,0.24347064,,28.6,5.143503058,-0.001493607,0.001043427,0.001528886
28.7,2.958684412,1.275490229,-2.77193471,-0.000617183,0.088196575,-0.036045487,-1.337457932,2.555635226,-1.932523859,-0.088727059,0.001698204,0.165615533,,28.7,5.08478603,-0.002928088,0.001226598,0.006497502
