time,x,y,z,roll,pitch,yaw,xdot,ydot,zdot,p,q,r,thrust,roll angle,pitch angle,yaw angle
0,0.0184195323069548,0.0184195323069548,0.0184195323069548,0.0184195323069548,0.0184195323069548,0.0184195323069548,0.0184195323069548,0.0184195323069548,0.0184195323069548,0.0184195323069548,0.0184195323069548,0.0184195323069548,7.14763195609992,-0.000861856569345958,-0.020729034407068,-0.00181610564162396
0.01,0.0193717654817975,0.0193717654817975,0.0193717654817975,0.0219257582586035,0.0192258329000762,0.0217887506431697,-0.0262774351886398,0.0638879260109383,2.27576447430479,-0.0253761320395691,-0.795099936076219,-0.0287919791360739,5.77306416032161,-0.000227780359721557,-0.00367649904968311,9.81134960263255e-05
0.02,-0.010028482910051,0.0261619180917375,0.925502371502591,-0.00942418732356079,-0.321215422634761,-0.00871918862721546,-0.0214207726526803,0.0280211549061148,0.901845481836473,-0.0132345244017472,-0.1494389103359,0.00273245685373439,5.64385484863268,0.000716034137578982,-0.00444666137240585,0.000308282841948788
0.03,-0.00107219751883611,0.0187297104589621,0.38660130904965,0.00188340839663455,-0.0586667146021925,0.00675142161828284,0.377143712924717,0.00167518699927313,0.965890383338059,0.0344040673598241,-0.176569968653704,0.0117573855441525,6.00636156442874,-0.000605108272691884,-0.0127897215714355,-0.000829918822458267
0.04,0.134967086302756,-0.0141695167332304,0.39966690225046,0.00156304346501834,-0.0904844962353788,-0.00533370759632283,0.0849921667486733,-0.0151633347941367,1.14266219660018,-0.0350902047256686,-0.518820105966265,-0.028950742015565,5.93981643780368,0.00116400350016693,-0.00371490273972189,0.00172480835949099
0.05,0.0709790206589668,0.0314173696114046,0.520934277204557,0.0172593044086465,-0.185146607240622,0.0179534249203291,0.198684067451113,0.0582862078975327,1.12918535123605,0.0713033232653856,-0.133444425371369,0.0630232838783696,5.70489388063167,-0.00206694021686537,-0.00951679705003604,-0.00385176335850423
0.06,0.0782848101658578,0.0218593288812214,0.491954518353672,0.0338925552468728,-0.0636590761671231,0.0326738821173471,0.242457427220429,0.0274265223449527,0.925326120220207,-0.0801294092917165,-0.384408026575729,-0.0811574227104267,6.02137009440911,0.000936580988897322,-0.00763735216438595,0.0022357088177056
0.07,0.134529935769488,0.0492871452474729,0.448652082692034,-0.00243090742459522,-0.132573265031522,-0.00292000936904001,0.203043318707077,0.107701567130885,1.22388103691619,0.0584112014025647,-0.287866169168469,0.0749177917869799,5.72934978209354,-0.00115008065312159,-0.0075933385255044,-0.00338785039704182
0.08,0.0853208755848588,0.0462262235783477,0.546651888647174,0.0324988293930115,-0.125245623525045,0.0400143323350626,0.217844468791645,0.0159167962942401,0.939263667467455,-0.0359037300885762,-0.313094635876693,-0.0682966724014535,5.8862383502899,8.47725396085496e-05,-0.00694110218955552,0.00132192013705189
0.09,0.107059059053705,0.0255248298702499,0.449964938290961,-0.0011618754387792,-0.125039064103649,-0.0117935165358378,0.259213197637037,0.0804598349284611,1.11012601479189,0.0113813440422384,-0.282204121515081,0.0406959708265287,5.79064267614229,0.000166803685353778,-0.00762740799921523,-0.00128520354261821
0.1,0.0753771138352948,0.00173649984979427,0.48187572603357,-0.0208736914534386,-0.158204170979999,-0.0122277257893855,0.194445505259831,-0.0334271084600585,0.988655126278488,-0.0150312731010294,-0.348820831446906,-0.051128450807026,5.85085585830185,0.00215315294365564,-0.00472253136886876,0.00325378019871103
0.11,0.0693875229768974,-0.0237682109299374,0.452587612547424,-0.02101877174336,-0.173820738177181,-0.0398294586384439,0.276272972218964,-0.0333616888779129,1.08351402088579,0.068536667545188,-0.226627558515669,0.0570122893483907,5.747810221848,0.000398533146673835,-0.00696192058229241,-0.000524321314898585
0.12,0.141818003090431,0.0157952670290667,0.534069986085422,0.0542835816294469,-0.0886615070084894,0.0494551488102291,0.349200953409635,0.0226419376417488,1.02439222922883,0.0407361026489587,-0.283355115301548,0.00821532612838724,5.8126054177776,-0.00194919329414375,-0.00877249028238844,-0.00270333583361881
0.13,0.129919525174173,-0.0053390815233737,0.481958680858823,0.005029733037349,-0.14900569438232,-0.00346675071907739,0.227138699894242,0.0500621882175385,1.03789139550804,-0.0877572783965738,-0.387750284982954,-0.0682043902704427,5.78928348676013,0.00280316696400429,-0.00385737936780857,0.003548470285692
0.14,0.110416352030132,0.0349169360571115,0.515221413319524,-0.0254721307257525,-0.17087748741556,-0.0246646916304643,0.336360402398625,0.0379852707062103,1.05640940779183,0.11363818075764,-0.179138212024976,0.083326604918122,5.69129332650259,-0.000576734944209096,-0.0079229197632618,-0.00252591392924577
0.15,0.133727216771712,0.00828810285747917,0.51242739053148,0.0433541416556453,-0.105427435531296,0.0320942133203272,0.333256217519677,-0.0235954166680358,0.965579827210308,-0.0236039588304239,-0.352277714183337,-0.0597323058627393,5.83373760730599,0.000225803196776316,-0.00601812783233215,0.00144236114407049
0.16,0.139771098749386,-0.00969574897425944,0.486207586164508,-0.0136281620308887,-0.17244996857641,-0.0276688697969483,0.30663570209204,0.0568512109135482,1.09068493103758,0.00126793999602954,-0.280359490023404,0.027565837186611,5.68088692518108,0.00175223632625068,-0.00522165950747731,0.000250074649218903
0.17,0.104706416782255,-0.0032376227232378,0.519538812817553,-0.0235267493467026,-0.167819873748643,-0.0189276678152492,0.333219505472899,-0.0415663335519353,0.955222606367827,0.0506409269577295,-0.271533654560204,-0.016657089900066,5.76279579209999,0.00142471118580636,-0.00546006545812263,0.00202321605184644
0.18,0.12034597833913,-0.0388734752331044,0.473116618174039,-0.00370264292338177,-0.164996523842605,-0.0330483058179266,0.361770466724907,-0.0506644259409946,1.04146099758769,0.0363640374971197,-0.281905253313005,0.0225297302397928,5.71027904694612,0.00121338514502164,-0.00517774446368241,0.000830729621695757
0.19,0.179467869042559,0.00475870190963987,0.556247964893055,0.0351561810708877,-0.127752765912624,0.0271220939933751,0.431778363697408,0.0352872626346301,1.02444736352371,0.0690530006561187,-0.236583338889996,0.0332265631133067,5.66851366636504,-0.0013632201054689,-0.00755916805054651,-0.00267896462847604
0.2,0.184181845531446,0.0130487156883368,0.536951152198645,0.0295755622919319,-0.131075369181524,0.0176120268162465,0.377834956210639,0.0431920146480691,0.960010939171616,-0.050765750693441,-0.346806287257635,-0.0576256809737092,5.73564149139174,0.00157478669030266,-0.004578351597666,0.00206922582052179
0.21,0.15012948624657,0.00268185163416351,0.502174562099745,-0.0354841827700843,-0.191890906518234,-0.0431969032643671,0.380986443139635,0.0205459139345341,1.02380385878102,0.0453445570727903,-0.245500936802514,0.0307401188141945,5.66132246295197,0.00225321400788256,-0.00476358799516279,0.000930228018288665
0.22,0.155061850879516,-0.00428420684400179,0.534383098367959,0.00604748193926417,-0.151038777936449,-0.00549964896171774,0.443348100665891,-0.0428276374461454,0.988248491146826,0.0829651515017694,-0.255090938522278,0.00770460589104484,5.67322249442534,-2.65218727538502e-05,-0.00583180943242853,0.00021719334732429
0.23,0.215433648652931,0.00439828466598212,0.557638699144507,0.0516168185904779,-0.126021569563666,0.0227870465961738,0.47280374505268,0.0460292848362079,1.00295331589185,0.0176479542363856,-0.272180020842779,0.0185341477992281,5.64398820181414,-0.00055274120152502,-0.00620840768968641,-0.00178440655751287
0.24,0.207467619715867,0.0176555807495366,0.552253077913031,0.00870684593589469,-0.15196972118336,0.00815170163941565,0.436068604916146,0.0570919952830047,0.962247218678792,-0.01840063666623,-0.304065433076259,-0.0387286911172911,5.65673092775558,0.00199769753638573,-0.00430777994320408,0.00169064463884833
0.25,0.208010769818867,0.0360347213950964,0.551793318180048,0.00356213122259532,-0.156087448668864,-0.00949091458480236,0.489523765127876,0.0454582648741825,0.994029811305482,0.0886858835736241,-0.223551232138464,0.0438674549872248,5.60630403187228,-0.000219040012489182,-0.00596850783669036,-0.00135754020311179
0.26,0.228372978650122,0.0278991956668518,0.569019147894406,0.0470064295759574,-0.127127041883372,0.028490424288472,0.497935968698934,0.0364357532953204,0.949652004348138,0.00481436557824446,-0.2902723719132,-0.0223539869732399,5.6476262379648,0.000149304826943841,-0.00531406895800012,-8.96792586512776e-05
0.27,0.241628865453827,0.0322643747481594,0.563843992181242,0.0181575216000748,-0.148641748854889,0.00617827031600713,0.505867802733423,0.0851045138426084,0.993598689783218,0.0207529684785092,-0.262994562091298,0.00990430324037586,5.5825579538742,0.000832728159037812,-0.00499273043956651,-0.00053317836285308
0.28,0.239095801822338,0.0440190872772955,0.580398410283404,0.0189545471591921,-0.145970684058443,0.0111133668590748,0.517365790541069,0.0543545634792973,0.934275844824852,0.0449235366828285,-0.258040227090086,-0.00515742653006455,5.61084338170003,0.000394714774040627,-0.00506857344938613,-3.56892454732776e-05
0.29,0.210876128637057,-0.00410007501088649,0.530138161413146,-0.00475930016930876,-0.178682209148345,-0.0279792294559283,0.484643321167665,0.0041692601440789,0.942880195452535,-0.00248060002495788,-0.290763047767243,-0.022193186178413,5.62589245384524,0.00301758156133191,-0.00304360184787885,0.00269615244497592
0.3,0.238441006216281,0.0152266474099211,0.570842677322887,0.0089072710403557,-0.161314650282367,-0.0071430821404028,0.578014745134233,0.0372049789437659,1.00168690426192,0.13023540823983,-0.186685146280898,0.0630773167663214,5.52685615309073,-0.000764053429364823,-0.00599105649513147,-0.00235517097816037
0.31,0.291266274471458,0.0409477277045257,0.615666631868694,0.0791344753512486,-0.106740875879464,0.0523447583550775,0.587754192367583,0.071631820837109,0.909232799146153,-0.00300530136978007,-0.28699114821342,-0.0318993271971852,5.60662343194944,-0.00064067419367813,-0.0055054321569753,-0.000807061363066756
0.32,0.288378954278498,0.0453711821510736,0.576725827937756,0.0154376377397033,-0.155502025913464,0.00334425105262338,0.563417088685317,0.113900740952076,0.981848427871054,-0.0108362082715163,-0.280238657794342,-0.00590374787755115,5.52202869121013,0.00203959223502143,-0.0035558269381212,0.000352120797842606
0.33,0.217251966599677,-0.0010217462216924,0.552534449756201,-0.0457672636548198,-0.213531033648606,-0.052670152997109,0.509931632933605,-0.021736828077603,0.864395180007895,0.0467888649685841,-0.255517271842295,-0.0305699489852038,5.64334268532527,0.00423954892316154,-0.00220204782045498,0.0042882248681795
0.34,0.247695361677462,-0.00606592319680739,0.550180699533254,0.0173772840420966,-0.166035510795393,-0.0246273198023402,0.65361560355079,-0.00940190562187881,1.05456345707653,0.169994488465119,-0.171900708956296,0.0868159179375211,5.45606680162906,-0.00135689531961963,-0.00562372168946641,-0.00263037917108438
0.35,0.304191687380197,-0.00663941044658696,0.633552245168886,0.0687770966097093,-0.134505405817208,0.0342366779454001,0.603300152390503,0.0345706656987876,0.840100793865189,-0.0475367957993297,-0.301150543555141,-0.0603010322883631,5.58402988942787,0.00149906407221933,-0.00339946708513122,0.00145364664892483
0.36,0.299695553177121,0.0252558740096181,0.564020000185118,-0.00916329408725472,-0.175702245758349,-0.0205692766336254,0.635647565041373,0.0969507385738654,0.976693893497634,0.0673796180989371,-0.210610511631887,0.0359076003132177,5.47912096282554,0.00180907332421715,-0.00381913541230912,-0.000461340742375202
0.37,0.297367522150085,0.0322137789816156,0.608611416597658,0.0229481148589293,-0.155387545947002,0.00294833479762781,0.637903710932738,0.023472376088235,0.87380562055088,0.0747778742648205,-0.241682478533311,-0.0174604372266755,5.53662927656501,0.000597126587721024,-0.0037055489732862,0.000955365507186202
0.38,0.313709053675773,0.0146568937186502,0.582985629688581,0.0349953548520603,-0.160115832548507,-0.00666380885088575,0.665846872156941,0.059514513785666,0.932743142863599,0.0313226107638717,-0.231441914641345,0.0207135736290464,5.48188606918517,0.00118831408271569,-0.00353941844616131,-0.000426166089584067
0.39,0.360430078779098,0.0623142543079772,0.641971637520525,0.0491526313887717,-0.126722719908442,0.0388941119376924,0.722224994391145,0.115706294063587,0.907049447053297,0.0846154778744315,-0.200221581204794,0.0168478411045581,5.45875779166002,-0.000936314269237215,-0.0054232003978368,-0.00242922362077137
0.4,0.368401094797795,0.0663150632355046,0.623749191172057,0.0564674388712601,-0.130174017373769,0.0271876708608098,0.694231368433724,0.104740747156138,0.869133356038327,-0.0136030226186615,-0.286258858480354,-0.0378517081550494,5.49529687201255,0.00114665760414952,-0.00295189933462833,0.000700178487760756
0.41,0.349794036546301,0.0517350223224572,0.601871335941685,0.00555973100109269,-0.177284199030878,-0.0113322283485547,0.696967210377686,0.0979762288802555,0.904425135214482,0.0562288017449072,-0.202338880102572,0.0189650901985852,5.45060138373723,0.00188853218028098,-0.00300761887374503,-0.000140422859088442
0.42,0.330996942669245,0.0255431523049561,0.599223172852674,0.0116100245548762,-0.167032672245157,-0.0123206864825156,0.697238480364045,0.0369796713688765,0.860029516609659,0.0716213147838577,-0.224591224007648,-0.0175200615077497,5.49815060444381,0.00167679568920499,-0.00282982428899457,0.00165793404390026
0.43,0.354763597292365,0.0211055431946856,0.603489745897339,0.0340128529067621,-0.161538387569294,-0.0101136075251052,0.740817019075344,0.0673445897092324,0.917514106697254,0.0753723832993576,-0.205806756235886,0.0343071353742837,5.4260517511385,0.000654240948439989,-0.00321960879969569,-0.00092458772331922
0.44,0.378973390450113,0.0365593414886814,0.636163762780288,0.0405592963034797,-0.150850825622593,0.0168176501215312,0.749617302412966,0.0848971340255299,0.851637501938779,0.0417157951248631,-0.217351437168802,-0.0169169178498711,5.44750799864274,0.00112094818616157,-0.00311882417171564,0.000210147224458345
0.45,0.371401732986167,0.0289035423300658,0.601867185687389,0.0134749732408943,-0.17044192735862,-0.0184184065883177,0.743164564011362,0.0723714303199314,0.864019928673003,0.0458636688364501,-0.226864828209221,-0.00414954434769333,5.45287846099556,0.00240979105984307,-0.00198680013283468,0.00127760827186562
0.46,0.378299692763869,0.0301678799984687,0.615649160457621,0.0198956450184465,-0.171286012255026,-0.0114067021960117,0.776259416875654,0.0679956713661113,0.880846833631314,0.102824066959918,-0.180556020391552,0.0221418769531741,5.41501756761903,0.000892673541895187,-0.00286005812275397,-0.000309069730630455
0.47,0.410946435170099,0.0438754022382958,0.642404984881993,0.0575610727376503,-0.139467935490956,0.0169311368622135,0.808825361293386,0.0952647761107622,0.857124111716253,0.0565350457006692,-0.202368952899156,0.000578128021461488,5.40725459204865,0.000277457234138204,-0.00333572750368167,-0.000643632736299916
0.48,0.450534192429639,0.0778391778237297,0.659760546883177,0.0609748557841956,-0.127853332742869,0.031636631754048,0.842808445345041,0.148462281028259,0.861623574951161,0.0496318699935715,-0.204302389864305,0.0113981478950688,5.37503446561787,6.59094905989122e-05,-0.0034359891667801,-0.0018728152908034
0.49,0.383661792943873,0.0141710865022282,0.591742596761176,-0.0175132351788271,-0.205695580463352,-0.0423392892708184,0.731987903706255,0.0341768676872668,0.778150355016575,-0.0240267703191227,-0.273374761191645,-0.0782683611726195,5.512169177865,0.00637742202628303,0.000933089750261472,0.00588503240519278
0.5,0.377893636936162,0.00391243562923278,0.586371977675658,-0.0195645054547306,-0.212800573592551,-0.0631483787503526,0.84791561102819,0.0410102742350056,0.960626023313241,0.244731378847349,-0.0825997947448669,0.107792058373242,5.35126035513808,7.75885988023517e-05,-0.00300278971737806,-0.00197541634586959
0.51,0.472935272527956,0.0506027462542117,0.709449362174378,0.130538495849302,-0.0922068110179912,0.0664713826007215,0.901320736384041,0.110024146377197,0.839728915492893,0.0398098294413491,-0.192299588882279,-0.0230482333428384,5.36871768225343,-0.00202826840842503,-0.00491520187874358,-0.00189507868068423
0.52,0.484399563401872,0.0630001619396036,0.656960127437362,0.0372293381713889,-0.147184068892944,0.00655365611429724,0.861671294689748,0.152745133760016,0.847292743905207,-0.0584857258013144,-0.284910990288407,-0.0304518872587605,5.34863520121102,0.00419285038896444,0.000196000877783587,0.00127840926951506
0.53,0.455049016266477,0.0650009193873145,0.64537778624129,-0.0175122725880144,-0.202503166699685,-0.0232442008513485,0.862335608636682,0.102308209270647,0.792332515763775,0.176546885885912,-0.100859975612333,0.0230579086746547,5.3981357894345,0.00125997441773196,-0.00195705763626884,0.000110942716772415
0.54,0.476524783319492,0.0604196029038601,0.642545757565165,0.0899001547715883,-0.115637158414939,0.0163998727236688,0.929350201118365,0.106011994944874,0.876526450221592,0.0748996297813017,-0.173216647930635,0.00962840295111174,5.32772261254418,-0.000948652647081346,-0.00357980648957757,-0.00108513690613885
0.55,0.479193707396035,0.0314743357943219,0.657416534189729,0.023197795713762,-0.172358778491793,-0.0127570561321615,0.864795453208704,0.0992099313874717,0.774839764319807,-0.0370859005501338,-0.260097838013254,-0.037916423562016,5.39048298131313,0.00504411296709393,0.00107564349746392,0.0025213796702355
0.56,0.4583787682888,0.0317830649472676,0.61766907679979,-0.0216200915203347,-0.21053835170783,-0.0418942911148931,0.904630843049859,0.0854213307563057,0.838781176404454,0.199958892052073,-0.0806600732867939,0.0377930899354978,5.37166986750936,0.00148612369694977,-0.00160068167608401,0.000258376248332015
0.57,0.507614753491707,0.0543488750649118,0.675111901759828,0.0987480660215574,-0.112371745803843,0.0197830897822143,0.973682391200199,0.110283250715773,0.861383133233346,0.0850395139344332,-0.161845787319153,0.0115678179756102,5.29172940207155,-0.00125284221599659,-0.00333291069682505,-0.00135430572260962
0.58,0.563318386601832,0.0873005408506998,0.713356587302467,0.0761826258135251,-0.123692484924783,0.0372356378308249,0.983338004617347,0.179461440521421,0.782743966058058,-0.00640463838604836,-0.211799128394858,-0.00383174069448659,5.29849000852058,0.00158897424196901,-0.00101978859310874,-0.0014811791872317
0.59,0.553799552025108,0.0981585744854493,0.669697423064485,0.0250011538121979,-0.159125124580718,0.0121762610320868,0.97454573163507,0.162038094129684,0.775343051791494,0.0949789479409219,-0.136287720161103,-0.0190856465430321,5.32382392360766,0.00148845241531054,-0.00120203505407535,0.000399674066902777
0.6,0.531347309377695,0.0667677731525416,0.648070082658484,0.0424111984440671,-0.15366001981804,-0.0189946991660411,0.963931745473881,0.119012187421791,0.783996183911827,0.0702684661617915,-0.164420156285831,0.0009314216578903,5.33863124278412,0.00179083297818645,-0.000762297441422984,0.000929927485648688
0.61,0.563869901302698,0.0812766909214498,0.682982941948892,0.0592348592807422,-0.139297665039898,0.0158144679396219,1.02031832354569,0.168296089433431,0.81954325758359,0.106791309217365,-0.124893424530316,0.034329934705899,5.26485702113413,-3.27796412656152e-05,-0.00194020063362726,-0.00229792917395135
0.62,0.5663881183959,0.0754829667102715,0.681416302566163,0.0526533745938865,-0.145923716530439,0.00935951543710851,0.988860863467124,0.139679120286372,0.733496069192227,0.0166073254205814,-0.188047431283893,-0.0521550261765169,5.33658703969225,0.00268984119640859,5.52863266677858e-05,0.00209224504492022
0.63,0.551230139370396,0.0569232388646287,0.64168291474821,0.00883890560773435,-0.182174099550491,-0.0376304558341866,1.00073950479799,0.133535881238835,0.800643672231862,0.114150238462771,-0.120094783280741,0.0332339353071208,5.31877012494856,0.00259141850456236,5.28143000041497e-05,0.000234662830098883
0.64,0.56835388682912,0.0617313472135275,0.678709124313473,0.0524548349619045,-0.148938321274344,0.00124785580183944,1.03213831515638,0.132780535499455,0.796725943179744,0.120896404642516,-0.114902919373348,-0.00134253879526196,5.27735992151944,0.00046110004232026,-0.00119472086234717,5.31542416547389e-05
0.65,0.58314378394214,0.0577471940149322,0.680072138233221,0.0530318879790652,-0.151351313572266,-0.0132114312754397,1.02922609109305,0.138955998272872,0.748036406718826,0.0311912089838468,-0.166871249897379,-0.00780662153195446,5.30830225469891,0.00273885352875918,0.000490276865982776,0.00103574285818985
0.66,0.595952280384771,0.0700346168136148,0.671636480091678,0.0252801997477475,-0.16549550378573,-0.00980188948047581,1.06090160583646,0.157638197152761,0.786537669968439,0.12992898576814,-0.0952622104197212,0.0194269154759416,5.27838615794867,0.0015237962984342,-0.000332408808807826,-0.000438062128029981
0.67,0.629948379224172,0.0935557143781999,0.706436871146873,0.0797504289686727,-0.122573534474119,0.0166342299470055,1.096316957314,0.179268038559768,0.769824967014556,0.0954136746438925,-0.113989764447567,0.000525853170338753,5.24801012911249,-0.000212617575660472,-0.00138775532244299,-0.000769294106096978
0.68,0.615640603459145,0.0674168428593524,0.674749759224053,0.0358690757549271,-0.161837943758407,-0.0201956999000903,1.05366331476606,0.142273223650672,0.722091682075178,-0.00144814998455085,-0.181820488483261,-0.0323565709398063,5.32097391714321,0.00462235836619099,0.00204805147016975,0.00250583344793915
0.69,0.636200052944753,0.0861285423825226,0.684436858414504,0.0250583451559331,-0.163893216745565,-0.0104981032543087,1.12478208533078,0.186595056531007,0.812556783203882,0.215619908258113,-0.0262986569129489,0.0595419322742516,5.22659799223692,-0.000450135270786109,-0.00125199389820001,-0.00232095579782733
0.7,0.685211558384673,0.118324621689327,0.741978464875731,0.126560691644078,-0.0868646563053481,0.0446225894544606,1.14816776125383,0.209575483078871,0.731074335340777,0.0269188043342806,-0.137140504270192,-0.0303238929348165,5.23998813772435,-0.000577302602350749,-0.00155578271781026,-0.000629075026629221
0.71,0.67956662034613,0.106518813873122,0.695751704263543,0.0333561461151405,-0.150247943158561,-0.00757535406919428,1.12840413437433,0.201469830740624,0.758536509742653,0.00357069560677795,-0.169329281881543,-0.0103718347604922,5.24920040498506,0.00441310909296945,0.00238621432180498,0.000857648653034623
0.72,0.690789863563175,0.117720170572157,0.718621359006639,0.0346376504125203,-0.153602263261348,0.00564962023603096,1.16114225691179,0.213727733934276,0.748317615924586,0.215777845275832,-0.00783706256909844,0.0298994435255829,5.2314040505628,-0.000937352324877611,-0.00122376708081184,-0.0016859215066899
0.73,0.694696190550918,0.106527209528455,0.707325425599266,0.105668266158229,-0.103523158023619,0.00936827512125024,1.15247084211229,0.193730098485219,0.722946563928654,-0.0109531466482405,-0.157729629768302,-0.0359884184438473,5.25323147054942,0.00167382002504074,0.000453768962488495,0.00128150647588204
0.74,0.741953573080265,0.144455791982311,0.740076868822734,0.0552171587021837,-0.125039539205764,0.0244931608381934,1.22528397045011,0.270979750201758,0.787686020373026,0.126357532427805,-0.0618776240153336,0.059549800658989,5.15970710480129,0.000118575219368071,-0.000278267453730011,-0.00397553679389309
0.75,0.751768386557837,0.150090306592061,0.749495779825223,0.0885999908780838,-0.107925107612498,0.0407391823365802,1.19300837863101,0.236363583028856,0.667047670662307,0.0490689538833892,-0.104738871576368,-0.0694115199710318,5.24990742694239,0.00069084488527062,9.90586008578375e-05,0.00136732661916445
0.76,0.691383348047813,0.0818680267570362,0.654289455824883,0.00857647300462217,-0.177926329233331,-0.0633192089503125,1.13473700381525,0.171703201443998,0.731948286414106,0.0234331185675682,-0.137073245237094,0.00025359995999371,5.31814125913265,0.00602195165535905,0.0036006023664832,0.00296899818781891
0.77,0.717849578068159,0.100364269961438,0.717694337356833,0.0321338042997072,-0.1560172930661,-0.00470467291024025,1.22179905682251,0.221413337310892,0.824077799604854,0.27332129011077,0.029278784436137,0.0638895918139645,5.16554891579514,-0.00167057095115675,-0.000841824290788259,-0.00282041516992065
0.78,0.719156656414017,0.0789874280764508,0.727974257847667,0.0972472803336086,-0.125021813655954,-0.013306918419345,1.15808802715326,0.166751479685765,0.642629211497905,-0.0649100925262914,-0.169170144089842,-0.0879263419068237,5.29481996633449,0.00421123156969014,0.00268507338395323,0.00479472410477648
0.79,0.761623389933371,0.121495362075761,0.711068936553395,0.0195918927473785,-0.152987383229159,-0.0164759911701565,1.27045654391784,0.271539121558095,0.819749523821108,0.212953358394085,0.0111976381912614,0.118414322162004,5.16436189373427,0.000200202589097774,0.000381984992680046,-0.00484453405798026
0.8,0.795982625544441,0.14629688267548,0.775354654443297,0.114654912979994,-0.091338816049271,0.0513280137736901,1.24794264135579,0.246522881126925,0.673238928268068,0.0474223031106154,-0.0815720478209979,-0.0958474924560141,5.21312964236789,-1.97795677463241e-05,3.40847525952992e-05,0.00211103272646594
0.81,0.800702561153439,0.143539507432095,0.725522018074976,0.0576144009594944,-0.123629082882328,-0.025837548036464,1.27410453187549,0.267208009285299,0.749582076419257,0.0378890791020515,-0.0991208755756734,0.0552050578545942,5.19075860814722,0.00288510513138677,0.00250652897847926,-0.00139947764343086
0.82,0.822866268349668,0.157644755852529,0.763113098517077,0.0548395493449539,-0.125899717294552,0.0370322059861778,1.28730107414877,0.277319198808565,0.708289717565218,0.165147938527623,0.00322241554595584,-0.0154477070238353,5.19358115840883,-0.000308549494009354,0.00030343188524789,-0.00103162858723314
0.83,0.853992045200232,0.180848697926777,0.768369097513349,0.125417371345071,-0.069059993614654,0.0251647923081053,1.32542637453436,0.309535984283124,0.72508696362191,0.0478779306125095,-0.0686832924295732,0.00597103832421712,5.15805781855602,-0.000681034976861321,-8.28170959797408e-05,-0.00147269876144129
0.84,0.832702230621168,0.150456923685789,0.741101974884689,0.0391194540137813,-0.137736262232966,-0.00313593533071388,1.27350285026437,0.257374455336041,0.695218112123608,0.000102235286469007,-0.115925222915835,-0.0364033846483605,5.23468883908468,0.00495146678584245,0.00423784864797741,0.00187661216496608
0.85,0.826960099071631,0.138284060170917,0.734320824919017,0.025303568018274,-0.154771890215988,-0.019904633590777,1.29553397939522,0.271579236539101,0.741842932095782,0.229917066952786,0.0545490342238819,0.0375054442425495,5.21317474569752,-4.47175877510999e-05,0.000949843241665632,-0.000842899863618776
0.86,0.85920957123671,0.160733697295361,0.773632180761671,0.130378440132363,-0.0712601159442859,0.0216939424204682,1.32920032326765,0.296646871547304,0.733814635162741,0.0425589615242487,-0.0577671345988589,-0.00816396863162184,5.14851043687335,-0.000367547909384852,0.000362191929019967,-0.000644254238088293
0.87,0.886861674362723,0.178634997145216,0.782387747223928,0.0637380224381319,-0.10971284373352,0.0159496730100223,1.34796802359309,0.311935696037935,0.709475317516188,0.0348932670034398,-0.0762284029504541,0.00167520194485444,5.17175505136973,0.00269962047929722,0.00320619927489569,-0.000833322172671599
0.88,0.857941482136393,0.142199089652364,0.735643318178903,0.0207276944723313,-0.156849898000923,-0.0224114565116958,1.29345098518325,0.260067602388711,0.673978378228711,0.126295494307157,0.00115734959442138,-0.0355909801720918,5.27937729717653,0.00305960002329265,0.00311634159393184,0.00275394534465877
0.89,0.859858898904289,0.137961450571913,0.736215372516419,0.0702879869754246,-0.115731781993004,-0.0291457998955029,1.3390177405678,0.283678294128819,0.788545779277074,0.150729357336755,0.00596343306839575,0.0496317330053193,5.15166850204768,0.000181017262214311,0.00154088838378898,-0.000979414216121661
0.9,0.897497047030402,0.160302270654425,0.799455329457284,0.0893146204982346,-0.10230516345612,0.0171652483508626,1.35156508162737,0.301421358659076,0.672623800996113,0.0453506647759911,-0.041087066494221,-0.0200115065409419,5.18907074474384,0.00165478431632956,0.00256839013106167,0.000133394142692299
0.91,0.857109936723837,0.115361683510281,0.70922391206217,0.00188196593075719,-0.169530170003775,-0.0567425013446204,1.29377423617238,0.237527473044371,0.685886140754612,0.0638372196055048,-0.0426481647749514,-0.0364112315710149,5.32730011500353,0.00623112702726239,0.00518997318903545,0.00445856802522552
0.92,0.921873575673169,0.171325785902395,0.785226379504517,0.0796818067504867,-0.101971653944667,0.00340903896560518,1.43451478185091,0.351483189890975,0.869341307170018,0.308570012594562,0.11737306313424,0.113370662485171,5.04038794432,-0.00438645519878231,-0.000836777853820916,-0.00552322998691079
0.93,0.935442937181203,0.166280120000256,0.825855786060012,0.134227635404696,-0.0814935701145265,0.0182206458561325,1.34799194543174,0.27603240258642,0.556915551462749,-0.154786748713091,-0.142359562075107,-0.133065708940809,5.26174422622669,0.00508113779963546,0.00469752148188352,0.0054523283112912
0.94,0.957592385785049,0.187652576736742,0.742537990596723,-0.00219784408883858,-0.145270625991603,-0.0272657471593362,1.4452926767471,0.3737939315753,0.834025784540064,0.257202140751781,0.103411485430057,0.134001407235356,5.15844893842676,0.00044476381413997,0.00249342816483414,-0.00500851491346943
0.95,0.961056774803821,0.184352873790869,0.82287583317484,0.11591208827635,-0.0794999431517522,0.0302458103887945,1.38487373681752,0.312953786170646,0.675461287643236,0.0457388482272451,-0.00756356818765083,-0.118298339584379,5.16992416873507,0.000714230257400317,0.00202670264405461,0.00416674721235975
0.96,0.978471327749465,0.194900627202448,0.790208618459464,0.067329295435103,-0.0967445140133136,-0.0360025733697971,1.44378287468676,0.358097996348111,0.731535899419314,0.0776268332364219,-0.0109174856484011,0.0987103998108147,5.16457130696531,0.00192008355173563,0.00373209046906121,-0.00295104493459395
0.97,1.01222729957184,0.215762469354298,0.819646933983184,0.0759899835827617,-0.093583679650232,0.0530111890498876,1.45415547828076,0.373075399144157,0.708085430295242,0.133326843597514,0.0639138348650647,-0.0491282394586664,5.15646480990397,-0.000154052814030674,0.0019845176073448,-0.000169968607755174
0.98,1.00441241278995,0.202597690009652,0.796147595133062,0.0860371071120552,-0.0826987119507415,-0.026650017538586,1.4343618660308,0.349049097864074,0.693597230037855,0.0326895681611664,-0.0231756219273618,-0.0062962261311355,5.18889329191693,0.00241929893980243,0.0037882089566623,0.0015745505438745
0.99,1.02253131556108,0.212018606247544,0.807838732176696,0.058442604911528,-0.103694839840452,0.00742828187372803,1.46813144805338,0.381836034695263,0.739389993502127,0.148675205112586,0.0618129444690962,0.0425564043758214,5.16078560859728,0.000447123022108121,0.00312180196453031,-0.00233912712599909
1,1.02949402591481,0.211385178984216,0.817800590567962,0.0908728031281066,-0.0826051843735248,0.0098235948289891,1.45254901328698,0.367011320719606,0.694910167647239,0.0588426836391836,0.0275735504369204,-0.0514425723545775,5.17651613521411,0.00144916400295113,0.00309058599669665,0.00198581903997645
1.01,1.04772361752064,0.222974937158439,0.817055696159027,0.0718333445605996,-0.0833202814886841,-0.0113572391115123,1.48569229695946,0.394825822210815,0.733238591121315,0.109967277183202,0.0360942363753553,0.0510111792999216,5.15642783271118,0.000886697625798773,0.00346022180780321,-0.00185414449262829
1.02,1.03460679172146,0.200463760946908,0.805803300159478,0.0573448106459098,-0.110560224805076,-0.00393707291586762,1.44248592152044,0.352972123470486,0.68673025373116,0.0625513672427762,0.0274883042101801,-0.0564808334939931,5.22929244792411,0.00320052585543863,0.00479554173335923,0.0029083893339708
1.03,1.03700006563641,0.196176164979567,0.797385943844703,0.0508520807028913,-0.10807650813983,-0.0384115921209513,1.46872535594164,0.374589840526611,0.75868320040825,0.161758317908447,0.0842381407608452,0.0503850018049434,5.18635675363061,0.00106204387754812,0.00364559414916998,-0.000522756631170888
1.04,1.10026590347034,0.250907872374748,0.871537177326568,0.127230860391588,-0.0435653317027447,0.0416159272416772,1.53717648256019,0.44264864418568,0.746177083680256,0.109808482004279,0.0789904375138582,0.0115789358594221,5.09179410521883,-0.00186020065678768,0.00146543813375565,-0.0025144551646698
1.05,1.09130470465863,0.23434733990764,0.833596528636869,0.0707009718308486,-0.0841199780628713,-0.0104379153076236,1.48633873727123,0.380128464692066,0.672087663026975,-0.0399934888928472,-0.0388153838118075,-0.06293719211294,5.22110967242364,0.00512768303065364,0.00633274042572399,0.00353042884291235
1.06,1.10206535386584,0.232496286639669,0.821966234699733,0.0303340881508656,-0.116237297225633,-0.0188018560889045,1.52169517134785,0.42716284737936,0.775977481485899,0.25546556431531,0.164585061921605,0.0788941134165778,5.18820914258148,-0.000742213400257898,0.00321993858113136,-0.00279010067950559
1.07,1.0860325558253,0.214268385847664,0.835152581601317,0.108534857517022,-0.0674811150309441,-0.00915710195324174,1.47280406719065,0.376264910942757,0.711039073466086,-0.00825849862303923,0.0187253955897929,-0.0840221571315242,5.17985752107303,0.0028592086296923,0.00442521556741381,0.00443576684583184
1.08,1.10350065186569,0.224485250903572,0.835603581851675,0.0331272500093458,-0.104224286310102,-0.0399468996747491,1.52044635841488,0.416097682645379,0.745547005362076,0.155266542624078,0.083542039572125,0.0882585482397554,5.21288161717981,0.00188179617789996,0.00521877363869749,-0.00222014294128273
1.09,1.12237658233888,0.232423185510468,0.846816538171465,0.0834176305030301,-0.0825121792933352,0.014504138982702,1.51764885818547,0.415749881993216,0.752497838481727,0.112039560764566,0.113009761759206,-0.0584819502697376,5.16562038861847,0.00063820471728302,0.00368348437153991,0.00210930465571098
1.1,1.14184801639762,0.246187266395047,0.863494744255753,0.0838023985971336,-0.0611227623492663,-0.0321622984646127,1.53965774813599,0.431300456194518,0.725572213083376,0.0712882857656928,0.0584903019642779,0.0412885501292363,5.17506433519415,0.00162648892828898,0.00455366277386277,-0.000404871509985638
1.11,1.18528619712679,0.279474743358127,0.88037939195868,0.0868823517527873,-0.0588482270881048,0.0332076072259121,1.58641360448769,0.478022660216752,0.75970412535965,0.129908834161563,0.117053232791151,0.00780724982866883,5.1377750869323,-0.000577878359052007,0.00358886330449646,-0.00192774576257255
1.12,1.21183925435173,0.298520732675038,0.898260438246875,0.113002495675077,-0.035038684821605,0.0165998929432043,1.5910166712963,0.483002770896256,0.729317114685081,0.0411184238909117,0.0802702397349863,-0.0247859274278722,5.14030993395779,0.00053253491359199,0.00375395594397957,0.000390824549878808
1.13,1.22791146797534,0.307070146527439,0.893904220457831,0.0824637945417655,-0.0453056437841041,0.0112264697821679,1.60478705397684,0.498155751418432,0.755667870655846,0.0891089751495421,0.0906416183608692,0.027316072474898,5.14440255324118,0.00057118916957248,0.00442274234845353,-0.00181253293753678
1.14,1.2223749200906,0.294249995649602,0.889790030281772,0.0807208338223063,-0.0599079473088791,0.0109338163065521,1.57623188730879,0.480161367772945,0.732245482859142,0.0748160216773399,0.103062829495618,-0.0355339198541522,5.18181276775478,0.00128191337496892,0.00478998096231402,0.00117922770723266
1.15,1.23017933124145,0.2986289747955,0.89071086348592,0.0848819551098828,-0.0478307952818184,-0.0070799147791637,1.59208847228522,0.500817661962402,0.768636694026706,0.109988400466051,0.122768051551178,0.0331947227697711,5.15218494081157,0.000143589972776653,0.00410368778933013,-0.00123208279523161
1.16,1.21351908158837,0.276672628060918,0.881337015743621,0.0668559676072927,-0.0687602653958063,-0.0108169378942576,1.54979690708791,0.460772201623565,0.725101688890598,0.039329888432299,0.0747148363329605,-0.0425177501156251,5.22175277830806,0.00321015973246041,0.00615870709519465,0.00255708088402351
1.17,1.222204633198,0.278574043277562,0.878872586496036,0.0543632995339387,-0.0766632234572229,-0.0256947352502555,1.57634468083159,0.491426727621574,0.792647639721664,0.17373883146995,0.16462398658194,0.0475587021221966,5.19229305352055,0.000236397708393017,0.00473774471523031,-0.00102287402229918
1.18,1.27749910396194,0.328540909213045,0.943325920677117,0.137211915145201,-0.00688591130676205,0.0356386174962698,1.63184565198464,0.548292971446542,0.785288927037315,0.0799617070173839,0.141720962321418,-0.00115015841492885,5.09396056065579,-0.00178682265326238,0.00267686577223682,-0.00165599818509362
1.19,1.29905859778546,0.343644272067474,0.938538326669494,0.0959055570888198,-0.0222518012893822,0.0123608165601344,1.63123262549455,0.533792286457194,0.748100864538831,-0.00701997972020094,0.0555293801383413,-0.0206290219130396,5.15705777232105,0.00233178893575874,0.00606683004240983,0.000386184377862916
1.2,1.30099341085278,0.33121704691142,0.918791122699719,0.0528177377370344,-0.0647652973054246,0.00178765858223657,1.61701019922654,0.540189534175281,0.777278857643377,0.152335154516172,0.18101026166492,0.0153496928000647,5.20312287918842,0.000300052867250094,0.00505601458841801,-0.000829593659412651
1.21,1.27132147384078,0.302599917982708,0.903116751859418,0.0834939480309266,-0.0453013400273214,-0.0241761667035482,1.56783676702866,0.501451335172855,0.771590450986175,0.0452847832833118,0.116707075390223,-0.0372655969320402,5.19420870224869,0.00225809305014959,0.00551953773660336,0.00289916156948319
1.22,1.29758244495623,0.326221002042798,0.934968749428147,0.0736161436279656,-0.0408679822522814,-0.00921541621166631,1.62209005034076,0.553466068589395,0.798490951259538,0.149329901758673,0.161585018703054,0.0669614144007917,5.16619408332982,-0.000533624220755612,0.0049031088094081,-0.00276730100332361
1.23,1.32825112197024,0.348381127420719,0.952172851248254,0.112342253303847,-0.0212666740150382,0.0270398790121089,1.62765199640587,0.562101931956756,0.775465899820669,0.0359634724323091,0.143665904478111,-0.0522287241280348,5.15673011373691,0.000456798742811614,0.00475073171779178,0.00114964886181059
1.24,1.32428070608866,0.338397671961159,0.932327309413685,0.0580763453014143,-0.0419485777709503,-0.0297146769138495,1.60881922195044,0.54521194268599,0.780235425275553,0.0660512788615765,0.123958943570638,0.0181704209108697,5.21284773570879,0.00249415483173632,0.00641436946385149,0.000517705000978957
1.25,1.34362716625599,0.350248861190431,0.952043345291737,0.0796089855393372,-0.0354870385158557,0.0114427616216354,1.63263039067356,0.581224950528986,0.822703667744078,0.158433599819388,0.202834069051634,0.0159727879487549,5.16277170325908,-0.00122241643426352,0.00455942376462128,-0.00136406144780279
1.26,1.40971682855174,0.414707449941866,1.01625193896903,0.161482398354161,0.039784020093115,0.0462085562102903,1.70477465952798,0.650601578683429,0.814380853441827,0.0438112605741602,0.169478524320821,0.0117017718430151,5.08320179033174,-0.00263748108741712,0.00257967293166336,-0.00280158128339116
1.27,1.38203555556801,0.378754530247407,0.961780692424974,0.0591477213979714,-0.0301649572304642,-0.00824304051051799,1.61817969188533,0.56745640597593,0.787985265461005,-0.0610429723309071,0.0458224583426484,-0.0667956144995946,5.21246323865486,0.0055296092282194,0.00876583401301639,0.00352055814690554
1.28,1.34059413345932,0.329392065371822,0.933550628792519,-0.000360364614411905,-0.102753326763582,-0.0506027084914469,1.57787808716353,0.553576674252175,0.808149344959059,0.25111908170923,0.26948518638575,0.0491423997584956,5.33291668565621,0.000707709734153972,0.00634063472997338,-3.28134469332846e-05
1.29,1.31437458012697,0.307570785602895,0.925842820657003,0.098046110320348,-0.0295301009513789,-0.0431794875385189,1.56116522012117,0.525789810498879,0.894477302039036,0.0433108864950579,0.15975498508408,-0.0428944505381701,5.1490165288837,0.00195599769952221,0.00583338590506926,0.00399692855606682
1.3,1.35865055107943,0.342583051790238,1.00175762753088,0.0572839524570489,-0.0369741139551546,-0.0316690465631486,1.61513949598724,0.578177198440477,0.766064873414299,0.123642702903405,0.173351118995761,0.0734415097227769,5.24381373805029,0.000905072299427624,0.00656775896458646,-0.00207824469521424
1.31,1.38967279360774,0.364009833192703,0.957513361527012,0.0847364691624313,-0.0282323295589814,0.0111502498275995,1.62475738750205,0.598150450075229,0.856757326135841,0.0804434809137987,0.208008395572211,-0.0538720719075851,5.19520494156994,0.000586198662601405,0.0056908808107111,0.00190089278060302
1.32,1.39335265170876,0.365270636985861,0.988765891858741,0.0659069450363844,-0.022561812802909,-0.0468843117544205,1.61178247689623,0.585747950190746,0.813188847833198,0.0643716747624432,0.164961990731098,0.022608119233552,5.22522514465624,0.00215555177921451,0.00670444578743212,0.00102951894660775
1.33,1.46698198243953,0.431141174792356,1.03665247456129,0.116117144597594,0.0220774588089936,0.0457771699297541,1.71394310802035,0.693100984199456,0.89121155817206,0.174406626222192,0.260109571013795,0.0551207444726911,5.10970483177616,-0.00416427816514579,0.0031262106565497,-0.00491204744655011
1.34,1.49043484699082,0.450290166613138,1.05333987673479,0.14122700590538,0.039073206510925,0.0270774090525408,1.68589687520458,0.658814189107597,0.813790659531135,-0.0981082662101052,0.107293667162723,-0.0883271167273424,5.15412361866744,0.00196531429397984,0.00650002315571952,0.00279254092585217
1.35,1.48691936182657,0.435565105675218,1.02167429320486,0.0324089933130871,-0.0254863382307013,-0.0167906987549256,1.67287731481844,0.668665069796737,0.878944517836599,0.146506432359831,0.233929347897865,0.0704580279732055,5.22893905415939,0.000519455225443962,0.0066800191155071,-0.00275256955572148
1.36,1.48854975476594,0.438177815358022,1.04873198447591,0.11678222348481,0.0219762885061844,0.0286499167883327,1.65999264453545,0.67774274543808,0.879555441920246,0.0815749339987845,0.241227752448861,-0.0513170382184685,5.13892848531091,-0.0015714184485843,0.00432425030484631,0.000915356210206623
1.37,1.42508277914828,0.378370148611016,0.990612376864826,0.0362202240247408,-0.0352339314764228,-0.0800512794943755,1.559977995415,0.577544094094354,0.790442165262409,-0.0480543272299543,0.0957766497176329,-0.0256792938354037,5.32542418127326,0.00683665274735059,0.00975720465429757,0.0048536002629833
1.38,1.49874775047697,0.441775783930824,1.04638538174833,0.0689047032591548,-0.00750738075903187,0.0288068413501994,1.70231142004663,0.734333776593798,0.992509489746282,0.35994763916978,0.38234416249216,0.130619830558183,5.1349006208938,-0.00697618512151985,0.00256539274897482,-0.00780327395453528
1.39,1.52180951157322,0.466996818673081,1.10154556910402,0.197967183044816,0.071116520049003,0.0246152009791561,1.65097164421484,0.67728333245096,0.800313029798615,-0.22645756091595,0.0847863418198912,-0.165169417217868,5.16625207202487,0.00280772996671494,0.00653558294490975,0.00655533394081031
1.4,1.49633376897308,0.431766857001989,1.01209100320314,-0.0406038266411014,-0.0620405578851597,-0.0699569980731701,1.61849979125764,0.675782596737467,0.944541690089897,0.155457021792387,0.226767516250897,0.125348708093979,5.33686851976815,0.00377892712534788,0.00949926796553168,-0.00296783497706057
1.41,1.4727455858327,0.411499200131936,1.05614336861111,0.0695243876706728,-0.0197322951901885,0.00625920742155633,1.58873405116987,0.642141803624249,0.972326059177104,0.174896687035507,0.323584822115358,-0.0945390262867066,5.17168509327723,-0.00126941482528903,0.00514875893612723,0.00388725320028167
1.42,1.51685951313549,0.451740082790843,1.10902593334754,0.133663675651406,0.06191389088379,-0.0468635199061221,1.65128808660572,0.702032475802358,0.835186375509805,0.0179129483130369,0.182308331455214,0.0844320605437553,5.18228807702244,-0.000753937378870228,0.00563931834399142,-0.00196454319155272
1.43,1.59117506077378,0.515806391996208,1.09895039663482,0.100941211506567,0.0410165909603793,0.0703145034496899,1.71890123831872,0.773926581646859,0.958150603989295,0.0559142510998685,0.243515747197418,-0.00742239963624572,5.15400539859677,-0.00141704465093881,0.00588788217959815,-0.00321413325544556
1.44,1.59039489310084,0.508867891296726,1.12283850639618,0.0885162084586284,0.036131706336544,-0.00184892778292624,1.66011812443031,0.732885412526243,0.887511612082374,0.00684518317457246,0.226270436475158,-0.061771598191017,5.20373846642576,0.00119438731874295,0.00650285352596492,0.00275310042572238
1.45,1.59207518783124,0.509855652440847,1.10795122627786,0.0795482167738712,0.0399783618259096,-0.00872468424584488,1.66931579648156,0.760630225076352,0.932871411557634,0.121442569907124,0.259579675149837,0.0723731800274026,5.19303298284243,-0.00169399681977808,0.0057973963755043,-0.00329925869886445
1.46,1.58416336728179,0.503180777316789,1.11215727373841,0.100170309125901,0.0336049965178448,0.0164883841814654,1.63328622573905,0.738383185221175,0.911394869682163,-0.0164781447694776,0.220819805799423,-0.0724436341656429,5.20959142575835,0.00115749472528648,0.00703611730265235,0.00238247562292365
1.47,1.60876039304283,0.525989177634856,1.13173865537309,0.0759598553361354,0.0439597949999322,-0.00859005983785842,1.66759156151581,0.782923640208662,0.946691739196402,0.122883868516007,0.288023941244469,0.0673063765391977,5.19590520191814,-0.00173931652783593,0.00545509690555842,-0.00309057582512399
1.48,1.57717661440278,0.492588209599773,1.10394493772371,0.0759187943719871,0.0229205427487857,-0.0107392236592432,1.58304950563739,0.716719276062864,0.90210518796839,-0.0385491410610359,0.19038866354066,-0.0894162994519889,5.25435389070409,0.00320038943680837,0.0084093940883002,0.00442890273000565
1.49,1.6123211658966,0.527273137409642,1.13784694398721,0.0678334918340291,0.0323373790613583,-0.0126555811436964,1.65705717101102,0.801500617820284,0.980910034724936,0.204354134803084,0.345169653158498,0.109755155859206,5.21134878920485,-0.00358592990557149,0.00489024870546305,-0.00496507590351239
1.5,1.63828889730758,0.552121841792835,1.16715155786728,0.147491704469073,0.0849457065975828,0.0364970161447433,1.64163042020363,0.794003431834756,0.942903200596908,-0.0838467571455621,0.209097796838953,-0.096905934549117,5.16235686497226,0.000292448042483776,0.00616231509409401,0.0026565828468151
1.51,1.62933023022806,0.540078090810518,1.14395436015581,0.029193429491749,0.021903041899077,-0.0392426639489099,1.61426547350627,0.781646642008376,0.963427538968023,0.0690464915951549,0.24628556615822,0.0537756754773359,5.26836716571374,0.00174693198510085,0.00837834005567349,-0.00112689515511189
1.52,1.63994534976561,0.547882336036839,1.16749619520935,0.0876782456617975,0.045866328775886,0.0231255675736237,1.61822971103807,0.808451881839259,0.994461496742452,0.127950649945439,0.341277723024195,-0.0204036187569983,5.19855587187241,-0.00264358823170303,0.0050999043744572,-0.000481035367693495
1.53,1.68014231221436,0.593484073265073,1.20902634640066,0.143689432343299,0.113052843127599,0.00896457260965851,1.66176425251939,0.849023288374496,0.970408348711668,-0.0213055117601554,0.236046786740434,0.014817679898473,5.154049857065,-0.00165387080155745,0.00534717895659022,-0.0013236418955506
1.54,1.67346358752145,0.578832184432905,1.17740671283213,0.0529335726483058,0.0417659025256411,0.00352775690444186,1.60350032188455,0.816650433092163,0.994773158588762,-0.0110667882936647,0.225068597470119,-0.0274393431276535,5.24202286475635,0.00226224597811315,0.00887889574641496,0.000725041611139639
1.55,1.68380275284343,0.590570535727865,1.21150954963793,0.074994266426726,0.0554965974130275,0.00832700171774797,1.62188090123853,0.854927641961595,1.00193115745005,0.161905603859097,0.377431176627942,0.0294472971811854,5.21836819388083,-0.00337992812910368,0.00463884108767009,-0.00216996915444602
1.56,1.65333751238662,0.564758090454995,1.17590797122281,0.100633240940512,0.0763838451361077,-0.0274142098684532,1.54815044864995,0.793468519890903,0.959916568454116,-0.0983157582880521,0.180459429958324,-0.0670772006590423,5.22398422382317,0.00295320588966145,0.00836589930766135,0.00416845300606886
1.57,1.69179988351376,0.600720167879074,1.21264126860601,0.0489003447872058,0.045576563554768,0.00261040507091884,1.62088805807285,0.877103331811965,1.02777950728873,0.194883780067132,0.367430458178126,0.107259423785776,5.25486908578155,-0.00346757641389757,0.00580114791130624,-0.00566431466846839
1.58,1.74048545256839,0.64755239520346,1.25909821649766,0.17047988557625,0.131136668794775,0.05858424485956,1.6337051559869,0.907477809932656,1.0420430679886,-0.0617234712548613,0.285433082267779,-0.0919977778397029,5.13505906609955,-0.00232833320243743,0.00446124554881504,0.00144558635643985
1.59,1.70438570127309,0.614629015167907,1.22378036764428,0.0315646550674118,0.0597112870318165,-0.0516506386891615,1.54733829937342,0.843692609744686,1.01985111349214,-0.0419227109207375,0.194199228951868,0.0209736584752209,5.24749993997682,0.00393342480467059,0.00986078333140568,0.000994380120050838
1.6,1.6779830670703,0.588363124600033,1.21770656048053,0.023548831641196,0.0157293288814233,-0.00324740830325022,1.52432813765792,0.842685034255744,1.00876109200206,0.196268621856646,0.397951496397998,0.00493055260504403,5.32950330147223,-0.00200812288604522,0.00660923661202323,-0.000676742953593243
1.61,1.68061106481414,0.596381724275993,1.21552055091669,0.123020361154191,0.100388213931153,-0.0308970769741858,1.52098715910368,0.848450660459147,1.05842712227353,-0.0359659868286181,0.273614351423656,-0.0303189595710811,5.18017844497035,-0.000145013501665186,0.00631063868542129,0.00261436596520784
1.62,1.72352980935793,0.638797214119308,1.27208176741521,0.0636379086829386,0.0834300462217311,-0.000111076544351697,1.57329336575175,0.897129177894048,1.01958231921357,0.0612534590769686,0.293432055959787,0.066366804230735,5.24547863820643,-0.000967904049362755,0.00714694749545948,-0.00354135392301676
1.63,1.72241773983799,0.628860410082051,1.23950954345381,0.0699354690216601,0.0648747017946743,0.00656786189397431,1.51351265926008,0.870647537477271,1.04307530720946,0.000612305566634261,0.306411527392099,-0.0872956710925757,5.26446459657813,0.000802020658609559,0.00752816890083802,0.0033975755190154
1.64,1.72632016663678,0.640683839582515,1.26593298774549,0.0664426265235505,0.0855747493579272,-0.0367525003755224,1.52739030629937,0.896672613373575,1.05443863813945,0.0916816792893208,0.332392653327199,0.0703132001958573,5.24063881585009,-0.00159759474691792,0.00631342502744678,-0.00200053507231259
1.65,1.71305528512693,0.627811318895299,1.25174208594879,0.069900373351967,0.0716513533506603,-0.0064797436962835,1.4782061651808,0.864302862341726,1.03228927007057,-0.0346854444736025,0.269336668918481,-0.0648117286588296,5.27389199794136,0.00174743338210444,0.00837552241209916,0.00295117467138501
1.66,1.75851801224762,0.673635900889522,1.29599702571647,0.0734394865345965,0.0954496876035427,-0.00389739004468715,1.54789307480461,0.945686002410185,1.09380119130014,0.144200134173766,0.389042636916542,0.0789935804419975,5.23430764784904,-0.0038218330601035,0.00502905451668558,-0.00392543164734064
1.67,1.75374842331975,0.669864217446705,1.29285418593061,0.104457146930374,0.109100321892812,0.00142266984321815,1.48286552321753,0.898396730024654,1.05593239214774,-0.114261559412231,0.235480850301575,-0.0956094926889218,5.22929571843353,0.00198056271770337,0.00821085561179701,0.0041744710710722
1.68,1.77712393312419,0.693992801602496,1.31607214313984,0.0408730274136618,0.0819941558893064,-0.0153608851864919,1.52535938835886,0.955886104037352,1.09786667898703,0.151041083455538,0.386275438827376,0.102511520183338,5.27727674483054,-0.00282092160532988,0.00614082927691789,-0.00459506268642244
1.69,1.79909296623942,0.716801200966083,1.33856836776976,0.13480429534599,0.139692072833848,0.040023041140154,1.50999636514887,0.963668603119836,1.11665977178712,-0.0544329881286436,0.309845649530624,-0.0858403933683851,5.18340827732958,-0.0016123783192217,0.00577932941385112,0.00201316195873004
1.7,1.78394275504755,0.707651634986959,1.33277528932684,0.0444983450158023,0.097767849863758,-0.0407339590886048,1.47004351100711,0.940922756374498,1.09204908374768,-0.00815345664269182,0.280812982089881,0.0398492950502712,5.26206126907813,0.00131952557541179,0.0084571199666343,-0.000384810018201263
1.71,1.79119417335593,0.714458787831468,1.34307608071369,0.063851384616028,0.0956996236038819,0.0226341425581293,1.47196353154481,0.967010927974256,1.11360218137454,0.107135036954331,0.394389824006985,-0.00348879502847654,5.26107751115327,-0.00287787508813744,0.00580773285215508,-0.00129002257038288
1.72,1.78777624409926,0.718015915886935,1.34278735319248,0.102214115537241,0.132067227077618,-0.0202009440824549,1.44220584999183,0.952790143782567,1.10406686301163,-0.0647841231978626,0.283166331067051,-0.0330821485423838,5.22459175155294,0.00024023460115188,0.00718449647747935,0.00229257195686056
1.73,1.78652256703779,0.718225098184694,1.34531659435676,0.0336356791841429,0.0881706642526281,-0.018607192919564,1.42919281033503,0.959483989129429,1.11016224108953,0.0573823377419248,0.339868930874241,0.0427204923785025,5.29580502793784,-0.000249573956609479,0.00778603049574953,-0.00161648841733194
1.74,1.82433480597663,0.757817010214179,1.38591908197912,0.107466936297449,0.141067120311366,0.0329400811206507,1.46534633574424,1.01541715843503,1.1622516895366,0.0563134509813825,0.390691295275131,-0.0164187248104987,5.20536944028505,-0.00384322157081015,0.00465207514516859,-0.000944672241413403
1.75,1.82190449876023,0.761572501268973,1.38914916723887,0.0898634220502212,0.143823423820309,-0.0192083084851633,1.42061714937253,0.985233086447361,1.12215798778129,-0.0984128694900914,0.252393640741051,-0.01997165624416,5.22724604387656,0.00118771837836793,0.00815370989706398,0.00165400009926395
1.76,1.79305401208717,0.732986121724549,1.36247737447452,0.00577670917421322,0.0678041889433463,-0.02292640577386,1.36652637946364,0.963106522359452,1.12168760574698,0.0813550204836176,0.373511291767066,0.0175916992777492,5.34707200405722,0.000258460710003592,0.00815392376206284,-0.000335546947837036
1.77,1.84085827944522,0.787710313114015,1.42005989710035,0.126240990796952,0.168969855644539,0.0304372928151703,1.43944659754581,1.05183450700421,1.21624904165265,0.0842397858693169,0.419029602719576,0.0171858299449642,5.17088610638701,-0.00564962415164856,0.003269449566689,-0.00228494527549015
1.78,1.81788980469657,0.771356464866445,1.40951454948135,0.079994343667559,0.139391257725572,-0.0310728127170629,1.3469442096766,0.974290501771716,1.11816697763205,-0.190305731953346,0.189500677721059,-0.0657395118168474,5.2448153993482,0.0041426970526973,0.010085339396317,0.00437895222928722
1.79,1.82890063799414,0.780576007538867,1.41346865657118,0.0011487609442947,0.0760122678115485,-0.00417970638093814,1.37860961599526,1.03075566748376,1.16296233739643,0.223936492419523,0.479736411133322,0.0995652375775151,5.35747647153573,-0.00401403942678788,0.00575477967770223,-0.00505449734181294
1.8,1.82110765216937,0.780584798237758,1.41143191337521,0.135321900028172,0.16842883494673,0.00277705736948093,1.32193661075956,0.998444317123299,1.2047889210138,-0.12883121586545,0.296922595502333,-0.121568505416072,5.18228166184079,-6.53593490456915e-05,0.00657495289674612,0.00559683020677625
1.81,1.82137561634823,0.789079943103438,1.44090448133134,0.0146726844398216,0.110824475860046,-0.0519535391098092,1.33361359696195,1.01674230700937,1.143028065226,0.0491469979860575,0.340172170191483,0.113732568052357,5.30823128911738,5.99723421446689e-05,0.00812604028044929,-0.00334739035993719
1.82,1.85068270892525,0.814260829045995,1.44482949890612,0.0863847854239883,0.142244703284898,0.048737545583594,1.33663897801193,1.05199668596605,1.21172844544575,0.047801666634682,0.413932590988954,-0.0647887931757129,5.23767975314388,-0.00333364563378314,0.00518378435330194,0.000627319437728034
1.83,1.87353366410828,0.849029969136484,1.48623517282542,0.107808217927117,0.190424209264587,-0.0192058371788067,1.34990538672434,1.07308642578521,1.18843150653648,-0.0602586700367388,0.308934109323944,0.0293446379951438,5.2155835328783,-0.00157221153955367,0.00630290344630049,-0.000430040795629726
1.84,1.85794314451278,0.832766881026073,1.46089280872043,0.0336010928674199,0.121308085606303,0.00225694261914851,1.28030894579811,1.04528352617535,1.20562814313735,-0.0239057115670501,0.334677316677835,-0.0146282491521867,5.28156071181851,0.000706732441966429,0.00836759990871086,0.000297513099038466
1.85,1.85761515396967,0.844532787428227,1.49184847246563,0.062999096239243,0.147323159490707,0.000987903799452804,1.29141191511206,1.07120877741796,1.19879565227731,0.0810664460394173,0.427897023401457,0.0113696193442648,5.25725471689334,-0.00332629489432052,0.00505308391329765,-0.000717119347096551
1.86,1.85788282109701,0.849564092893049,1.47984350964753,0.093521197129723,0.17602121186903,-0.0127111064758201,1.25947289221644,1.05863551482685,1.19386992555713,-0.0886768012105281,0.292950450088534,-0.0193297843905889,5.23446283419423,-0.000184693934948304,0.00736979758372751,0.00151985661325559
1.87,1.86096260232691,0.856858413404269,1.49222380569607,0.0316833725698429,0.128587504099554,-0.00638007778396502,1.24932541468013,1.0745716556741,1.21291515994549,0.0389779979049449,0.38953879959151,0.0324277987008113,5.29482098100739,-0.00114585542824136,0.00706107862175305,-0.00146007218569887
1.88,1.84006951273457,0.84375664651395,1.48666942396804,0.0568484227376153,0.146260437218142,-0.0147369552093344,1.19394906604349,1.04460165050016,1.20005311136345,-0.0207043963027233,0.361231905031368,-0.0501418955615151,5.26181986199078,-0.000240184762695397,0.00688070093857292,0.00291950369926802
1.89,1.85203600994083,0.863694470776243,1.50514176898428,0.0568434222265052,0.158053834325359,-0.0241506306901934,1.21760355175894,1.08035697416945,1.2029830268906,0.0380567681472863,0.373292328113417,0.0597511325862191,5.2715762464097,-0.00219518366354402,0.00637705472303485,-0.00176490042427565
1.9,1.90276578209613,0.916169551598768,1.54632723294867,0.10716179258024,0.19367329291773,0.0421774857335249,1.25308304294987,1.1372070012407,1.25820644071731,-0.0257735589269482,0.383353024171548,-0.0140327671869415,5.22759201164979,-0.00332085329120813,0.00510441735859438,-0.0011227262763362
1.91,1.87316471956666,0.894369875209211,1.53201051710363,0.0409136405999334,0.157892706361273,-0.0304236859088221,1.15459823379455,1.07604625971329,1.23163672414121,-0.0996445812601437,0.298741840145609,-0.0372503360419646,5.25189039899802,0.00208861870811732,0.00850839281563074,0.00311851677627776
1.92,1.83819197040036,0.870861119069068,1.52456426299001,0.00195794296147525,0.116354085895374,-0.0315767943871528,1.12739655353365,1.06692563729904,1.19460811169372,0.108486488950209,0.425755854442488,0.0457278530599439,5.33655486295252,-0.0016595546497346,0.00683794688408088,-0.000982750524938386
1.93,1.8983552518392,0.935617135552975,1.56852798846887,0.136927516186345,0.223427882925196,0.0368557667278802,1.20257478734297,1.1600432273733,1.29658210256454,-0.00257499843239736,0.410381603727558,0.00376928372654459,5.19935643069884,-0.00534436497060483,0.00346300335837027,-0.00152359266533877
1.94,1.92170132380436,0.966979509675794,1.60484271773866,0.0882592531027522,0.212656089494858,0.00575177992061775,1.16969880527809,1.15422970160338,1.29426731361271,-0.152144833528214,0.27435408091427,-0.0140521974597554,5.19612547350923,0.000435657978581171,0.00777535930305399,0.000679198489474633
1.95,1.91051598021878,0.963206331043494,1.61597016582757,0.0199021369816139,0.153419522189589,0.012868863727206,1.14179236819161,1.15092931168899,1.2573952996045,0.0700242726854559,0.436801808365327,0.0269671853240929,5.28798224951558,-0.00246737924870216,0.0059616151758359,-0.00190409324411978
