time,x,y,z,roll,pitch,yaw,xdot,ydot,zdot,p,q,r,thrust,roll angle,pitch angle,yaw angle,_xdot,_ydot,_zdot,_p,_q,_r,_xddot,_yddot,_zddot,_phiddot,_thetaddtot,_yawddot
0,4.01841953230695,4.01841953230695,0.0184195323069548,0.0184195323069548,0.0184195323069548,0.0184195323069548,0.0184195323069548,0.0184195323069548,0.0184195323069548,0.0184195323069548,0.0184195323069548,0.0184195323069548,9.19845512255499,-0.0090119851105357,0.0065475112036783,-0.00187693245609719,-0.0880595602691021,0.123591654035679,4.73225221098488,-0.389925530194453,0.287039721765163,-0.0336500794151578,-0.214618123595728,0.210862845593456,1.10890004855982,-0.0475459990830811,-0.0858667494205854,0.0213893447173527
0.1,2.42036642022637,2.42036642022637,0.0203664202263731,0.0196677765368785,0.0192906732105106,0.0186005263777465,-0.0880595602691021,0.123591654035679,4.73225221098488,-0.389925530194453,0.287039721765163,-0.0336500794151578,5.46152227746686,-0.000589534085758973,-0.00111630608101387,0.000506929505476282,-0.0880595602691021,0.123591654035679,4.73225221098488,-0.389925530194453,0.287039721765163,-0.0336500794151578,-0.214618123595728,0.210862845593456,1.10890004855982,-0.047548022379746,-0.085874934401941,0.0213946977720712
0.2,2.62632647154526,2.72146775328082,2.17958438805324,-0.177151748876947,0.134424191833662,-0.0161946286410997,-0.0571118178847046,0.0601362810091186,1.04305125186856,-0.057925465240594,-0.0162544609451117,0.00990071372713791,6.67872351643665,0.000287875712792381,0.000359264431385209,0.000274143905691856,-0.0571118178847046,0.0601362810091186,1.04305125186856,-0.057925465240594,-0.0162544609451117,0.00990071372713791,-1.80003301683484,-2.32509300167023,3.21978184421765,0.0232559282362234,0.0276849086507856,0.0115959825047191
0.3,2.63986663107313,2.70215021319296,0.771689827084685,-0.0423077466308979,0.0174981863814889,0.00992077588733883,-0.402325831855143,-0.396853161861556,2.49674172428835,-0.0203691990090394,0.0414395400917253,0.00903042461197018,6.45165778125727,-0.00484761072983511,0.00199543030436544,-0.000952654031069305,-0.402325831855143,-0.396853161861556,2.49674172428835,-0.0203691990090394,0.0414395400917253,0.00903042461197018,-0.220145819250179,-0.547958308654785,3.07979557696991,-0.390923048274641,0.153514533735081,-0.0401649311917539
0.4,2.4516335764775,2.46808643125755,1.5634045115585,-0.0484467489007182,0.0230138887335711,-0.0100864994502332,-0.292041836875233,-0.289381998955181,2.3323906724477,-0.263582604284074,0.0956320941720734,-0.0354150492135322,6.07700036284571,0.000150975385241481,0.000261771110102523,0.00207853364157972,-0.292041836875233,-0.289381998955181,2.3323906724477,-0.263582604284074,0.0956320941720734,-0.0354150492135322,-0.285280487177749,-0.585743875383778,2.32652556525933,0.0121648759865189,0.0201217706457623,0.0877394930725653
0.5,2.54402801682259,2.56489384397546,1.61905364543584,-0.11632117432482,0.095781537216588,0.0146068238880645,-0.238713571082415,-0.252537948282813,2.11403091072826,-0.0227111975654183,0.0695310994885337,0.0709982261941157,6.14297827340949,-0.00366743139005437,-0.00287368825556582,-0.00407059469419358,-0.238713571082415,-0.252537948282813,2.11403091072826,-0.0227111975654183,0.0695310994885337,0.0709982261941157,-1.14607768986722,-1.44279014093929,2.33699925118632,-0.295643938999105,-0.22085628306737,-0.171678063433441
0.6,2.51084924064731,2.52589391983772,1.63029492179474,-0.0506543280983078,0.0575429753404808,0.0303688135611127,-0.428180623181301,-0.470973247499894,2.29008522880403,-0.21969216252918,-0.0904416259902019,-0.0934330430986811,5.99156004947245,-0.00150937400660059,0.00154225683785898,0.00295950485558321,-0.428180623181301,-0.470973247499894,2.29008522880403,-0.21969216252918,-0.0904416259902019,-0.0934330430986811,-0.669539525921311,-0.627356620160984,2.13794157167278,-0.121891779492958,0.118383789699424,0.124966017832812
0.7,2.44730411592151,2.44909360783561,1.91034267912717,-0.110865947924979,0.0224807840962525,-0.00596004960698343,-0.409351123249122,-0.439366497265223,2.24925610098503,-0.110748664709586,0.118128354526304,0.0884821304673239,5.79584092462055,-0.002444838258837,-0.00288332482610849,-0.00392689828404516,-0.409351123249122,-0.439366497265223,2.24925610098503,-0.110748664709586,0.118128354526304,0.0884821304673239,-0.266607501954476,-1.28092555035186,1.70760557878169,-0.196974966128235,-0.221344345680398,-0.165593823806062
0.8,2.40039087585708,2.40723558764557,1.97111629645943,-0.101178314197211,0.083079939095977,0.0395467316595174,-0.476201539537538,-0.589681133394147,2.12061033935878,-0.184573472312788,-0.0949497732772238,-0.0890766498350636,5.82041512371628,-0.000739110839004447,-0.00145490759135365,0.0023902118773135,-0.476201539537538,-0.589681133394147,2.12061033935878,-0.184573472312788,-0.0949497732772238,-0.0890766498350636,-0.913828976730428,-1.2128689122766,1.73135150025601,-0.0597608028741891,-0.112234256553365,0.100994169953689
0.9,2.36118067230475,2.32812502212497,2.06634202918319,-0.133258773752182,0.00381910559015869,-0.0254920455105507,-0.530853581407579,-0.683968396727923,2.23689807521882,-0.107975907227176,-0.0277533795893966,0.0585866373877401,5.60332366940778,-0.00152328564278951,-0.000512497391404259,-0.00154785352529733,-0.530853581407579,-0.683968396727923,2.23689807521882,-0.107975907227176,-0.0277533795893966,0.0585866373877401,-0.0803587644939377,-1.48740308727373,1.29721023036475,-0.122643177954586,-0.0388275362769576,-0.0651745396942749
1,2.25533798138362,2.2015378257235,2.21586752302817,-0.151905584057215,-0.0141349348991512,-0.00414158208405174,-0.628065863372076,-0.863459162665857,2.0472027439309,-0.180310622039694,-0.0374708162822309,-0.0643098939595679,5.59014858206781,0.00188008110296656,-0.00105690122751684,0.0032607353701158,-0.628065863372076,-0.863459162665857,2.0472027439309,-0.180310622039694,-0.0374708162822309,-0.0643098939595679,0.149199593333383,-1.69245788206029,1.24044661890098,0.15160615354771,-0.0813454921673662,0.137721671914672
1.1,2.20071772027086,2.10250674373978,2.26703819325455,-0.178346951341439,-0.00820545996241881,-0.0446471395665443,-0.601220953004298,-0.985896654814949,2.11449654066984,-0.0248228598110037,-0.0437820486535567,0.0557688986374914,5.454026942672,-0.000586816789370911,-0.00206685075871335,-0.000509470383803366,-0.601220953004298,-0.985896654814949,2.11449654066984,-0.0248228598110037,-0.0437820486535567,0.0557688986374914,0.00162818889041873,-1.93712440236096,0.924672140514913,-0.0471343642262735,-0.158179416489056,-0.0213550473659329
1.2,2.21097082977564,2.03841948668049,2.45867410349512,-0.0790465342396249,0.0255601870003712,0.044913134782704,-0.532449685061297,-1.06385205342234,2.05957441497868,-0.0946780276424769,-0.0655033383277067,0.00600220954826419,5.38189793785175,-0.00325334719295817,-0.00344806141321226,-0.00230736135429869,-0.532449685061297,-1.06385205342234,2.05957441497868,-0.0946780276424769,-0.0655033383277067,0.00600220954826419,-0.235797825863932,-0.861410504455252,0.916680426951457,-0.262353754867437,-0.265171614120326,-0.0972304805581566
1.3,2.1584961164994,1.90175298035475,2.53519875494756,-0.149511351741484,-0.0231776746508916,-0.0111730106578899,-0.594292120815188,-1.27471967596897,1.96210849129866,-0.245616443186537,-0.160702506548097,-0.0666553583242017,5.29685462267376,0.00456704102349305,3.35353460319041e-06,0.00369802648531944,-0.594292120815188,-1.27471967596897,1.96210849129866,-0.245616443186537,-0.160702506548097,-0.0666553583242017,0.22513095183829,-1.58059946198131,0.662712016009518,0.368306901367138,0.000239160167768542,0.156141560779068
1.4,2.1244877812948,1.77589276319817,2.61489065993987,-0.201514977873143,-0.0506875447435253,-0.0260910144668671,-0.575577700615619,-1.31133752331387,1.94627066661756,0.103953277938812,-0.00233795393345518,0.086784046260011,5.20197570353215,-0.00167989298014541,-0.003600043433856,-0.002872077919565,-0.575577700615619,-1.31133752331387,1.94627066661756,0.103953277938812,-0.00233795393345518,0.086784046260011,0.461957002779619,-2.09515590445724,0.370330168720276,-0.135422608472874,-0.275844552706301,-0.121139721655871
1.5,2.07090184051356,1.6595458923623,2.71662138440411,-0.0716348624484913,-0.00181108813597373,0.0310255783532759,-0.586154223777188,-1.4761067565433,1.87554604039696,-0.165980839456613,-0.17485622762967,-0.0723330978046219,5.18764326102697,7.32145357024576e-05,-0.00238109735056137,0.00197126742567871,-0.586154223777188,-1.4761067565433,1.87554604039696,-0.165980839456613,-0.17485622762967,-0.0723330978046219,0.0417691334282255,-0.741657952669313,0.538660262828676,0.00588756917863179,-0.183496778894872,0.0832173194515518
1.6,2.03169593523003,1.51410791596295,2.81637636470819,-0.187808238204443,-0.0791418759073145,-0.0386306365802453,-0.530626811683126,-1.68096885464993,1.84766151921392,-0.0956903155030376,-0.129517045509265,0.0372296668626882,5.02062779065194,0.00457344093209628,-0.000744486454875635,3.46230686258624e-05,-0.530626811683126,-1.68096885464993,1.84766151921392,-0.0956903155030376,-0.129517045509265,0.0372296668626882,0.706908031470673,-1.90348555635566,0.0238109307050429,0.368789047780053,-0.0563981097968762,0.00141913768605943
1.7,1.9911354683771,1.30489770993888,2.86298623496226,-0.187591472709167,-0.0883054272909884,-0.0171419799504288,-0.585513677684683,-1.74127466394103,1.69296604636928,0.0895004567914255,-0.0946680664693919,-0.0226112178969667,5.07072667969899,0.000796977919673905,-0.00232591942822336,0.00184115705627315,-0.585513677684683,-1.74127466394103,1.69296604636928,0.0895004567914255,-0.0946680664693919,-0.0226112178969667,0.846142794720819,-1.90609563585764,0.114712491490673,0.0642472416880915,-0.178671824643787,0.077574550136339
1.8,1.92917668347515,1.1808630994059,2.92479822587592,-0.107315943261844,-0.0806661763032055,-0.0370193397018353,-0.514474123706724,-1.93459185001556,1.73904615729594,-0.0597843699659466,-0.162789143797592,0.0208353120266788,4.9259073298175,0.00209087105705545,-0.00167278858696344,0.000716356532988664,-0.514474123706724,-1.93459185001556,1.73904615729594,-0.0597843699659466,-0.162789143797592,0.0208353120266788,0.749684058061884,-1.08371756361357,-0.0467125340281864,0.168522191013359,-0.128053898433231,0.0300721676258311
1.9,1.96389928298627,1.03778991287144,3.08862616469531,-0.127048191133989,-0.0742023087501898,0.0221348701579108,-0.373921201791812,-2.04977425980659,1.61026614018007,0.0384216485256858,-0.108486687600173,0.0340933344683547,4.83325945130392,0.00150616014341049,-0.00299134942943814,-0.00269695830300796,-0.373921201791812,-2.04977425980659,1.61026614018007,0.0384216485256858,-0.108486687600173,0.0340933344683547,0.73777890762253,-1.20877932949416,-0.247776277950329,0.121401770364585,-0.229830903614566,-0.114037982670492
2,1.96192332615789,0.836818272944921,3.09107855645946,-0.105257775654074,-0.0783041757097733,0.0119724630841788,-0.339135293154371,-2.16841193739987,1.47641306357499,0.00481766920431205,-0.18672218750217,-0.0597705275237747,4.87078794026521,0.00259361626605391,-0.001349069599659,0.00223578657874142,-0.339135293154371,-2.16841193739987,1.47641306357499,0.00481766920431205,-0.18672218750217,-0.0597705275237747,0.770008374593463,-1.01433828525346,-0.152023732569186,0.209255817067397,-0.104097793579837,0.0940445248577093
2.1,1.93393396564182,0.640471478179815,3.11628525463267,-0.132648255550377,-0.137715197967941,-0.046688323733429,-0.286777527977141,-2.32962108819313,1.49275491791865,0.0414471328469794,-0.139280031329576,0.0369937232523105,4.77722489439287,0.00450254088949959,-0.000791673200972816,0.00045495299602938,-0.286777527977141,-2.32962108819313,1.49275491791865,0.0414471328469794,-0.139280031329576,0.0369937232523105,1.23972135926462,-1.32296878040083,-0.429149541544975,0.362836298726672,-0.0601868510889445,0.0188105380397755
2.2,1.93158546111962,0.430750574424991,3.20615283154279,-0.115111248911127,-0.122835280950242,-0.00576165021360798,-0.245744921399894,-2.39903332027886,1.39886158444942,0.142571122733617,-0.122003538647263,0.000970135482489788,4.73568410010789,0.00230566178682812,-0.00227226942992896,0.000237900466401032,-0.245744921399894,-2.39903332027886,1.39886158444942,0.142571122733617,-0.122003538647263,0.000970135482489788,1.14652759508737,-1.09447886928369,-0.472205503307899,0.185908202317654,-0.174720029584612,0.00959155961473979
2.3,1.95193838078867,0.290502666610665,3.28466175859167,-0.0355462532016732,-0.0944344164217039,0.0147824932092355,-0.0752549518274988,-2.48429946501509,1.34488098340377,0.0884880094776643,-0.161213453539956,0.0227291598721094,4.61724262314409,0.00119604432379086,-0.00211223656250005,-0.00175434348112214,-0.0752549518274988,-2.48429946501509,1.34488098340377,0.0884880094776643,-0.161213453539956,0.0227291598721094,0.87496369958226,-0.315283002518227,-0.622467528402931,0.0964271751317841,-0.162430150501239,-0.0744924486000724
2.4,1.98446701192604,0.0746998591609529,3.32123869337749,-0.0689357483909638,-0.136905157299677,0.00712145283987956,0.0219661340269537,-2.66830943768751,1.21467856682813,0.0348225325294277,-0.177822033614905,-0.0375891080609492,4.63581853769746,0.00604230766375626,0.000212881475609264,0.00145253037743712,0.0219661340269537,-2.66830943768751,1.21467856682813,0.0348225325294277,-0.177822033614905,-0.0375891080609492,1.2668840312353,-0.629635128928264,-0.6469318176902,0.487483577523307,0.0160834726494228,0.0607716315132248
2.5,2.03237918986633,-0.168422586086537,3.33492989472414,-0.0772222802497488,-0.145271616194597,-0.0138211700045184,0.100202260577771,-2.66114787997703,1.20123220503355,0.259605300752994,-0.0786140196547683,0.0420385988898467,4.57977810433595,0.00196826128390341,-0.00207516509846087,-0.00135680408583628,0.100202260577771,-2.66114787997703,1.20123220503355,0.259605300752994,-0.0786140196547683,0.0420385988898467,1.31210446616354,-0.724822502955737,-0.773934254947983,0.158518287200202,-0.159364634033376,-0.0578309278833031
2.6,2.05189148743031,-0.336616596717651,3.40201494725347,0.0256576633041718,-0.109949231085053,0.0241017782534165,0.210647876371824,-2.71489142784655,1.09029827289884,0.105822031186677,-0.174101948305694,-0.0217470736726478,4.5096614472116,0.00237682931519908,-0.000993367271193648,-8.6977589074895e-05,0.210647876371824,-2.71489142784655,1.09029827289884,0.105822031186677,-0.174101948305694,-0.0217470736726478,0.98348137263252,0.255164823856071,-0.848089446093663,0.191979267241505,-0.0767098207326083,-0.00419025728881294
2.7,2.106893525689,-0.523891899518785,3.43202220469487,-0.0224809851594872,-0.153988881352641,0.00304103519369486,0.381674660102264,-2.8456982438218,1.07852352129275,0.134958739454257,-0.1333781255393,0.0104393243741966,4.45282482886511,0.00578707235129362,0.000570770640010949,-0.000744861307295488,0.381674660102264,-2.8456982438218,1.07852352129275,0.134958739454257,-0.1333781255393,0.0104393243741966,1.36621497370607,-0.19603711927692,-1.0119535168472,0.466731120619048,0.0438794380068339,-0.0319683799167924
2.8,2.18811787517976,-0.793121240935442,3.4669570860768,-0.00988521923169261,-0.15058526175006,0.00559335292124963,0.42850574490245,-2.79776277321373,0.918330063310788,0.29136753465246,-0.0766132746353583,-0.0106419851253056,4.49340287991,0.00243216496296673,-0.000953328499157502,7.48236264198621e-05,0.42850574490245,-2.79776277321373,0.918330063310788,0.29136753465246,-0.0766132746353583,-0.0106419851253056,1.34858173887672,-0.0812933156950507,-0.925328005203257,0.196334551314491,-0.0734635093581534,0.00263290370836481
2.9,2.18180748536112,-0.9852524044538,3.43047891605973,0.0373038440722609,-0.166562101201949,-0.0349648210174053,0.529583837635186,-2.88216278895664,0.890597375678176,0.137435775837841,-0.169174683130517,-0.0205947763888301,4.4789365809123,0.0060762794005751,0.00195984781377761,0.00240917721828056,0.529583837635186,-2.88216278895664,0.890597375678176,0.137435775837841,-0.169174683130517,-0.0205947763888301,1.49489132864653,0.282000008841647,-0.982244481529406,0.490055187419799,0.150741514642959,0.101240838084848
3,2.2860408927052,-1.17256837931773,3.50341855160582,0.0173094476376609,-0.181700697309951,-0.0107557587448614,0.715249298569811,-2.85820722135627,0.910059732763828,0.334712290594192,-0.0208642943603627,0.0607609699744146,4.35527152132497,0.00333297783415421,0.000177406952788324,-0.00271435538817393,0.715249298569811,-2.85820722135627,0.910059732763828,0.334712290594192,-0.0208642943603627,0.0607609699744146,1.57531195763992,0.133831552188544,-1.24413510206863,0.26846909619256,0.0137679065011158,-0.11491057169976
3.1,2.40426667470141,-1.35146713094654,3.57408221174276,0.128603460298902,-0.108266868754787,0.0425498396333872,0.854843046170036,-2.79810221878986,0.707329756277997,0.252938592558446,-0.0706424127365767,-0.0412383006245511,4.30055004936782,0.00120606693141334,-0.00093580587274244,-0.000306790508459964,0.854843046170036,-2.79810221878986,0.707329756277997,0.252938592558446,-0.0706424127365767,-0.0412383006245511,0.873964845975053,1.14129357005924,-1.32987279910193,0.0979993244749311,-0.0721385401849917,-0.0131584378808319
3.2,2.49231343991168,-1.52092136996224,3.53086471477932,0.105311543852609,-0.142059329229071,-0.00415708049407714,1.06647438135792,-2.84451094528106,0.749838178971294,0.163163091156773,-0.130619459895687,0.00270667713963123,4.26675736949406,0.00631972499325778,0.00366629082868496,-0.000234243481917121,1.06647438135792,-2.84451094528106,0.749838178971294,0.163163091156773,-0.130619459895687,0.00270667713963123,1.20521709803399,0.892014936216657,-1.40924795624223,0.509673217735298,0.282020940757657,-0.00997104078586764
3.3,2.59556809676749,-1.82895848394875,3.534857199674,0.0197407498298401,-0.230435048047237,-0.0550287988946644,1.0411274948583,-2.81344647372366,0.543617939756408,0.345233264164068,0.0113998411561377,-0.0453834801557817,4.55885747003839,0.00739275430779339,0.00373811423483323,0.0045665101818571,1.0411274948583,-2.81344647372366,0.543617939756408,0.345233264164068,0.0113998411561377,-0.0453834801557817,2.08883766197925,0.0651892931166106,-0.935022067269159,0.596260822504667,0.287547186285184,0.192678662342996
3.4,2.68428417123616,-1.9545585789451,3.52329289491858,0.154591050569501,-0.13490338421128,-0.0385532523273235,1.23155409486798,-2.62665124237443,0.684849572471401,0.45280646329675,0.0559284024922771,0.0987256635385443,4.16626574805323,-0.00093013541618659,-0.000392738672751621,-0.00313664153544644,1.23155409486798,-2.62665124237443,0.684849572471401,0.45280646329675,0.0559284024922771,0.0987256635385443,1.15594482435045,1.23937676840654,-1.65164122371431,-0.0758053938493711,-0.0303350393941315,-0.132155764660841
3.5,2.79952486363961,-2.03305612059926,3.62231803998055,0.221477231241156,-0.116744008059944,0.0290496305363387,1.4314781208962,-2.66798820044021,0.399569550819437,0.11459162519534,-0.0878869030040488,-0.0712500341202054,4.21587000022561,0.00552276146083289,0.00417707993089854,0.00188329895807779,1.4314781208962,-2.66798820044021,0.399569550819437,0.11459162519534,-0.0878869030040488,-0.0712500341202054,0.903928724655894,1.87925682865653,-1.64020526158099,0.446443823724281,0.321708592720577,0.0798980230501408
3.6,3.00382214846835,-2.26211738486217,3.54996446463641,0.109506214551477,-0.169059994112698,-0.0280319679819745,1.60646485819206,-2.49841290285958,0.52329882696117,0.402435202569569,0.101837918380658,0.0488686479535275,4.23824044576237,0.00425023063896288,0.00385238008993346,-0.000365102134275506,1.60646485819206,-2.49841290285958,0.52329882696117,0.402435202569569,0.101837918380658,0.0488686479535275,1.44308215922582,0.886274345562045,-1.50441392973941,0.342485866122643,0.296224489062706,-0.0148884977100365
3.7,3.16503735244624,-2.41125883308866,3.62979485060209,0.227964730413438,-0.0964057952116552,-0.00252083768275243,1.63463952257787,-2.34167253966403,0.191005976922688,0.359751954586453,0.0944158066906382,-0.0127096184242908,4.20733331299604,0.000221331855969075,0.00136782769883035,0.000937223210672086,1.63463952257787,-2.34167253966403,0.191005976922688,0.359751954586453,0.0944158066906382,-0.0127096184242908,0.793802767406463,1.89968076440831,-1.6510966063827,0.0184891884056174,0.105613176855977,0.040256395415268
3.8,3.26678807216742,-2.46654679753142,3.50475424347788,0.245176288273221,-0.0879672532190189,-0.0122725391038123,1.83759968619004,-2.2125410352968,0.314776907707078,0.205965111580039,0.00818693877268303,0.0248563097978364,4.09455842449838,0.00385106459254228,0.00502943797285293,-8.91119421694853e-05,1.83759968619004,-2.2125410352968,0.314776907707078,0.205965111580039,0.00818693877268303,0.0248563097978364,0.722271297439444,1.97900774168069,-1.89649968106492,0.310957085512526,0.387199091205116,-0.00289405061975766
3.9,3.521269235722,-2.57648220206673,3.62799209616525,0.225145235423536,-0.0902086002669613,0.0364426912331649,1.95796438149234,-1.98786284015541,0.138368104168501,0.392913752318921,0.199409523164443,0.0286527401874482,4.05786415885537,-0.000286484966322176,0.00215654548539344,-0.00230821495266434,1.95796438149234,-1.98786284015541,0.138368104168501,0.392913752318921,0.199409523164443,0.0286527401874482,0.646177684800814,1.83658224474229,-1.93126493751345,-0.0222810185797745,0.166652607097789,-0.0964243674677703
4,3.67772169091376,-2.6545207843523,3.56206214334166,0.309284240111521,-0.0173509143901925,0.0184085010093832,2.00566592661324,-1.81318611817354,-0.0616020177752175,0.21339444472235,0.0837145925163365,-0.0355888781184023,4.06614632012961,0.000608577307359111,0.00262657308119495,0.00127187226345053,2.00566592661324,-1.81318611817354,-0.0616020177752175,0.21339444472235,0.0837145925163365,-0.0355888781184023,0.0888144497106902,2.47733674324123,-2.06473704507564,0.0502750843292613,0.203534250657453,0.0547220523348159
4.1,3.81708574721458,-2.72454776493262,3.47005082647668,0.241566858362776,-0.0684379166614031,-0.0127601979932615,2.05703338828906,-1.56295879897263,0.0233415424148933,0.242625547594317,0.0990022130364113,0.033956021156725,3.99607002947107,0.00254688670694453,0.00573433361292668,-0.000191044632750546,2.05703338828906,-1.56295879897263,0.0233415424148933,0.242625547594317,0.0990022130364113,0.033956021156725,0.555021968209857,1.90498706302332,-2.06808307805709,0.205997390791444,0.441963950629409,-0.00695782187195951
4.2,3.97088608812235,-2.78471535869086,3.52097703273176,0.241983783856013,-0.0779004464404208,-0.0102890447372562,2.03084775921496,-1.41366551821943,-0.381242945935582,0.312535272427899,0.225628785972789,-0.0161167409046151,4.16060948636542,0.000432414817615549,0.00314887447364971,0.00198883748829834,2.03084775921496,-1.41366551821943,-0.381242945935582,0.312535272427899,0.225628785972789,-0.0161167409046151,0.649186720465369,1.98743186869899,-1.75572434284828,0.0359261405514524,0.243971693094113,0.0850596572523223
4.3,4.09306710261627,-2.80005941581535,3.32835934154017,0.307152687134682,0.00184939485026309,-0.0167683946189185,2.13255494143842,-1.1528426472618,-0.331334389920171,0.244795705097108,0.146733986063709,0.0471392410749667,4.0304543059427,-0.00126247748114914,0.00287911206641997,-0.00100915130251419,2.13255494143842,-1.1528426472618,-0.331334389920171,0.244795705097108,0.146733986063709,0.0471392410749667,0.0266576270848654,2.43707759379881,-2.12636870861895,-0.101101164850875,0.222995389631904,-0.0414805282652091
4.4,4.27147276187842,-2.78335090290172,3.33628763062838,0.298309338899849,-0.0190824622800576,0.0184256593636098,2.17666676777054,-0.90123268794548,-0.421625140591817,0.171662820859524,0.158722877709151,-0.0144417162244519,3.96217119135321,6.25575682759492e-05,0.00463479428646938,0.000162721870023559,2.17666676777054,-0.90123268794548,-0.421625140591817,0.171662820859524,0.158722877709151,-0.0144417162244519,0.101593218135529,2.33126849784402,-2.23701721860229,0.00620489881101775,0.359516742594791,0.00793210642417683
4.5,4.44202854420959,-2.78419176453415,3.30266557697579,0.267240144912248,-0.0164268498100227,-0.0200957670295774,2.15967777660514,-0.693291297448409,-0.673613887707859,0.216153764786692,0.227805113771808,-0.000452556168595936,4.05369359026893,-0.000363176669880084,0.00342585540924935,0.00126627965596169,2.15967777660514,-0.693291297448409,-0.673613887707859,0.216153764786692,0.227805113771808,-0.000452556168595936,0.171440298407509,2.1379089218414,-1.99145278449106,-0.0284120980805177,0.266243966504182,0.0544125371532831
4.6,4.58085857198851,-2.7561382071204,3.16626128624394,0.301054105904969,0.0304807222205753,-0.0121933622744749,2.1839116794213,-0.443911658050116,-0.77315847989168,0.201487033006846,0.198543544724094,0.0287862097161958,4.0287426281782,-0.00239666090773084,0.00279735559618603,-0.000664578109716997,2.1839116794213,-0.443911658050116,-0.77315847989168,0.201487033006846,0.198543544724094,0.0287862097161958,-0.205365893595859,2.39194433088129,-2.11847896550279,-0.192583985071839,0.218053250969878,-0.0272086115074248
4.7,4.74732516362823,-2.67902381700679,3.0850894317223,0.322104368946431,0.0426780414485992,0.0154487372284587,2.19692831617529,-0.159666966250419,-0.836050287454616,0.119729479946246,0.200374904434658,-0.00136658074926386,3.95642797280633,-0.00256554256395267,0.00300577149397974,-0.000697048785796153,2.19692831617529,-0.159666966250419,-0.836050287454616,0.119729479946246,0.200374904434658,-0.00136658074926386,-0.358898343985054,2.499674593777,-2.31092618252573,-0.206184479684579,0.235212245607664,-0.0287277487300463
4.8,4.93637017272212,-2.57314119902496,3.06127109344658,0.31876791871663,0.0781782504452104,0.0251160703278291,2.19731096903454,0.126339799482837,-1.00178217594437,0.121377758684935,0.236574585983843,0.0146283676480031,3.92531526208761,-0.00395131862825533,0.00130534865436062,-0.00198443709974151,2.19731096903454,0.126339799482837,-1.00178217594437,0.121377758684935,0.236574585983843,0.0146283676480031,-0.643840293283162,2.44496446590022,-2.37763711432617,-0.318151785082788,0.104486624711664,-0.0832294198941262
4.9,5.00293017811631,-2.55042321332873,2.88001287368091,0.250232341765678,0.0312391741195266,-0.0444279448007815,2.00280237913728,0.2906676615938,-1.21392000582014,-0.0116227347957149,0.112715336014142,-0.0799539108345991,4.05617031908142,0.00212895564639945,0.00566010922866632,0.00582485951480415,2.00280237913728,0.2906676615938,-1.21392000582014,-0.0116227347957149,0.112715336014142,-0.0799539108345991,-0.156027993136171,2.01777215639525,-1.95415367895844,0.171986113217576,0.44011535365004,0.246045537040806
5,5.1085040884115,-2.44435543105321,2.76142040654415,0.223688832897489,0.0158590632052853,-0.0510295190283259,2.03312114644066,0.5327834543157,-1.3332514178569,0.262891470904715,0.321915594111921,0.118664258533847,4.0959475349322,-0.00518218284804355,0.00158765748518936,-0.00336627084027113,2.03312114644066,0.5327834543157,-1.3332514178569,0.262891470904715,0.321915594111921,0.118664258533847,-0.0338186289952619,1.82128794434028,-1.82320393650857,-0.417851824845817,0.123984358137987,-0.141883742097436
5.1,5.28456658129709,-2.27545853287251,2.63037966074204,0.38912051233845,0.152698740041546,0.0601273824328427,2.09935890522983,0.784872085413485,-1.41328837388594,-0.0259781739112014,0.219199044194451,-0.0481384641569651,4.06769376266442,-0.00642856315483581,-0.00106611417432985,-0.000653121917484665,2.09935890522983,0.784872085413485,-1.41328837388594,-0.0259781739112014,0.219199044194451,-0.0481384641569651,-1.32832811269393,3.01198339375259,-2.3703742938195,-0.518689795368665,-0.0755287834134428,-0.0277509659997492
5.2,5.43029766253249,-2.14303266540077,2.48961225340714,0.26469626816405,0.1217738774795,-0.0167982409887989,1.88167472359065,1.20975988528555,-1.32343616103474,-0.0995035169089576,0.0933674760314324,-5.47214185318314e-05,3.86329520267769,-0.00177812847772019,0.00392383994567961,0.000694578518743844,1.88167472359065,1.20975988528555,-1.32343616103474,-0.0995035169089576,0.0933674760314324,-5.47214185318314e-05,-0.871802381575006,2.03633201288829,-2.40773603328709,-0.143814048092017,0.30645894878793,0.0288742936903361
5.3,5.49295570022724,-1.93416142698741,2.56449255400248,0.209812286502257,0.0618292529517393,-0.000872105776087067,1.81827535506796,1.26653742304948,-1.83145553852592,0.0621694386743933,0.288780686948863,0.0165389516071822,4.08975306187547,-0.00430468499784732,0.000925970026306079,-0.000855944908491546,1.81827535506796,1.26653742304948,-1.83145553852592,0.0621694386743933,0.288780686948863,0.0165389516071822,-0.492841045920339,1.7040277825096,-1.82515701792636,-0.347667134479578,0.0757455325023676,-0.0366389674588255
5.4,5.60567715650808,-1.81735323326795,2.19445601202435,0.291535623661554,0.16940036710674,0.00911963437227962,1.79414417109925,1.48341952502634,-1.79102961558354,-0.0450974250231838,0.188209946672736,-0.00763421565055549,4.16229368675953,-0.00625490326662693,-0.000762626129988245,-9.56838293094165e-05,1.79414417109925,1.48341952502634,-1.79102961558354,-0.0450974250231838,0.188209946672736,-0.00763421565055549,-1.36599679892615,2.38032288138974,-1.9508097958499,-0.505358866084188,-0.0534615935126948,-0.0048827320114017
5.5,5.67643936990593,-1.66680711027068,2.03218732544701,0.220851396956184,0.114548452821141,-0.0255770765489906,1.5357951563808,1.78610762131647,-1.75382988780213,-0.169770068560316,0.0986022326885305,-0.0135006275195704,4.04454441622017,-0.00194441319633706,0.00320977663604312,0.00182020390815022,1.5357951563808,1.78610762131647,-1.75382988780213,-0.169770068560316,0.0986022326885305,-0.0135006275195704,-0.856498357257084,1.79449046672167,-1.96910893660855,-0.157901029504937,0.251770755808733,0.0757623692122579
5.6,5.70684248245529,-1.44427825841846,2.02590228744057,0.158790262090257,0.0843398013298009,-0.0207122760049134,1.49973154394739,1.88785973095516,-2.06479518003968,-0.00630712463275937,0.263812168959531,0.0302060564359896,4.16312988710383,-0.00439913844899407,7.38509622999659e-05,-0.000468317706555753,1.49973154394739,1.88785973095516,-2.06479518003968,-0.00630712463275937,0.263812168959531,0.0302060564359896,-0.665162756564311,1.33064132991515,-1.61771375097343,-0.355850754190123,0.00987195055544129,-0.0208603449806574
5.7,5.81617084578396,-1.25623656094986,1.74695741015043,0.249337106137944,0.190250913764352,0.0152549908019952,1.48048300937304,2.05089793248765,-2.03342857221392,-0.103092536628336,0.165123369471049,0.00171331564834017,4.23936130238359,-0.00709451590620614,-0.00164094408029824,-0.000776638544428167,1.48048300937304,2.05089793248765,-2.03342857221392,-0.103092536628336,0.165123369471049,0.00171331564834017,-1.58552377887783,2.06827775784171,-1.7417239467393,-0.57383414424728,-0.120969976088889,-0.0341406140839211
5.8,5.92909822236204,-1.02780101704659,1.62205700259093,0.22854459909071,0.184346635790697,0.0242141825684149,1.25750472109998,2.3976794186548,-1.98583325433615,-0.220193650351632,0.111680095156206,0.0127024937740131,4.16806487391539,-0.00597671013224214,-0.000588568585704436,-0.00174845644187721,1.25750472109998,2.3976794186548,-1.98583325433615,-0.220193650351632,0.111680095156206,0.0127024937740131,-1.53360565488809,1.85204683360917,-1.82820600403124,-0.483921641808685,-0.0400914990791608,-0.0752773089038321
5.9,5.93365121936595,-0.767529488582904,1.59966004018353,0.153038886263595,0.155171811886154,0.0168507106743697,1.08627531962053,2.53431609299479,-2.19142273946274,-0.21225411907201,0.138595601628146,-0.0234986824561017,4.18047728933137,-0.00445150242003021,-0.000680286883513112,0.000302934502670477,1.08627531962053,2.53431609299479,-2.19142273946274,-0.21225411907201,0.138595601628146,-0.0234986824561017,-1.29837667717861,1.25286265012552,-1.64604785348784,-0.361241178731199,-0.0470185126050661,0.0112561485387971
6,5.92164011624743,-0.5763311709927,1.35250851265115,0.118270588264686,0.152047967274776,-0.020772271489076,0.930659480711438,2.57002455519864,-2.2856462409299,-0.186480044089519,0.114025294763071,0.000490257212797655,4.27042118562757,-0.00416617649259282,-0.00056850938034445,0.00093872145151715,0.930659480711438,2.57002455519864,-2.2856462409299,-0.186480044089519,0.114025294763071,0.000490257212797655,-1.26337336412728,1.03424152894931,-1.42667007608329,-0.338072193406366,-0.0394445977355914,0.038044315675486
6.1,5.96080798218238,-0.355972968409573,1.16012959978937,0.14415572676377,0.174411184739337,0.0162338019126555,0.838828089776232,2.70528796218047,-2.24411735203538,-0.171825173007922,0.136655369013958,0.0377910197402726,4.30254080188437,-0.00689107001335208,-0.00262650418967777,-0.0026071502601777,0.838828089776232,2.70528796218047,-2.24411735203538,-0.171825173007922,0.136655369013958,0.0377910197402726,-1.49760894987338,1.2120287905201,-1.42336879004872,-0.557966339557169,-0.197962965635005,-0.111585285092995
6.2,5.96021100766841,-0.147846155550047,1.00631508438204,0.119852435315656,0.168900394762612,0.00869526355797825,0.612317854344657,2.82522215182359,-2.32445741556172,-0.328601592209789,0.0300032771085403,-0.0605318153521853,4.35125121888576,-0.00328206961437663,-0.000530081239903147,0.00236410079450237,0.612317854344657,2.82522215182359,-2.32445741556172,-0.328601592209789,0.0300032771085403,-0.0605318153521853,-1.46137586835416,1.02785278571238,-1.29287326020595,-0.267732288585447,-0.0358606970473651,0.0981425728410636
6.3,5.91514268659514,0.0701089858659323,0.848428497052217,0.0260028167944192,0.121374045725647,-0.0390787449033447,0.443591775605614,2.89882171205877,-2.35045149335346,-0.201659317062866,0.106595758671472,0.0417720727882633,4.3149201625149,-0.00349195798177827,-0.00112802388352265,-0.000206241847369613,0.443591775605614,2.89882171205877,-2.35045149335346,-0.201659317062866,0.106595758671472,0.0417720727882633,-1.03495203381861,0.265011533247015,-1.24654350098916,-0.283648159454373,-0.0838675445717413,-0.0101666525043099
6.4,5.89279390865867,0.29769955349151,0.69160082058278,0.0712076467353737,0.16138849308806,0.010807728663469,0.401785058173803,2.8229371767766,-2.37364612484572,-0.222843518686804,0.0773518268605164,-0.00854334622340841,4.36237431788741,-0.00494627623141931,-0.00236570065229271,-0.000184617709310487,0.401785058173803,2.8229371767766,-2.37364612484572,-0.222843518686804,0.0773518268605164,-0.00854334622340841,-1.40504365117896,0.605594258442259,-1.22045131046583,-0.401806837092829,-0.178313010691144,-0.00922271112575625
6.5,5.89710922276851,0.47152184433734,0.482972052470787,0.0458571154238225,0.153262062271679,-0.0150839870898347,0.192722639315077,2.9358797179479,-2.43353299513075,-0.30204084736865,0.0203905424594304,-0.0111841721657014,4.45972837662167,-0.00310491661730122,-0.00134694705580765,0.00115280102660503,0.192722639315077,2.9358797179479,-2.43353299513075,-0.30204084736865,0.0203905424594304,-0.0111841721657014,-1.35391545976596,0.429347731722452,-1.00436077129833,-0.253253260811412,-0.100435361829787,0.0472808952011955
6.6,5.85068519372947,0.707230047742243,0.356134221651994,0.00313634472113694,0.138510490360831,-0.0086308497928666,0.0641054733925928,2.9697680333778,-2.36911228705958,-0.234618347756401,0.0614850135443499,0.0257818925457593,4.3884715028028,-0.00397071477796488,-0.00235199625204945,-0.000902718486660459,0.0641054733925928,2.9697680333778,-2.36911228705958,-0.234618347756401,0.0614850135443499,0.0257818925457593,-1.211526501456,0.0379852619500628,-1.11715873952634,-0.322887162146751,-0.178348123667765,-0.0392921644168647
6.7,5.82596894153353,0.935976541070482,0.243992965305135,0.0316440292277634,0.173201498868102,0.021959422000991,-0.0123130193675387,2.926757727665,-2.43529440720188,-0.274587310391684,0.0234088705039744,-0.00733104149053648,4.4639078225942,-0.0045583797274029,-0.00326666191550227,-0.000754000959862292,-0.0123130193675387,2.926757727665,-2.43529440720188,-0.274587310391684,0.0234088705039744,-0.00733104149053648,-1.54365263964741,0.248629861725671,-1.02016428399036,-0.370862297501046,-0.248564675072128,-0.0329144381311263
6.8,5.76269845563064,1.08948315415996,0.0228194519207854,-0.0324188002911581,0.129265231545638,-0.0233191689664848,-0.288238523580106,2.94363971695441,-2.47881188522332,-0.341442590595224,-0.0467763330476303,-0.0315840785490933,4.50408452090298,-0.00088826602368125,-0.0008525076266994,0.00256080212087042,-0.288238523580106,2.94363971695441,-2.47881188522332,-0.341442590595224,-0.0467763330476303,-0.0315840785490933,-1.16708538182638,-0.264841892607071,-0.881681011007787,-0.0747723873091383,-0.0633569252597387,0.107100134689526
6.9,5.68094373185173,1.31725784090857,-0.0882694429820701,-0.0535834104019757,0.12402617962512,-0.00663060802818597,-0.30116238471419,2.86150993730317,-2.39179413805816,-0.175169704703817,0.0662787651988988,0.0660033526232,4.41431985744786,-0.00445155207469126,-0.00352872622648497,-0.00285238271255952,-0.30116238471419,2.86150993730317,-2.39179413805816,-0.175169704703817,0.0662787651988988,0.0660033526232,-1.09372104325989,-0.46560053258079,-1.06175048143773,-0.361453328250866,-0.270038877810589,-0.121089252713207
7,5.66943751301366,1.50438119901975,-0.217846053708994,0.0202596839770039,0.187923723629871,0.0519313348756426,-0.371719479714654,2.79627071031887,-2.49450374145986,-0.327189747484777,-0.0437057369964717,-0.0418183251884302,4.58006203119352,-0.00383213054255903,-0.00387055017076251,-0.000424884929465728,-0.371719479714654,2.79627071031887,-2.49450374145986,-0.327189747484777,-0.0437057369964717,-0.0418183251884302,-1.71826523622508,0.0965069221336646,-0.812993618414911,-0.312899736582494,-0.295889050303181,-0.0185813164034932
7.1,5.59797402316739,1.6509711305849,-0.432693472504014,-0.0820786471179784,0.124305650609419,-0.0168368657128767,-0.707308011064346,2.89519168363456,-2.49234781677797,-0.330771000422198,-0.0793384063879386,-0.00714404407314333,4.59910048010513,-0.000913980845725895,-0.00166250293285704,0.00119685285591128,-0.707308011064346,2.89519168363456,-2.49234781677797,-0.330771000422198,-0.0793384063879386,-0.00714404407314333,-1.14914212224022,-0.734885598933218,-0.713499769483498,-0.0766672475759226,-0.126868146038488,0.0500481918724355
7.2,5.44891207984391,1.87945655599087,-0.521762012830482,-0.0923577010470796,0.114202696041965,0.00989016002613187,-0.703465471584212,2.65419755493225,-2.37724963988963,-0.208612148762208,0.00400193442323382,0.0382342447783152,4.44074233953335,-0.00311174855076804,-0.0034071905674309,-0.00223359723439147,-0.703465471584212,2.65419755493225,-2.37724963988963,-0.208612148762208,0.00400193442323382,0.0382342447783152,-0.99962244674254,-0.82903466670948,-1.02397549571713,-0.253667817624988,-0.261533781672717,-0.0944959348929608
7.3,5.38515526327373,1.9681593255699,-0.679219028059915,-0.0690701492734592,0.134675573574287,0.0189726556187257,-0.789189802917709,2.52521444167013,-2.58924774643101,-0.322298695817483,-0.0914400821459189,-0.0506951876101928,4.62758320468645,-0.000696447140323461,-0.00209903222952442,0.00157920235922571,-0.789189802917709,2.52521444167013,-2.58924774643101,-0.322298695817483,-0.0914400821459189,-0.0506951876101928,-1.22737618970266,-0.662151925155258,-0.660507785557234,-0.0596202997551425,-0.161085007820851,0.0664980734571359
7.4,5.34555947429685,2.13827246746196,-0.8852282440514,-0.0966837093375593,0.129187809527713,0.0157256618201645,-0.904837404043065,2.56234626503443,-2.44176834663603,-0.194500690695172,-0.0105512066504632,0.0657011613331754,4.61292100419616,-0.00375703856271516,-0.00433070871972271,-0.00374323678479971,-0.904837404043065,2.56234626503443,-2.44176834663603,-0.194500690695172,-0.0105512066504632,0.0657011613331754,-1.16885202814285,-0.909092216378884,-0.703766034070824,-0.305371568523003,-0.333223608758892,-0.157898782083572
7.5,5.22211073930331,2.29265174189577,-0.980350040818461,-0.0748039385992958,0.140628765707876,0.0487489764463259,-1.04908959392765,2.37510426684249,-2.48720309255898,-0.351577080351926,-0.137983940554034,-0.0716883775709018,4.63743123546644,-0.000483790588664789,-0.00237004975506193,0.00125735797441343,-1.04908959392765,2.37510426684249,-2.48720309255898,-0.351577080351926,-0.137983940554034,-0.0716883775709018,-1.26106504838408,-0.755498199065509,-0.652379606596915,-0.0425845634047651,-0.182781523867859,0.053200477836936
7.6,5.04375367664963,2.33036292897829,-1.20234338531162,-0.213528054495215,0.0275940830651561,-0.0644908625354829,-1.28466108647125,2.24993156831571,-2.58568417290974,-0.267094842156721,-0.100685146460775,-0.00722786607239428,4.67284697169845,0.00365558269794298,7.08637765081518e-05,0.00343184010127024,-1.28466108647125,2.24993156831571,-2.58568417290974,-0.267094842156721,-0.100685146460775,-0.00722786607239428,-0.379104906240319,-1.96008076884076,-0.680029675112275,0.292689369346161,0.0047730896813988,0.145116700348174
7.7,4.91693567508931,2.47467001221327,-1.35290573967445,-0.159858828123794,0.071704570416941,-0.00128897853645716,-1.06093879926621,1.77475453690372,-2.37316789128561,-0.0534474173723783,0.0128885200031875,0.0753353429244356,4.45839828176241,-0.00209944105772746,-0.00289862684211305,-0.00348269498447065,-1.06093879926621,1.77475453690372,-2.37316789128561,-0.0534474173723783,0.0128885200031875,0.0753353429244356,-0.632511120412092,-1.41855118590391,-1.0295157781126,-0.171200712070747,-0.223881659324247,-0.146525263908912
7.8,4.87974771644348,2.40248300778397,-1.49165140475235,-0.111727894110815,0.0864837353931711,0.00704149964885156,-1.23692925209382,1.73906597295137,-2.75690948473278,-0.323963834144305,-0.145144391868311,-0.106866955482036,4.8030427121631,0.00314737837465428,-0.000186074408911995,0.0047652431731647,-1.23692925209382,1.73906597295137,-2.75690948473278,-0.323963834144305,-0.145144391868311,-0.106866955482036,-0.816999385487355,-1.07681568204552,-0.299487018542782,0.250691725722557,-0.0158989596890734,0.201517424059684
7.9,4.79767427337534,2.56191057322025,-1.73969845631714,-0.186816312899113,0.0613649324682402,-0.02620186432463,-1.28359876508705,1.8069768495518,-2.44085780308523,-0.056771818981035,0.0161140497389021,0.121768998464316,4.68738198995392,-0.00194283785467899,-0.00308141699238435,-0.00449252667504089,-1.28359876508705,1.8069768495518,-2.44085780308523,-0.056771818981035,0.0161140497389021,0.121768998464316,-0.610340736559668,-1.72579157595066,-0.615690493536182,-0.157964517311809,-0.237977897517079,-0.188997945436123
8,4.68335671984333,2.68509012216733,-1.76838301931449,-0.0924586368525702,0.120924730052104,0.0679769816530661,-1.31395914695252,1.43440404133023,-2.53480700996893,-0.279657853766636,-0.131213327013809,-0.0927087925997453,4.71046824976017,0.00101780725816578,-0.00186897937585083,0.00124179205243833,-1.31395914695252,1.43440404133023,-2.53480700996893,-0.279657853766636,-0.131213327013809,-0.0927087925997453,-1.06990096282768,-0.944660814951454,-0.497805178024336,0.0789406008095576,-0.146162087849585,0.0529868527375488
8.1,4.58912736027765,2.6589018541342,-1.95284267268898,-0.197309323181248,0.0552164268915925,-0.0256877815516995,-1.52204146118527,1.56848846313388,-2.6457605476166,-0.152067668378168,-0.0759942770881733,0.0345369909176585,4.8672642014146,0.00113351918437564,-0.00124073919904054,-0.000389221639933249,-1.52204146118527,1.56848846313388,-2.6457605476166,-0.152067668378168,-0.0759942770881733,0.0345369909176585,-0.575649331274324,-1.89411427405159,-0.278892918987548,0.089806423500705,-0.0970437449200017,-0.0157614237924298
8.2,4.42021358054564,2.81080667411916,-2.13377598925773,-0.14947367855355,0.0799045852145787,0.035529424864543,-1.45864095371878,1.10937756500368,-2.40687592094258,-0.13672635105719,-0.0639091402458402,0.00322359222674517,4.69176488799302,0.000187049453295481,-0.00208434247553169,-0.00180320370094971,-1.45864095371878,1.10937756500368,-2.40687592094258,-0.13672635105719,-0.0639091402458402,0.00322359222674517,-0.690533048730673,-1.42280069095217,-0.560706331873039,0.0130919212405519,-0.162616294919608,-0.0753944480903803
8.3,4.36462791930114,2.74317220137418,-2.17992170916481,-0.135558941918423,0.0977178409145429,0.0400783620984576,-1.51959118243879,1.14442023829151,-2.64503087581392,-0.160304480231676,-0.089310757537241,-0.0164634747794731,4.89099597287843,-5.59922542195509e-05,-0.00209804090012601,-0.00107370859755795,-1.51959118243879,1.14442023829151,-2.64503087581392,-0.160304480231676,-0.089310757537241,-0.0164634747794731,-0.891871407883587,-1.35880528825778,-0.163986315204893,-0.00646726097741785,-0.163900431551101,-0.0445911633088795
8.4,4.19737990955097,2.78819348793364,-2.47258764720484,-0.193886399837728,0.0417062427756449,-0.00834478784995042,-1.73443426777689,0.953958027290817,-2.53100188303217,-0.203842200219513,-0.128746753046556,-0.0361625816558587,4.91716454828183,0.00379577253526384,7.66633686240693e-05,0.00212183004582742,-1.73443426777689,0.953958027290817,-2.53100188303217,-0.203842200219513,-0.128746753046556,-0.0361625816558587,-0.418148817883821,-1.89139527061259,-0.168329798425725,0.304474558279231,0.00346664117947327,0.0902554154548814
8.5,4.011174093962,2.78796479064053,-2.56533294139078,-0.219619424210398,0.0199397800889759,-0.0165819809542865,-1.64479244693403,0.613071062862826,-2.46180403132609,-0.0313666111772447,-0.0400054268628876,0.0385401199425197,4.82832411097027,0.00194681032834759,-0.000551841342518123,-0.00104330235458128,-1.64479244693403,0.613071062862826,-2.46180403132609,-0.0313666111772447,-0.0400054268628876,0.0385401199425197,-0.222771394472434,-2.10037497500344,-0.387173844727284,0.155910870041956,-0.0444098560326556,-0.043296182609311
8.6,3.9519011528163,2.72465390450944,-2.68509085496334,-0.138593867003801,0.0710538216980823,0.0338962951680636,-1.58727011128516,0.372823609421221,-2.55000377832013,-0.084864332583659,-0.059097740486873,-0.0182886559076596,4.91948489030031,0.000975798067457089,-0.00130301782975753,-0.000734363274788996,-1.58727011128516,0.372823609421221,-2.55000377832013,-0.084864332583659,-0.059097740486873,-0.0182886559076596,-0.645348036550215,-1.38192412576269,-0.0899620388638311,0.0772299992068027,-0.102987918254075,-0.0302739422526366
8.7,3.87436217522575,2.67225414638333,-2.86918866512297,-0.158405278880579,0.0647485571936031,0.0162886231293498,-1.75375370739871,0.459207543245736,-2.53064876063498,-0.114295405378501,-0.085751262596384,-0.0075792290533802,5.02190006761195,0.00160925285771178,-0.000930894136194232,-0.000405957412282143,-1.75375370739871,0.459207543245736,-2.53064876063498,-0.114295405378501,-0.085751262596384,-0.0075792290533802,-0.615840189232819,-1.59458799624413,0.0872698831487675,0.128569798431652,-0.0740870603931928,-0.016426377565645
8.8,3.65252935294533,2.69206502134418,-3.04787426630405,-0.216326558887188,0.00912828606002862,-0.0202805442642216,-1.87669826576099,0.169411152352534,-2.4703696139887,-0.115986526165242,-0.107887469874377,-0.0346472424992667,5.03774667293347,0.00510943989934931,0.00104753187963915,0.00259835341378541,-1.87669826576099,0.169411152352534,-2.4703696139887,-0.115986526165242,-0.107887469874377,-0.0346472424992667,-0.133665073072039,-2.16037035766398,0.0302489667983803,0.411002471031946,0.0781445117068005,0.110317472995999
8.9,3.49809266126703,2.61226320271247,-3.15736679708957,-0.212861200805538,0.00289075672545559,-0.0241263109638114,-1.73865187370478,-0.194816443208166,-2.41351280314694,0.0538640464302641,-0.0174418980167298,0.0431521574676918,5.00713447849875,0.00246309152015216,0.000172175553579891,-0.000903821396205274,-1.73865187370478,-0.194816443208166,-2.41351280314694,0.0538640464302641,-0.0174418980167298,0.0431521574676918,-0.0793235691340093,-2.11428999098264,-0.0217893183435169,0.197983034420998,0.0114814678859717,-0.0374930861831321
9,3.44840286809673,2.47926539288762,-3.27794882415336,-0.131329308975479,0.0529466156680621,0.0241001294067072,-1.71197905212964,-0.363526639083265,-2.44989709343422,-0.0325612832695309,-0.0440084040570283,-0.0231493087480613,5.07310174346677,0.00189667344096641,-0.000449852908870099,-4.76339866461127e-05,-1.71197905212964,-0.363526639083265,-2.44989709343422,-0.0325612832695309,-0.0440084040570283,-0.0231493087480613,-0.500159751964703,-1.34110905278208,0.234735533070197,0.151959795428783,-0.0372884443791255,-0.00139159025031641
9.1,3.29105438407716,2.34273106826624,-3.49094475624476,-0.215427392080005,-0.0108600987047426,-0.0519064186723254,-1.95663897200369,-0.352810728155883,-2.46572962251717,-0.0880248763806419,-0.108207135316887,-0.0450725303241033,5.2386317369897,0.00691380519202252,0.00210293681423865,0.00459948339554766,-1.95663897200369,-0.352810728155883,-2.46572962251717,-0.0880248763806419,-0.108207135316887,-0.0450725303241033,-0.00519902552509729,-2.24242224829082,0.424479240962233,0.556795336507519,0.159566239484398,0.194668376896451
9.2,3.14813103068917,2.41227008409332,-3.57236891213807,-0.172761116730831,0.0240986578809311,0.00215023087643163,-1.70856910385978,-0.722012672032341,-2.19728102823604,0.199286125539078,0.0564066614200557,0.120212150220274,5.03419388835695,-0.00120657949742945,-0.0014098810116195,-0.00578811076258866,-1.70856910385978,-0.722012672032341,-2.19728102823604,0.199286125539078,0.0564066614200557,0.120212150220274,-0.235277469634192,-1.73129612079155,0.105628607239005,-0.0976703979070328,-0.109677467627542,-0.243679674215255
9.3,3.08153531357006,2.17245812644077,-3.64285012819222,-0.0884711659174113,0.0560910620163248,0.0391376572772093,-1.85981468133581,-0.796655432296763,-2.46152594679561,-0.168998601409488,-0.117693518662333,-0.14563217226463,5.27205145579958,0.00501402723301937,0.00110258544375355,0.0050456602683244,-1.85981468133581,-0.796655432296763,-2.46152594679561,-0.168998601409488,-0.117693518662333,-0.14563217226463,-0.551904461346366,-0.953957885697992,0.67634693438352,0.403073251298668,0.0810939877908578,0.213436249159152
9.4,2.94710431243743,2.14983046171807,-3.85241011863246,-0.203357579751111,0.0127513519413826,-0.0377620862735015,-1.93458135998418,-0.612690991220664,-2.16494513673171,0.135080365976311,0.0235154729733417,0.127946513592686,5.20214471490472,0.0006264545602766,-0.000772470607908336,-0.00427203965037457,-1.93458135998418,-0.612690991220664,-2.16494513673171,0.135080365976311,0.0235154729733417,0.127946513592686,-0.209167124137967,-2.09483509969988,0.379070299025798,0.0503457163656907,-0.0600477475573578,-0.17975762180533
9.5,2.7461081781975,2.14578743352441,-3.90963558171049,-0.111175350414239,0.0431275944863304,0.0453070725520147,-1.92199933003344,-1.18807519027403,-2.27167014345094,-0.0678483594645847,-0.0900639121123704,-0.10812855084743,5.28836507330532,0.00427022353356862,0.00105099027732452,0.0029773993673638,-1.92199933003344,-1.18807519027403,-2.27167014345094,-0.0678483594645847,-0.0900639121123704,-0.10812855084743,-0.399579822189304,-1.19277249924161,0.691659408158994,0.343346535864843,0.077459888600675,0.126115419328885
9.6,2.65940201218613,1.87212107613092,-4.04722837825278,-0.169339972620784,0.0122549936238035,-0.0309229703990705,-1.96788978741556,-1.01277558553469,-2.11495075582483,0.118245146816882,0.00925816411663136,0.0735325951683312,5.27760137569832,0.00145163981954397,-7.08484830380806e-05,-0.00201686179380597,-1.96788978741556,-1.01277558553469,-2.11495075582483,0.118245146816882,0.00925816411663136,0.0735325951683312,-0.18243925849088,-1.77409480111937,0.593442155204873,0.116792943206631,-0.00650480771516152,-0.0846584973124943
9.7,2.51256240695592,1.89066938622982,-4.12312500618007,-0.0842377093290906,0.0617898629367594,0.0517545125725014,-1.9216134418208,-1.33111656893132,-2.10927827054342,0.014577266039915,-0.0342016315811918,-0.0330738390249628,5.30826989399926,0.00132105332177627,-0.000499230755238337,-0.000883200644838955,-1.9216134418208,-1.33111656893132,-2.10927827054342,0.014577266039915,-0.0342016315811918,-0.0330738390249628,-0.606168517531307,-0.925853333952803,0.74870600038272,0.105823086697279,-0.0409804766283035,-0.0368391724813041
9.8,2.38442601455963,1.65572408400553,-4.26223424534424,-0.144634875243033,0.0211915096943141,-0.0120569716808061,-2.12213992981081,-1.22676079973512,-2.06386093293126,-0.000415629001329978,-0.0690947273494872,-0.0267389604156319,5.39344899124135,0.00392767547357867,0.00109588523362848,0.00183780130004672,-2.12213992981081,-1.22676079973512,-2.06386093293126,-0.000415629001329978,-0.0690947273494872,-0.0267389604156319,-0.244915330144686,-1.55188769524675,0.861870930014618,0.31625601230874,0.0824387244713375,0.0779473428605461
9.9,2.17961045181238,1.64767830642614,-4.35758547159016,-0.135551399239455,0.017155003080747,0.00142978263173911,-2.03022961615236,-1.51906492808453,-1.92881247077359,0.132034178693784,0.00798278025480831,0.0462205967428729,5.36309719793922,0.00117770482885225,-3.97225226747762e-05,-0.00225204280602073,-2.03022961615236,-1.51906492808453,-1.92881247077359,0.132034178693784,0.00798278025480831,0.0462205967428729,-0.180238386263895,-1.44976140551548,0.816238855275595,0.094670706602667,-0.00434784221005854,-0.0946626130275218
10,2.07100839855426,1.41395051020449,-4.43355310818939,-0.0885714481454324,0.0368738060769179,0.0215645519685614,-2.05151439291383,-1.65068179410066,-1.92879924543203,0.0149368838193614,-0.0467497893517175,-0.0556902585603314,5.42632102854118,0.00298110364778757,0.000658067543240575,0.00161886351385232,-2.05151439291383,-1.65068179410066,-1.92879924543203,0.0149368838193614,-0.0467497893517175,-0.0556902585603314,-0.37772669388883,-0.968347940391834,0.992752632094071,0.239866538832629,0.0484689882622646,0.0686519821353981
10.1,1.94347809492022,1.27635090171833,-4.54090104197335,-0.12125425338319,0.0229073725157921,-0.00991295928049674,-2.11743862418441,-1.59944788659876,-1.79637949791165,0.11041403157844,-0.00647225507262025,0.0401856354135812,5.42510429841519,0.00159093285322863,8.95923787889919e-05,-0.00143067264224888,-2.11743862418441,-1.59944788659876,-1.79637949791165,0.11041403157844,-0.00647225507262025,0.0401856354135812,-0.259700823850428,-1.30990243753085,0.957717384895183,0.128060292601273,0.00586627719457491,-0.0600498549573144
10.2,1.73948364636693,1.16627489193534,-4.63258335000938,-0.107821181483545,0.0096853480578549,-0.000555536540060589,-2.16389664372033,-1.86186332174551,-1.79763420116554,0.0349533406861371,-0.0550884056204431,-0.0532509510513301,5.5265435295963,0.00417656626848308,0.00153982437436476,0.0025576973453292,-2.16389664372033,-1.86186332174551,-1.79763420116554,0.0349533406861371,-0.0550884056204431,-0.0532509510513301,-0.107090432588119,-1.18938982861739,1.178385550795,0.336395803636393,0.116707839106532,0.108217025505954
10.3,1.59114503251681,0.949466228903931,-4.73122921710514,-0.128491804028789,-0.00892261583317003,-0.0352153699549689,-2.12616432632638,-1.93874517520991,-1.61232782572586,0.160942276333939,0.0128976172562707,0.0420776019007504,5.50289556436094,0.00261548811317009,0.000962003199100913,-0.000308339705214982,-2.12616432632638,-1.93874517520991,-1.61232782572586,0.160942276333939,0.0128976172562707,0.0420776019007504,0.0476764659182371,-1.41282039565256,1.1046279759449,0.210767312072025,0.0732841114210195,-0.012747575929248
10.4,1.51265149273232,0.843718256019699,-4.72162877852339,-0.0283458285933582,0.0621918617466231,0.0470887910440123,-2.01650981502948,-2.05432689764067,-1.55252275618927,0.142686815454386,0.0293985701395895,0.0147151718699774,5.44697235004744,-0.000924514112250167,-0.00147011067153176,-0.00291731045965943,-2.01650981502948,-2.05432689764067,-1.55252275618927,0.142686815454386,0.0293985701395895,0.0147151718699774,-0.661522221846834,-0.340272492079354,1.05851572708354,-0.0749006253122507,-0.114476365236392,-0.122843859610365
10.5,1.3779004687168,0.615821673391808,-4.8317529461129,-0.066015760897611,0.0310088683405088,-0.000190814797540384,-2.31131950794871,-1.89170916678208,-1.57632254734841,-0.0353902455909491,-0.103502665476417,-0.0784606939309568,5.58763497708794,0.00452598400421874,0.00163162471401855,0.00372976303612635,-2.31131950794871,-1.89170916678208,-1.57632254734841,-0.0353902455909491,-0.103502665476417,-0.0784606939309568,-0.345862893492179,-0.737142225733948,1.33556677547855,0.364568738402985,0.123981866224484,0.157619264775964
10.6,1.11771372640565,0.600038222503947,-4.91973647190394,-0.121630053712043,-0.0137931272665054,-0.0279783387732281,-2.24571753102166,-2.03154171140029,-1.35628262612022,0.214288767469384,0.0373484002846852,0.0831656283548224,5.54962349588692,0.00111563220242889,0.000207371550384433,-0.00259837212040511,-2.24571753102166,-2.03154171140029,-1.35628262612022,0.214288767469384,0.0373484002846852,0.0831656283548224,0.114225173021875,-1.35039976054573,1.20619974768825,0.0899100507372031,0.0156796271842647,-0.109435330204756
10.7,0.963271839146116,0.364701757822479,-4.95083342410013,-0.0448718737619136,0.0134062630822584,0.00692752751633847,-2.18358619182663,-2.35872199187269,-1.37900127035784,0.0537873936095548,-0.0455436649871631,-0.0846248288649666,5.6453470732016,0.00389086383944117,0.00152292977542741,0.00369449046846193,-2.18358619182663,-2.35872199187269,-1.37900127035784,0.0537873936095548,-0.0455436649871631,-0.0846248288649666,-0.147696977853645,-0.507499946939237,1.46831564171765,0.313385048642383,0.115700268386936,0.156079267807721
10.8,0.880971252533412,0.0992945348131449,-5.02276903188502,-0.0826533470502812,-0.00347700347130863,-0.0423313322745243,-2.22225272662032,-2.17889778345004,-1.14152147060281,0.199685321680155,0.0276485563295479,0.0747234377776907,5.57088045764477,0.00152376221498084,0.000527846750809439,-0.00151470759900643,-2.22225272662032,-2.17889778345004,-1.14152147060281,0.199685321680155,0.0276485563295479,0.0747234377776907,-0.000354061638053939,-0.920665435189194,1.29365756517022,0.122830129052612,0.0403907687172056,-0.0637429875624227
10.9,0.702542669420941,0.0388068404257527,-5.01128557196467,-0.0196218162353283,0.0237133000788293,0.0187237546663801,-2.19928071951657,-2.36540049116336,-1.18384023199159,0.104976828180942,-0.0121786547385651,-0.0442434166951733,5.64130888139874,0.00182627109306442,0.00054951648240349,0.00121981257560429,-2.19928071951657,-2.36540049116336,-1.18384023199159,0.104976828180942,-0.0121786547385651,-0.0442434166951733,-0.2632799858198,-0.226340222260773,1.46727437523122,0.146938639924576,0.0411640518209561,0.0516266750316608
11,0.580217984670504,-0.187486145383783,-5.08731459283098,-0.0421300811832116,0.0150070745080447,-0.0208473631690918,-2.26740299043689,-2.22086346852287,-0.99251849872171,0.133141029654581,-0.00423027064972395,0.024103175538139,5.60600914497316,0.00183136683949499,0.000449115993090999,-0.000143506113436048,-2.26740299043689,-2.22086346852287,-0.99251849872171,0.133141029654581,-0.00423027064972395,0.024103175538139,-0.177911353621274,-0.468616632522869,1.39080801264205,0.147522390669565,0.034027254946943,-0.00591305879862452
11.1,0.422167231006291,-0.233103239460281,-5.05211487475706,0.00146006582625113,0.0425992568063645,0.0318264419691164,-2.22545630571284,-2.27571249908627,-0.953220032511523,0.160244470842641,0.0150109374155405,0.0146174070570241,5.60280976056771,-0.000633322805096393,-0.000992645318440418,-0.00219013225823522,-2.22545630571284,-2.27571249908627,-0.953220032511523,0.160244470842641,0.0150109374155405,0.0146174070570241,-0.477485150001393,0.00116743948222662,1.38544172514261,-0.0513293530730794,-0.0770714968107351,-0.0922842767955522
11.2,0.291406464428906,-0.413182579056751,-5.09252226065092,0.0214010271572578,0.0503661937457004,0.0299683802285504,-2.33220611613639,-2.17843366914592,-0.871923367162413,0.0582336894655838,-0.0441770816145743,-0.033175257360051,5.63074063306151,0.000824043135726215,-0.000377213015114914,0.000154763640374283,-2.33220611613639,-2.17843366914592,-0.871923367162413,0.0582336894655838,-0.0441770816145743,-0.033175257360051,-0.573794790051161,0.223896276670522,1.4346249516577,0.0661357943899187,-0.0297627563970066,0.00664315977340274
