time,x,y,z,roll,pitch,yaw,xdot,ydot,zdot,p,q,r,thrust,roll angle,pitch angle,yaw angle,_xdot,_ydot,_zdot,_p,_q,_r,_xddot,_yddot,_zddot,_phiddot,_thetaddtot,_yawddot
0,1.01841953230695,3.01841953230695,0.0184195323069548,0.0184195323069548,0.0184195323069548,0.0184195323069548,0.0184195323069548,0.0184195323069548,0.0184195323069548,0.0184195323069548,0.0184195323069548,0.0184195323069548,8.93164443273043,-0.00713893524289787,0.000491273303648641,-0.00176896553920499,0.0184195323069548,0.0184195323069548,0.0184195323069548,0.0184195323069548,0.0184195323069548,0.0184195323069548,-0.334963162173217,0.322900080161648,8.04722890901936,-0.575720695459385,0.0377903662980842,-0.0746398994359891
0.1,0.620366420226373,1.82036642022637,0.0203664202263731,0.0203391866051282,0.0195068868297979,0.0194877677609504,-0.0826211532707203,0.118335424572854,4.43885791227827,-0.30686424404174,0.0308392274503945,-0.0311449319674677,5.5772491392759,-0.000357759046585915,-0.000979880113617564,0.000546677505026579,-0.0826211532707203,0.118335424572854,4.43885791227827,-0.30686424404174,0.0308392274503945,-0.0311449319674677,-0.22191010131792,0.22257578404578,1.3400694066676,-0.0288544636658991,-0.0753724442362545,0.0230664755000657
0.2,0.630790492003786,2.05286827110208,2.0421049707155,-0.138793121837773,0.0165990402929679,-0.0135301373769799,-0.0594149690918594,0.06302142010138,1.14367464041099,-0.0431589937941761,-0.0353783112328382,0.0102206363311392,6.72283528421622,0.00050384314700565,0.000430727225405947,0.00015544521561191,-0.0594149690918594,0.06302142010138,1.14367464041099,-0.0431589937941761,-0.0353783112328382,0.0102206363311392,-0.246176361979788,-1.85702014508916,3.50453831022112,0.04063792085548,0.0331647692534388,0.00656246692761441
0.3,0.643806758740329,2.03811392230128,0.797680399338371,-0.0305160485570604,-0.00668938019396099,0.0104196626636088,-0.0926457287692742,-0.300247888945111,2.49961939558286,-0.0022109325913915,0.0217359341945656,0.00657601864843999,6.48263754534506,-0.00419286669981558,-0.000627879681060513,-0.000800674891320806,-0.0926457287692742,-0.300247888945111,2.49961939558286,-0.0022109325913915,0.0217359341945656,0.00657601864843999,0.0908057369426478,-0.394662836363966,3.14894878996755,-0.338134111267828,-0.0482912172712265,-0.0337825854207517
0.4,0.603012742217157,1.85559937986151,1.50108099007556,-0.0341249558518276,-0.00250429109407558,-0.0107667905950508,-0.0860415422225472,-0.218102001455204,2.36839612181936,-0.225160992377851,-0.0378289276349109,-0.0318410215320451,6.10078993887361,0.000288695870617364,1.36150078007035e-05,0.00203010246134201,-0.0860415422225472,-0.218102001455204,2.36839612181936,-0.225160992377851,-0.0378289276349109,-0.0318410215320451,0.0260546138493385,-0.416602232348738,2.3844378816797,0.0232806738108783,0.00103549505834824,0.0856613416439434
0.5,0.653014737456336,1.93559690919859,1.6135528215619,-0.0915490076903296,0.0167496244268104,0.0167058314941893,-0.0140136008112913,-0.16976050497555,2.14436682066556,-0.00551887973405379,0.0258545982801761,0.0699553776510773,6.15807493008695,-0.00345997245079363,-0.00281869595326135,-0.00407010112241577,-0.0140136008112913,-0.16976050497555,2.14436682066556,-0.00551887973405379,0.0258545982801761,0.0699553776510773,-0.186579562330723,-1.12923133710043,2.45285333976119,-0.279030566538074,-0.216687838223852,-0.171734537677971
0.6,0.641089942402603,1.90608813750962,1.62243630283114,-0.0338101883823208,0.0117571761204074,0.0311717678762574,-0.0897430613490799,-0.351599794597066,2.30647101505594,-0.19690150656451,-0.121265529160089,-0.0931727379074626,6.02518802598635,-0.00127295290798527,0.000191620033034881,0.00298644528309491,-0.0897430613490799,-0.351599794597066,2.30647101505594,-0.19690150656451,-0.121265529160089,-0.0931727379074626,-0.128829677444814,-0.411563001403454,2.23265675854137,-0.102666098783411,0.0145330078714802,0.126013728183583
0.7,0.64516801229296,1.85424552278557,1.8724061168296,-0.0903966172356199,-0.0199607899210297,-0.00598961552629874,-0.0435279598436055,-0.308442748582781,2.30251516982601,-0.0878943215929689,0.0271164288288123,0.0893138647039595,5.80388813122295,-0.00246439658185974,-0.0026758654103009,-0.00389456687725109,-0.0435279598436055,-0.308442748582781,2.30251516982601,-0.0878943215929689,0.0271164288288123,0.0893138647039595,0.224458558313591,-1.04923845219756,1.7480788535566,-0.198784611184997,-0.205498353281978,-0.164346534093029
0.8,0.626018145010325,1.82064728133778,1.96716086708615,-0.079616315819168,0.0108762506455216,0.0415867995367236,-0.0723117533916915,-0.439805934907894,2.1527774000858,-0.168731165351333,-0.124226375149787,-0.088127920631142,5.83675248254519,-0.000776479335985272,-0.00109880179480914,0.00226940002282323,-0.0723117533916915,-0.439805934907894,2.1527774000858,-0.168731165351333,-0.124226375149787,-0.088127920631142,-0.087850978452541,-0.932878855050382,1.82583849223486,-0.0625959830109728,-0.0848061541944542,0.0957401154894754
0.9,0.625322075301086,1.75869552372189,2.05818492273171,-0.112385213315275,-0.0450781318284464,-0.0230294068480273,-0.0561057094902994,-0.509101262104716,2.2791710604878,-0.0963121792973879,-0.0513410441264489,0.0561046429033125,5.60881566469782,-0.00155503836675573,-0.00106174342434269,-0.00151707828649122,-0.0561057094902994,-0.509101262104716,2.2791710604878,-0.0963121792973879,-0.0513410441264489,0.0561046429033125,0.473207014574991,-1.26927699035536,1.32554056547548,-0.125490003863371,-0.0812318826241429,-0.0640619300995144
1,0.577476464211667,1.65344884618271,2.20081939981008,-0.132686048678769,-0.062575804034668,-0.00478218332096376,-0.105148738992428,-0.670485960463266,2.09106292763483,-0.167063757277715,-0.0967522129522702,-0.0635241064945297,5.60209378350001,0.00172264829044127,-0.00025571433599606,0.0032579778601784,-0.105148738992428,-0.670485960463266,2.09106292763483,-0.167063757277715,-0.0967522129522702,-0.0635241064945297,0.687398455508414,-1.48558526198273,1.27396764833162,0.138936633899516,-0.0197313896839239,0.137398000243915
1.1,0.570054255687315,1.57176316702402,2.27001932816055,-0.156860491078785,-0.0740677570385241,-0.0436001844747848,-0.0281811850059791,-0.774090535220323,2.16698512314493,-0.0193845269698667,-0.0489586434749806,0.055749098143502,5.43869615782338,-0.000810307791909639,-0.00148957321164127,-0.000562773259825545,-0.0281811850059791,-0.774090535220323,2.16698512314493,-0.0193845269698667,-0.0489586434749806,0.055749098143502,0.720225712503907,-1.73228294431507,0.904389124554632,-0.0655166762631046,-0.113945213973089,-0.0238569216540381
1.2,0.634493099693536,1.52769133988326,2.47147227831874,-0.0615530898608747,-0.0194629206595676,0.0455234829161661,0.0858604592913834,-0.832346249694915,2.08868852435589,-0.0908099695892921,-0.076297927761021,0.00490806147262686,5.38313618177244,-0.00350593360751228,-0.00337477851387723,-0.00228918277571707,0.0858604592913834,-0.832346249694915,2.08868852435589,-0.0908099695892921,-0.076297927761021,0.00490806147262686,0.239055236081399,-0.652075631648792,0.933848033676869,-0.282741556154267,-0.259581708728427,-0.0967190101018452
1.3,0.638054155878704,1.41439485269981,2.53570290081055,-0.131930412642498,-0.0708332507040352,-0.0105346712539767,0.0836950326252156,-1.02835506401738,2.00562528143924,-0.244346297450787,-0.19081930403174,-0.0662360726773241,5.28266578162267,0.00426762812154928,0.00124476625862617,0.00364632194614109,0.0836950326252156,-1.02835506401738,2.00562528143924,-0.244346297450787,-0.19081930403174,-0.0662360726773241,0.726570559911193,-1.39758007575803,0.637253045400161,0.344177438630443,0.0957096820953865,0.153688340121459
1.4,0.668077511344923,1.30698840285334,2.62640522739782,-0.184005907880557,-0.10762866487746,-0.0231704304690875,0.141444779696992,-1.04444571463288,1.97271554211362,0.101440859453661,0.0164459242891447,0.0855320963492082,5.18272859981154,-0.00211437141649355,-0.00279685388357443,-0.00294995225469885,0.141444779696992,-1.04444571463288,1.97271554211362,0.101440859453661,0.0164459242891447,0.0855320963492082,1.05043679513401,-1.92141323450523,0.321508114733687,-0.170870882823414,-0.214249591769463,-0.124743451391903
1.5,0.674669758570806,1.21596277202777,2.72803151415763,-0.0574649068966224,-0.0389104995629687,0.0296040911579477,0.173786613743419,-1.19203107310496,1.90163126241428,-0.174909066386449,-0.169038352140561,-0.0742080122933766,5.16885967332191,-0.000291166981359322,-0.00171653649986121,0.00212722437565656,0.173786613743419,-1.19203107310496,1.90163126241428,-0.174909066386449,-0.169038352140561,-0.0742080122933766,0.418878858267186,-0.581585299589977,0.502843464892292,-0.0233551840115512,-0.132344483152839,0.0895067209950098
1.6,0.699518389168339,1.09562809042003,2.83040715724826,-0.175164285542313,-0.120178912302097,-0.0372912263601767,0.287190769412383,-1.38318731126796,1.86216611471083,-0.103525153756983,-0.126667956273566,0.0405702439497591,4.98904459650667,0.00411424446161597,0.000746409494118633,-0.000174378382945614,0.287190769412383,-1.38318731126796,1.86216611471083,-0.103525153756983,-0.126667956273566,0.0405702439497591,1.11231705693219,-1.7815894025858,-0.0554649567915781,0.331433455485594,0.0581809728908774,-0.00770892115799669
1.7,0.732938534921585,0.908727761867577,2.87513824843521,-0.17627499600656,-0.130871581223133,-0.013625192090252,0.258002596142367,-1.42347069518121,1.69192917629023,0.0766761777243639,-0.054379327031779,-0.0274263603876386,5.03611035516752,0.000285510938417756,-0.00128467488780103,0.00191458724315345,0.258002596142367,-1.42347069518121,1.69192917629023,0.0766761777243639,-0.054379327031779,-0.0274263603876386,1.26985394241396,-1.78376709974698,0.0213415125555514,0.0229367930542243,-0.098649294485943,0.0803536831965239
1.8,0.735420785755196,0.813185467505273,2.93716075804786,-0.0978412778599076,-0.105635340644417,-0.0387456509373554,0.369317330639446,-1.60365325329143,1.72753238733761,-0.0771897546443921,-0.13540582175645,0.0221432617708483,4.88984401717433,0.00158898409187627,-0.000615610403699816,0.000749632186175866,0.369317330639446,-1.60365325329143,1.72753238733761,-0.0771897546443921,-0.13540582175645,0.0221432617708483,0.988452876392228,-0.994366211762407,-0.13133817114992,0.127815580592232,-0.0467761435184374,0.0311937698254188
1.9,0.841723443031975,0.695923998746672,3.09890070985142,-0.121049002995979,-0.102696049984129,0.0243395237670254,0.550150120642832,-1.70979699217795,1.57421631984317,0.0194196850585077,-0.0767308725233863,0.0346033118429445,4.79930415964957,0.000908293270057286,-0.00135543035605197,-0.00281112620117662,0.550150120642832,-1.70979699217795,1.57421631984317,0.0194196850585077,-0.0767308725233863,0.0346033118429445,1.00472595018611,-1.13495054012619,-0.331830624861752,0.0730918946242855,-0.104008696522934,-0.119130760896882
2,0.916295518630255,0.520077685676286,3.09438625982629,-0.101038659048002,-0.103241586471121,0.0127510889060591,0.604251348060266,-1.81970872741021,1.44047272304769,-0.0207017304079948,-0.126292283775496,-0.0626251160304968,4.82280656768885,0.00215571129655561,-0.000162467386099215,0.00234048889415989,0.604251348060266,-1.81970872741021,1.44047272304769,-0.0207017304079948,-0.126292283775496,-0.0626251160304968,1.00131559904909,-0.960232989282993,-0.26467798160982,0.174039112879431,-0.0127846585502106,0.0982076601525106
2.1,0.95684117962037,0.350068657686472,3.11685611975056,-0.131648511282059,-0.147291273754704,-0.0457364851040081,0.684856506567122,-1.97107934064589,1.43040622290418,0.021776941399938,-0.0910146737522043,0.0389704216182634,4.73743144881999,0.00394961431156833,0.00055268934874472,0.00030959896152076,0.684856506567122,-1.97107934064589,1.43040622290418,0.021776941399938,-0.0910146737522043,0.0389704216182634,1.32018507854727,-1.30547642549891,-0.518828405958569,0.318009530078023,0.0432119433379461,0.012451766374381
2.2,1.02874180555422,0.167610664979579,3.19474049000624,-0.113984137505632,-0.13465229267098,-0.00287114360024223,0.751508005275209,-2.02954692501835,1.31837713745668,0.115137259792413,-0.0629651802490921,-0.00265153954209309,4.69069945470799,0.00171452500344113,-0.000582850779366488,0.000250801725661214,0.751508005275209,-2.02954692501835,1.31837713745668,0.115137259792413,-0.0629651802490921,-0.00265153954209309,1.24817177371481,-1.0706047295548,-0.573847216836009,0.138203852271125,-0.0447530150732629,0.00993689558664442
2.3,1.127659319665,0.0551845039955672,3.26895245809546,-0.0384879327559773,-0.098197804040709,0.0131589276907526,0.92762321484351,-2.11532166355853,1.25371984520384,0.0566825505876298,-0.0824968912749263,0.0224222080636901,4.57678734452646,0.000724262667701949,-0.000912935530497286,-0.00169142290687473,0.92762321484351,-2.11532166355853,1.25371984520384,0.0566825505876298,-0.0824968912749263,0.0224222080636901,0.901309441949813,-0.340384740931396,-0.707269140194056,0.058307163592183,-0.0701107234938129,-0.0719988071119995
2.4,1.22803956746256,-0.136088989191494,3.29510794970211,-0.0759019569171603,-0.128045665181516,0.00755982777577728,1.04176565540213,-2.30039078665304,1.11419985035178,0.00587442914037747,-0.113326675291671,-0.0367124603971849,4.59763122796308,0.00563359395381706,0.00169027321355522,0.00137572905359462,1.04176565540213,-2.30039078665304,1.11419985035178,0.00587442914037747,-0.113326675291671,-0.0367124603971849,1.17605571996358,-0.68839743532427,-0.716273945848972,0.45451863236019,0.129816255421093,0.0574043387116756
2.5,1.35100807668633,-0.353308547653437,3.29946436037369,-0.0841720984244713,-0.138092347363423,-0.0106833018706979,1.12720674430133,-2.28912858933585,1.07952905761159,0.232952157138597,0.00273364361989009,0.0398166109675066,4.54580473382191,0.00133490670598314,-0.000465326133469423,-0.00140157406670555,1.12720674430133,-2.28912858933585,1.07952905761159,0.232952157138597,0.00273364361989009,0.0398166109675066,1.23882763165408,-0.777635424334594,-0.836820409797824,0.107332058080716,-0.0354828829323135,-0.0598254580269486
2.6,1.44503808558957,-0.495167759987412,3.35560254407612,0.0172658427864031,-0.0915038806708383,0.0224688885028113,1.22774794566554,-2.34859369319661,0.9699591370658,0.0655445408127644,-0.0823374428688294,-0.0234951853200434,4.47313107104754,0.00206622904413285,8.56431244500956e-05,3.50287876745016e-05,1.22774794566554,-2.34859369319661,0.9699591370658,0.0655445408127644,-0.0823374428688294,-0.0234951853200434,0.813677461318559,0.172781583737792,-0.902492950979664,0.166886728583364,0.00637603959933027,0.00089077687766454
2.7,1.56424339172031,-0.660174177720146,3.37843012316266,-0.0380832237625635,-0.125530468714098,0.00307829592309806,1.40046064499411,-2.49207157119048,0.945935206359277,0.107788227725184,-0.0571205923183603,0.0125045898980039,4.43171701824196,0.00540418259787146,0.00204695151566967,-0.000768773091568585,1.40046064499411,-2.49207157119048,0.945935206359277,0.107788227725184,-0.0571205923183603,0.0125045898980039,1.10994014811616,-0.334051418706571,-1.02268497000581,0.435732160531369,0.157524881464799,-0.0330245173103062
2.8,1.71653868510501,-0.907747932031648,3.39966773326448,-0.0222839551165581,-0.123751799971902,0.00866609082562185,1.43547899516082,-2.44223669444205,0.778911516292672,0.259541713952545,0.0206526634673263,-0.0116999740151423,4.47259867058835,0.00192257638203902,0.000329339157315275,9.788448716169e-05,1.43547899516082,-2.44223669444205,0.778911516292672,0.259541713952545,0.0206526634673263,-0.0116999740151423,1.10557264433334,-0.189744130997368,-0.935414839810914,0.155150690009584,0.0252639558297518,0.00357386768137633
2.9,1.7773569220976,-1.074461548879,3.35532122739639,0.0214757268450347,-0.125514206597153,-0.0345162214215801,1.50809806857849,-2.54554440115038,0.756075170846763,0.0991348003419627,-0.0741744209526159,-0.0207349241474113,4.4545007739416,0.00593649312614547,0.00278035823153754,0.00256853213216525,1.50809806857849,-2.54554440115038,0.756075170846763,0.0991348003419627,-0.0741744209526159,-0.0207349241474113,1.12095333866158,0.15272014963347,-0.973119965246529,0.478671060479738,0.213915431498305,0.107944989850101
3,1.9367586136988,-1.246343445475,3.42062943112566,-0.00369489390715373,-0.135823344112638,-0.00744742166566092,1.67291185753426,-2.53500605352389,0.753413501440274,0.311095573291768,0.05973536771379,0.0638993314754745,4.36544384568281,0.00288788412825276,0.00140315265094914,-0.0026817275794329,1.67291185753426,-2.53500605352389,0.753413501440274,0.311095573291768,0.05973536771379,0.0638993314754745,1.18193450595529,-0.0410630523672665,-1.15958125125714,0.232477492965031,0.108125436626162,-0.113555826698591
3.1,2.11692202044878,-1.40669677898493,3.47440355466583,0.112188982184782,-0.0632679200982142,0.0446157901164846,1.78608888927956,-2.48099640339098,0.582206865297465,0.212488451131318,0.0296027334005525,-0.0407918757202315,4.29814406374346,0.000984618054694246,-7.22752346486713e-05,-0.000217855229814922,1.78608888927956,-2.48099640339098,0.582206865297465,0.212488451131318,0.0296027334005525,-0.0407918757202315,0.496628839249543,0.985517866645531,-1.28484405413481,0.0800003109379772,-0.00573824563092999,-0.00943945526885337
3.2,2.2607766296042,-1.55531552454313,3.43562783366505,0.0800703683928327,-0.0833359233496841,-0.00396212752922357,1.95524667562023,-2.5561611893762,0.650284946001882,0.133288002975358,-0.0406129869337837,0.00451978051563381,4.26704284908124,0.00631760165088084,0.0041565238451633,7.96277391941902e-05,1.95524667562023,-2.5561611893762,0.650284946001882,0.133288002975358,-0.0406129869337837,0.00451978051563381,0.710795997890735,0.679786533179831,-1.332778873813,0.50944275619247,0.319740222646093,0.00321245450322301
3.3,2.40616114532853,-1.8524767674187,3.43783838854555,-0.00378034088830939,-0.170232898514809,-0.0496855896841321,1.89455777371574,-2.53734969145207,0.426905516429966,0.324677656405673,0.0894828370448012,-0.0380845781673648,4.57005951995299,0.00715149894827376,0.00421900165903071,0.00466667482826093,1.89455777371574,-2.53734969145207,0.426905516429966,0.324677656405673,0.0894828370448012,-0.0380845781673648,1.54480679018025,-0.111413235781632,-0.802062659212302,0.576762669964375,0.324535500882215,0.196816877196936
3.4,2.54632272055764,-1.96140653782242,3.41401470235602,0.133654144855864,-0.0746867418460676,-0.0301171235151287,2.02051279838523,-2.36920131522255,0.564536548426673,0.42164850421678,0.137134503644315,0.101615004992171,4.19508532388219,-0.00115186392209146,9.16379516908719e-05,-0.00320285774832094,2.02051279838523,-2.36920131522255,0.564536548426673,0.42164850421678,0.137134503644315,0.101615004992171,0.653854547543691,1.09885451907595,-1.51783764780443,-0.0934342458742881,0.00700771782521532,-0.135084097269995
3.5,2.69475649458006,-2.03309450953658,3.5054804560247,0.195076211726915,-0.0505830073545685,0.0320963423061192,2.18594708150884,-2.43250263647254,0.349708134432157,0.079496043672097,-0.00723300270978033,-0.0721055710696502,4.22917838683541,0.00588994558073902,0.00425588024514923,0.00217540817294736,2.18594708150884,-2.43250263647254,0.349708134432157,0.079496043672097,-0.00723300270978033,-0.0721055710696502,0.366723557654674,1.65219830535532,-1.52268717238541,0.475895663838926,0.327689559135529,0.0920127304101305
3.6,2.93705412082178,-2.25069879648405,3.45410268279553,0.0793598938678032,-0.0985743652469759,-0.0251961062572892,2.29554613048043,-2.28684679925302,0.461633023008496,0.39693441438351,0.168133847756685,0.0563764232876988,4.27674596498938,0.00407504681691697,0.00385091061787867,-0.000418891274826477,2.29554613048043,-2.28684679925302,0.461633023008496,0.39693441438351,0.168133847756685,0.0563764232876988,0.855957941939603,0.656735844663418,-1.32482126127113,0.328539606595226,0.296186853194725,-0.0174181093445267
3.7,3.12106313716636,-2.39002754337618,3.52211780166193,0.208762429358394,-0.027440039092355,0.00604091292376806,2.28296160935995,-2.13978822372143,0.160454661649449,0.328361651797638,0.158913735497461,-0.0127669203004213,4.22553944163273,0.000252716532948757,0.00126225316539771,0.00081655753345423,2.28296160935995,-2.13978822372143,0.160454661649449,0.328361651797638,0.158913735497461,-0.0127669203004213,0.21624991631182,1.75281899577444,-1.54552204716336,0.0209949223963444,0.0975405239843756,0.0348277943267371
3.8,3.25812913562345,-2.43610540565314,3.40835924473573,0.214317626432026,-0.0159410070474114,-0.00848125131234407,2.41185699316542,-2.04113583260286,0.323530326546565,0.184540981770791,0.0671409574453852,0.023149325110682,4.10823776908092,0.00430304379883309,0.00467515309002487,1.49089387728985e-05,2.41185699316542,-2.04113583260286,0.323530326546565,0.184540981770791,0.0671409574453852,0.023149325110682,0.142792992795261,1.74633765825869,-1.78252311035603,0.347425593646563,0.360062296659883,0.00106760959385333
3.9,3.52199808044858,-2.54595617372237,3.54654331666274,0.19682890598258,-0.0164586822461881,0.0393712614276224,2.47861578499391,-1.83309031606341,0.138233151014698,0.389271416050708,0.246393636414076,0.0319611189463392,4.09038036671772,-0.000312634292428199,0.00173109249200206,-0.0025546286044233,2.47861578499391,-1.83309031606341,0.138233151014698,0.389271416050708,0.246393636414076,0.0319611189463392,0.0689653097012534,1.6037906860627,-1.78828288961301,-0.0245864222796384,0.133965571932832,-0.107318303138478
4,3.69559507197275,-2.61594981246283,3.47380487247543,0.288157515851429,0.0542602064218279,0.0247310930995826,2.46980068033239,-1.67584649341877,-0.0209192729688379,0.189780425997344,0.127896912694159,-0.0402968718356736,4.07345122392553,0.000896436824198389,0.00194980744545479,0.00121701106064605,2.46980068033239,-1.67584649341877,-0.0209192729688379,0.189780425997344,0.127896912694159,-0.0402968718356736,-0.480741415678939,2.30405370586552,-2.01049721414627,0.0730571051163275,0.151529492237618,0.0518212464272089
4.1,3.84729152342852,-2.68223072128511,3.39984000245926,0.210243786592007,0.00442140070384119,-0.0114805563817748,2.44212861304927,-1.45200549511413,0.0890674948511343,0.23475300220638,0.129691604136697,0.033257187587976,3.98604888948046,0.00304519158352795,0.00490946034550931,-0.000258675046316069,2.44212861304927,-1.45200549511413,0.0890674948511343,0.23475300220638,0.129691604136697,0.033257187587976,-0.0153687891355696,1.66404954967857,-2.01352349494666,0.245952114560414,0.37860380592358,-0.0104664395233006
4.2,3.99522774172847,-2.74576037398045,3.46566460251662,0.216799874863006,-0.00814278596969423,-0.00583464027611651,2.37227003070577,-1.32668737886944,-0.359097248855068,0.313762173063433,0.247642473105104,-0.0172577930979025,4.172385566509,0.000562942318084872,0.0021570661697242,0.0017705104152447,2.37227003070577,-1.32668737886944,-0.359097248855068,0.313762173063433,0.247642473105104,-0.0172577930979025,0.0768303322781757,1.79458858078737,-1.66084334497121,0.0459151256795923,0.167667730662079,0.0751254348064495
4.3,4.13030291410519,-2.7617078635133,3.25533313567354,0.285439228437108,0.0691955275043363,-0.0117097303898592,2.40485575866611,-1.08804851131695,-0.270179660470873,0.231819837283106,0.159079228575727,0.0423119205592196,4.03115104535634,-0.000720590508203043,0.00182474459045173,-0.00105922851798484,2.40485575866611,-1.08804851131695,-0.270179660470873,0.231819837283106,0.159079228575727,0.0423119205592196,-0.508256271482217,2.27628190061542,-2.0924271125347,-0.0578451700473966,0.141935698579424,-0.044384233893851
4.4,4.30235147429246,-2.74991761240369,3.28313457851257,0.270664960510099,0.0455561061431893,0.0208838569594116,2.38617963645656,-0.851504833259831,-0.335307235640863,0.17708676464804,0.163530734531036,-0.0158100593351607,3.93642924642856,0.000641222541445259,0.00347783989181628,9.78024450333025e-05,2.38617963645656,-0.851504833259831,-0.335307235640863,0.17708676464804,0.163530734531036,-0.0158100593351607,-0.389361397081483,2.09731043003091,-2.23163688445198,0.0519943629164903,0.27030044555316,0.00434560667103852
4.5,4.46078459513888,-2.75284103856091,3.26615056440312,0.246664388349491,0.0451763112236074,-0.0170347501461552,2.32122080279961,-0.674069658333582,-0.630369768978278,0.225993763614455,0.224405109641974,-0.00228776011597044,4.04502432474732,-6.49473375370598e-05,0.00205400957042921,0.00120983696414497,2.32122080279961,-0.674069658333582,-0.630369768978278,0.225993763614455,0.224405109641974,-0.00228776011597044,-0.320596393224325,1.98110107513057,-1.97282298056513,-0.00512838530675679,0.160521257861427,0.051152796032011
4.6,4.5940544429974,-2.73275605013261,3.11150518092842,0.28272934710387,0.0883765118770126,-0.00841393729619159,2.29134866574087,-0.43726544317143,-0.695259610523441,0.200647472864353,0.181796678830629,0.0269705698433434,4.00366977499072,-0.00171113468548834,0.00154181479878342,-0.000725813232109806,2.29134866574087,-0.43726544317143,-0.695259610523441,0.200647472864353,0.181796678830629,0.0269705698433434,-0.65986119910459,2.23950016611638,-2.150580382785,-0.138066036173029,0.121240962718779,-0.0307002584032479
4.7,4.74967400722222,-2.6614707737157,3.05266739886141,0.299823611875494,0.0944591733505456,0.0195244913119325,2.25143325244596,-0.171027927114019,-0.763308476010472,0.137092714409352,0.18323916884966,-0.00340851608235116,3.91718337148534,-0.00192542018658397,0.00164756387083226,-0.000729519141138761,2.25143325244596,-0.171027927114019,-0.763308476010472,0.137092714409352,0.18323916884966,-0.00340851608235116,-0.751003374430305,2.29966975618254,-2.35850248557656,-0.1555545243729,0.130357567864596,-0.0310225253316574
4.8,4.9207417482702,-2.56274282269498,3.03204238655846,0.304416348881677,0.128699164099465,0.0280346255593048,2.21220781675161,0.0899232883297718,-0.953745530321921,0.139794762461757,0.209884646191975,0.0130651027690143,3.89685339529963,-0.00343595186736438,-0.0001428373285306,-0.00197528729523697,2.21220781675161,0.0899232883297718,-0.953745530321921,0.139794762461757,0.209884646191975,0.0130651027690143,-1.01939313058515,2.30839020354482,-2.43612463820231,-0.277546166894625,-0.00733186887935356,-0.0837649845948839
4.9,4.97189674498379,-2.55113327592189,2.83958778531807,0.237546164283942,0.0761861215875086,-0.041100876549057,1.9715364012803,0.244243766167918,-1.14746524349842,0.00325007631081004,0.0768764554174088,-0.0806522580440237,4.00905548067681,0.00261233754328082,0.00417104442465254,0.00579109524380257,1.9715364012803,0.244243766167918,-1.14746524349842,0.00325007631081004,0.0768764554174088,-0.0806522580440237,-0.515111780905059,1.90958739177436,-2.03965642748481,0.209935044565335,0.325075022770386,0.243713409312447
5,5.05800627705808,-2.45224285848421,2.73731925421364,0.20929963960154,0.0545728010104813,-0.0509628102951591,1.96749849767734,0.47006288795718,-1.29769187783136,0.279190146546962,0.278541134250272,0.116970656248432,4.04912465820978,-0.00440079607530665,0.000288885668183081,-0.00316860987488538,1.96749849767734,0.47006288795718,-1.29769187783136,0.279190146546962,0.278541134250272,0.116970656248432,-0.345810364351525,1.70243889253547,-1.90027440425525,-0.355209310664063,0.0237972238577324,-0.134407441878341
5.1,5.22049689645445,-2.29514323566629,2.59696995695297,0.378387554842894,0.186748636459871,0.0665343874585993,2.00226037314668,0.709750207160649,-1.38848627250821,0.00399647373403195,0.179893876351714,-0.044553762505848,4.0302001776857,-0.005885653676329,-0.00255495497404429,-0.00107419620095738,2.00226037314668,0.709750207160649,-1.38848627250821,0.00399647373403195,0.179893876351714,-0.044553762505848,-1.5855679384568,2.87864609732267,-2.45001189893772,-0.476100744284248,-0.190710827653733,-0.0463746099550926
5.2,5.34794161558062,-2.17249702394785,2.45081233204359,0.259497125816461,0.154206568147402,-0.0111985829917818,1.74725967494527,1.1192941432681,-1.28832689826154,-0.0767254790525342,0.0389083170597803,-0.0104982959190734,3.80665747440813,-0.00124677477249903,0.00250632017050352,0.00096902215241839,1.74725967494527,1.1192941432681,-1.28832689826154,-0.0767254790525342,0.0389083170597803,-0.0104982959190734,-1.10827677278074,1.9660692485941,-2.53890250274992,-0.101792091369385,0.197048059622078,0.0396508039592384
5.3,5.38039092791452,-1.97446116141268,2.53074198928086,0.203609087735391,0.0853346746595191,-0.00451031411345344,1.67143298543174,1.17090212838498,-1.82459139039389,0.088107379803486,0.231710834333363,0.0213229825972614,4.04060508061154,-0.00372676564933293,-0.000202090827647274,-0.000860551214714532,1.67143298543174,1.17090212838498,-1.82459139039389,0.088107379803486,0.231710834333363,0.0213229825972614,-0.667166005724119,1.63708828850009,-1.92452036168267,-0.301719495598881,-0.0117357550541226,-0.0375623941655588
5.4,5.48206919805198,-1.86742929452952,2.15495806171603,0.288397019344121,0.187991901716799,0.0151871635666464,1.62734536543521,1.37982334810721,-1.79824626559237,-0.0166869219583808,0.138645556415467,-0.00876763295000238,4.12601127215774,-0.00579011325747761,-0.00215831971295238,-0.000312263895840382,1.62734536543521,1.37982334810721,-1.79824626559237,-0.0166869219583808,0.138645556415467,-0.00876763295000238,-1.51397358631653,2.3242816543854,-2.03816142454603,-0.468608634809627,-0.16137459328492,-0.0146948862720729
5.5,5.53440846965247,-1.72824477533906,1.98208897865558,0.21997591157824,0.133352510362364,-0.0228765864336348,1.35038703748357,1.67757910462663,-1.75643743875493,-0.143445590426176,0.0324204804729537,-0.0196228520726864,4.001212642942,-0.00151714927725107,0.00198937964885174,0.00198648939353945,1.35038703748357,1.67757910462663,-1.75643743875493,-0.143445590426176,0.0324204804729537,-0.0196228520726864,-0.998129570712859,1.76947293573613,-2.06974720400415,-0.124049866017883,0.157350512467528,0.0821625118368464
5.6,5.54235397750507,-1.51449044039637,1.97773555972962,0.158746222904766,0.0926072279484604,-0.0230088149727586,1.30328986665031,1.77895675797001,-2.08301451852185,0.0208656171641009,0.199849232299599,0.0324615919691582,4.12269779569031,-0.00398432010885219,-0.000864696418062126,-0.00046853454312764,1.30328986665031,1.77895675797001,-2.08301451852185,0.0208656171641009,0.199849232299599,0.0324615919691582,-0.722717757132449,1.32041167658544,-1.70316704833378,-0.322771477617026,-0.0630149649879438,-0.0213987232745385
5.7,5.63652620147534,-1.33502217177228,1.693257199923,0.25160706634738,0.195357046117649,0.0191230344152231,1.28277029457838,1.94135270844612,-2.06675244074384,-0.0753302066540569,0.108733112097439,0.000461522183345414,4.21217746504011,-0.00671000084696438,-0.00278509864693019,-0.000903535928452886,1.28277029457838,1.94135270844612,-2.06675244074384,-0.0753302066540569,0.108733112097439,0.000461522183345414,-1.62363416452015,2.06666463359118,-1.80609686590142,-0.543277466743662,-0.20960762449669,-0.0399612682789517
5.8,5.73409556748968,-1.11603012497684,1.5558106313217,0.232223941080633,0.189201460593816,0.0271971559990304,1.05746520723122,2.28858495172049,-2.01598559712108,-0.191907831516316,0.0423552574906519,0.0084670916247102,4.13499583109061,-0.00561376276443007,-0.0015166580460502,-0.00168118740098254,1.05746520723122,2.28858495172049,-2.01598559712108,-0.191907831516316,0.0423552574906519,0.0084670916247102,-1.56482245178782,1.86141010136313,-1.90561860602166,-0.455005776972333,-0.112108282344016,-0.0728448500322493
5.9,5.72273222814801,-0.862526304725473,1.53219765751629,0.158703837559278,0.150771070409031,0.017920826782837,0.884677434292957,2.42656166667773,-2.23468499817926,-0.183001270852116,0.0737854455109861,-0.0235588976516458,4.16066177192944,-0.00422330204641835,-0.00140956468797488,0.000261332721038459,0.884677434292957,2.42656166667773,-2.23468499817926,-0.183001270852116,0.0737854455109861,-0.0235588976516458,-1.25752787590109,1.29276206038047,-1.68646533717294,-0.343067022657199,-0.103826239889625,0.0091733928986026
6,5.69672638577995,-0.678470526098336,1.27767927506603,0.126216295755223,0.145361599253518,-0.0191928511324206,0.740418250285505,2.47094794319185,-2.33019923474827,-0.162503382514041,0.0538738465265691,-0.001986346739585,4.26886490840904,-0.00397464941117347,-0.00129201909087098,0.00099549855328922,0.740418250285505,2.47094794319185,-2.33019923474827,-0.162503382514041,0.0538738465265691,-0.001986346739585,-1.20600250813569,1.09808922915445,-1.42951144501887,-0.32268603663979,-0.0957283135234361,0.0401779751496354
6.1,5.72611570402856,-0.463673941658683,1.07790854233259,0.151447658222346,0.166073962377642,0.0165478134962892,0.655442395680832,2.61782823289291,-2.27576380390255,-0.147759168663512,0.0743287763780101,0.0375193963241971,4.29199655585505,-0.00668283371205915,-0.00320487884190186,-0.00256193127688345,0.655442395680832,2.61782823289291,-2.27576380390255,-0.147759168663512,0.0743287763780101,0.0375193963241971,-1.42402846701074,1.27167232629267,-1.44101379129044,-0.541107695448185,-0.243099121461399,-0.109884922047664
6.2,5.71528011704895,-0.258036584709878,0.926490521550249,0.128584351797489,0.15581415716742,0.0109963392615388,0.440344638146894,2.74209914621743,-2.36760211047554,-0.303017185979895,-0.0290514475352594,-0.0609664132000086,4.35811653924409,-0.00320311500211748,-0.000971869553988407,0.00234649439825332,0.440344638146894,2.74209914621743,-2.36760211047554,-0.303017185979895,-0.0290514475352594,-0.0609664132000086,-1.35366618689136,1.10286687870828,-1.27044546941431,-0.261271834213647,-0.0704442747408626,0.0972411214933137
6.3,5.66270283390451,-0.0440300495714991,0.759949355930852,0.0370633563975474,0.106258294684795,-0.0381794682777467,0.286806695996299,2.82747858775199,-2.37878745525936,-0.181955250960376,0.0503766553113874,0.0399093587334814,4.3225286580532,-0.00345011911121028,-0.0014598518540552,-0.00011106202319983,0.286806695996299,2.82747858775199,-2.37878745525936,-0.181955250960376,0.0503766553113874,0.0399093587334814,-0.903356484196412,0.355081543331339,-1.21960535488557,-0.280013052937934,-0.109917277449915,-0.00626371346732226
6.4,5.63461512493511,0.182280017065068,0.604649231725387,0.0810238332095798,0.14386186735292,0.0105543854065152,0.262525947287769,2.76463605375223,-2.40181971869402,-0.202947098083388,0.0250935665038769,-0.00778873038442681,4.37487347133221,-0.00491564337980413,-0.00257937307637621,-0.000139993260998054,0.262525947287769,2.76463605375223,-2.40181971869402,-0.202947098083388,0.0250935665038769,-0.00778873038442681,-1.25770666757362,0.694927242388804,-1.17904862562694,-0.399005017172272,-0.195249723699334,-0.00741905321532089
6.5,5.63458427057203,0.355851326011805,0.39295201887706,0.0569704752438704,0.134197479881134,-0.0135383426561794,0.0719462265201916,2.88613624519964,-2.45555168696779,-0.283307124785293,-0.0287070032572532,-0.0114142155957469,4.47812724196675,-0.00316142524435509,-0.00144302511653065,0.00117074263457825,0.0719462265201916,2.88613624519964,-2.45555168696779,-0.283307124785293,-0.0287070032572532,-0.0114142155957469,-1.1893448899251,0.526115590268045,-0.948670782582049,-0.257414423693554,-0.10824528697453,0.0479842855596809
6.6,5.5870092821352,0.591459540452684,0.265131975372693,0.0150383284226925,0.117849801317921,-0.00753494867204685,-0.0360361168455581,2.93236246643176,-2.38190681821916,-0.219406614770353,0.0164264001242009,0.025001871988248,4.40497706505384,-0.00404779972846454,-0.00235043429462176,-0.000839266663313046,-0.0360361168455581,2.93236246643176,-2.38190681821916,-0.219406614770353,0.0164264001242009,0.025001871988248,-1.03470494214895,0.140282347102961,-1.0621432155993,-0.328646802781943,-0.178578514314232,-0.0366494340008175
6.7,5.56249790453806,0.821829874384107,0.154486115153877,0.0428601669439729,0.151292692624176,0.0226470010203659,-0.0916658132620156,2.90153539541051,-2.44753320120793,-0.25997993151584,-0.0174984795820283,-0.00699577020044748,4.48598578102214,-0.00468023646174392,-0.00315240351752384,-0.000712675735701024,-0.0916658132620156,2.90153539541051,-2.44753320120793,-0.25997993151584,-0.0174984795820283,-0.00699577020044748,-1.35933833594149,0.353730879607219,-0.948659951035424,-0.380147049943295,-0.240056957242651,-0.0311934249041786
6.8,5.50069296800978,0.977733451255871,-0.0685115996919046,-0.0204004613972069,0.106679603547058,-0.021827684580947,-0.345797186957986,2.92973642611438,-2.48009179155763,-0.329655122088965,-0.0833462052367016,-0.0316421015774497,4.53152712359855,-0.00104344560529691,-0.0006226172151469,0.00255688653216703,-0.345797186957986,2.92973642611438,-2.48009179155763,-0.329655122088965,-0.0833462052367016,-0.0316421015774497,-0.96861470954529,-0.163775740232726,-0.800343217469326,-0.0867027051099099,-0.0458814437838916,0.106917152324658
6.9,5.42346024508457,1.20863746981127,-0.177141409954669,-0.0416933967731494,0.101099074735057,-0.00538923911641869,-0.335507099740164,2.8592926793386,-2.37986262097263,-0.165215028232899,0.0349127071264803,0.064975404809772,4.43174601614193,-0.00467268248187298,-0.00325495389761193,-0.00280571444158839,-0.335507099740164,2.8592926793386,-2.37986262097263,-0.165215028232899,0.0349127071264803,0.064975404809772,-0.895765735197014,-0.364619855057067,-0.999429807594488,-0.378705799670775,-0.249137445144269,-0.119138833352652
7,5.4166997076173,1.39974470600977,-0.301589459795924,0.031275783204322,0.16480060779031,0.0519367866517994,-0.38567757066621,2.80469218332429,-2.48764215318925,-0.319818984069613,-0.0714634415508533,-0.0416373974742803,4.60658086187665,-0.00405701328605226,-0.0034922556809813,-0.000368508813611219,-0.38567757066621,2.80469218332429,-2.48764215318925,-0.319818984069613,-0.0714634415508533,-0.0416373974742803,-1.5236512657119,0.209286098867345,-0.726111234864863,-0.330298565523915,-0.266840786177977,-0.0162250576665363
7.1,5.35128229039055,1.55072448857691,-0.51859101971176,-0.07089818716787,0.101430919920961,-0.0149475264011983,-0.700301830288797,2.91609658962325,-2.47040538760963,-0.32543269914633,-0.102664000234723,-0.00667110955564021,4.62390842774357,-0.00115667302674291,-0.00120032603751343,0.00112711422345945,-0.700301830288797,2.91609658962325,-2.47040538760963,-0.32543269914633,-0.102664000234723,-0.00667110955564021,-0.94374199463996,-0.641069841117812,-0.632827390803074,-0.0955456147714538,-0.0913343837522806,0.0470730820341347
7.2,5.21174653804685,1.78495821525597,-0.601404629008802,-0.0817690427672144,0.0915530884678912,0.0116060227450361,-0.672437487570763,2.68416805122236,-2.34607229509686,-0.204436733625662,-0.014113996302973,0.0359055692179283,4.45792354330081,-0.00342216352730483,-0.00290553386167468,-0.00217670557051424,-0.672437487570763,2.68416805122236,-2.34607229509686,-0.204436733625662,-0.014113996302973,0.0359055692179283,-0.803903582608821,-0.737607729009994,-0.961158090482355,-0.278020767213201,-0.222893499219332,-0.0921409592540583
7.3,5.1570551817939,1.87930553558874,-0.753624630544919,-0.0591494509808357,0.112809684158243,0.0183151518476044,-0.741396631324571,2.56396477094435,-2.55933985690471,-0.321893862620588,-0.105358441877748,-0.0502084425417313,4.648417247076,-0.000965833916346005,-0.00153831480885263,0.0016052814319701,-0.741396631324571,2.56396477094435,-2.55933985690471,-0.321893862620588,-0.105358441877748,-0.0502084425417313,-1.03447936584418,-0.568623014338046,-0.588413806678265,-0.080527023137481,-0.11781382352235,0.0675408620770846
7.4,5.12612815447393,2.0550416887621,-0.958349693721595,-0.0874629435347254,0.108567546344746,0.0173672019709067,-0.836959244778305,2.61080453172116,-2.40244075582639,-0.193809270191772,-0.0208177414634725,0.0655848935635405,4.62934232630101,-0.00411320633250773,-0.00376145858661684,-0.00380287063583384,-0.836959244778305,2.61080453172116,-2.40244075582639,-0.193809270191772,-0.0208177414634725,0.0655848935635405,-0.985188500501486,-0.825993427138649,-0.641009871685341,-0.333396772596457,-0.289285508497467,-0.16048859746356
7.5,5.01495244429701,2.21610201060828,-1.04710080421873,-0.0663590684973499,0.120394912244413,0.0488923140810249,-0.964010108636091,2.43064766607538,-2.44391168323961,-0.35535583800902,-0.145014235344779,-0.0737243107575953,4.6515186265076,-0.000779080793995691,-0.0017065010014032,0.00135386747638723,-0.964010108636091,2.43064766607538,-2.44391168323961,-0.35535583800902,-0.145014235344779,-0.0737243107575953,-1.08339396876101,-0.670637849982397,-0.594632155273896,-0.0655430551575944,-0.13146243446676,0.0571863225345398
7.6,4.84834583041511,2.26030142589059,-1.26460744569227,-0.205960702416481,0.00875357845707087,-0.0636059345582992,-1.18259413501242,2.31404511903913,-2.53784301740787,-0.269970803426049,-0.102099032640707,-0.00578132158271642,4.68150886545985,0.00337419650503475,0.000755597543590658,0.00332305048186964,-1.18259413501242,2.31404511903913,-2.53784301740787,-0.269970803426049,-0.102099032640707,-0.00578132158271642,-0.201775522444269,-1.90583724138714,-0.645221111374219,0.27069530247323,0.0577156257731517,0.140422674815204
7.7,4.7344069536034,2.41176629976064,-1.41052905795501,-0.152559917173241,0.054810634392946,0.000271132465718254,-0.939716779199562,1.84112401724484,-2.32304112954196,-0.056625021099399,0.0150520670529486,0.0722361012864742,4.46377813313426,-0.00249631466821929,-0.00225334856253191,-0.00341579112259582,-0.939716779199562,1.84112401724484,-2.32304112954196,-0.056625021099399,0.0150520670529486,0.0722361012864742,-0.483031664584427,-1.35684113640079,-0.999385751891667,-0.202568181713945,-0.173930039469303,-0.14381974060594
7.8,4.71070680725074,2.34539361207609,-1.54351392986465,-0.105456548674395,0.0708159287578967,0.00443738772892426,-1.10982792664895,1.81163052031028,-2.70883910689247,-0.333344519525724,-0.141277854905098,-0.106106429477203,4.808281628064,0.00291958391003951,0.000489028469667233,0.00484894288118277,-1.10982792664895,1.81163052031028,-2.70883910689247,-0.333344519525724,-0.141277854905098,-0.106106429477203,-0.672158316586456,-1.01524352528223,-0.270829562224634,0.233178459354254,0.0364672375993484,0.204929266725521
7.9,4.63947794741049,2.51141945842194,-1.78882774001908,-0.18218018404358,0.0473092814728542,-0.0245566504475317,-1.14182636761006,1.88493262022272,-2.39134382658319,-0.0601731584645915,0.0228919361961454,0.123047192252333,4.69284494623178,-0.00233054200284274,-0.00241815176744238,-0.00464204137422394,-1.14182636761006,1.88493262022272,-2.39134382658319,-0.0601731584645915,0.0228919361961454,0.123047192252333,-0.478140530176352,-1.68921292761194,-0.589961167322333,-0.188669540486541,-0.186577080132961,-0.1954387712271
8,4.54005981139743,2.64144113742411,-1.81260797684152,-0.0872816881239204,0.107662312108568,0.0672621825214555,-1.16227566831357,1.51101550181333,-2.47847951744419,-0.291226951215898,-0.121652192862025,-0.0966623977008551,4.70726396137314,0.000734929257700219,-0.00118823684760302,0.00145259604452629,-1.16227566831357,1.51101550181333,-2.47847951744419,-0.291226951215898,-0.121652192862025,-0.0966623977008551,-0.950344464729688,-0.886551736762327,-0.485612222533273,0.0569440194176559,-0.0932878845148022,0.0617483882832319
8.1,4.45934588291062,2.62019623211363,-1.99044207498732,-0.194585660675501,0.0442813591455718,-0.0265945606978082,-1.36142569626626,1.6543283483051,-2.59877026628787,-0.160345085859876,-0.063049065273373,0.0386271835292484,4.86785667098461,0.000866200789451832,-0.000613578668777504,-0.000547453397980788,-1.36142569626626,1.6543283483051,-2.59877026628787,-0.160345085859876,-0.063049065273373,0.0386271835292484,-0.472745206994756,-1.87058833855105,-0.267383717557443,0.0688672901909624,-0.0482805479223511,-0.0225775443751961
8.2,4.30460042301194,2.78079278826877,-2.17197707643675,-0.146770194446899,0.0708955425019081,0.0370755946453955,-1.29182931954825,1.19105075774575,-2.35173597256832,-0.145630089429068,-0.0509921460046985,-0.000807543625504264,4.68652517040383,-0.000133270976364351,-0.00144478435623186,-0.00169409917076163,-1.29182931954825,1.19105075774575,-2.35173597256832,-0.145630089429068,-0.0509921460046985,-0.000807543625504264,-0.60555142474002,-1.39415481798478,-0.561015595926232,-0.0121278095675446,-0.112891903295038,-0.0709298061044225
8.3,4.26193258028922,2.71706956896402,-2.20944541275918,-0.133482977479426,0.0894902255819869,0.0378081971655652,-1.35008514122867,1.22929233089153,-2.59730186698063,-0.172625307304882,-0.0729288519272097,-0.0146305005742798,4.88742182880049,-0.000295176124938767,-0.00151980246932573,-0.00106428238726101,-1.35008514122867,1.22929233089153,-2.59730186698063,-0.172625307304882,-0.0729288519272097,-0.0146305005742798,-0.816022888149758,-1.33270141528904,-0.160876614207666,-0.0251222958315762,-0.118804023095805,-0.0443301143348267
8.4,4.1068619145277,2.76871356626573,-2.50107419655717,-0.193776918668177,0.0359441602942621,-0.00793713470162882,-1.55871342994785,1.04045557695868,-2.47964661713627,-0.213656040561041,-0.11273162654546,-0.036412344779639,4.90630701424715,0.00358462893317912,0.000661847164821482,0.0021126131992238,-1.55871342994785,1.04045557695868,-2.47964661713627,-0.213656040561041,-0.11273162654546,-0.036412344779639,-0.361017174289607,-1.88677465319193,-0.187259118102382,0.287991504158623,0.0490849411065572,0.0897348027301508
8.5,3.93454997056263,2.77474885615391,-2.58878280888071,-0.219032601725679,0.0149926139318482,-0.0163579874142388,-1.46911323059449,0.695801655367698,-2.419433168161,-0.040726403467136,-0.0214422481689486,0.037872787877393,4.82115087036373,0.00169377548804023,-9.66571470546434e-06,-0.00102253371009984,-1.46911323059449,0.695801655367698,-2.419433168161,-0.040726403467136,-0.0214422481689486,0.037872787877393,-0.175355862671316,-2.09254339051757,-0.399128874569385,0.13594508398632,-0.00207438066710948,-0.0425480265898488
8.6,3.8866494800139,2.7151970594723,-2.70728642143689,-0.138681641682013,0.0680631215494232,0.0327812151192093,-1.4103229044227,0.457638362047731,-2.50559125812335,-0.0973769651945931,-0.0399542518052096,-0.0182914024112561,4.91155514154432,0.00078358659029906,-0.000825752419578615,-0.000684701544256084,-1.4103229044227,0.457638362047731,-2.50559125812335,-0.0973769651945931,-0.0399542518052096,-0.0182914024112561,-0.616799466856952,-1.37887917016224,-0.103726447008643,0.0622108123651621,-0.0656092433311537,-0.0282945098515569
8.7,3.82130171157142,2.66905691345002,-2.88718672787494,-0.160286460756124,0.0633253849856372,0.0154026549427833,-1.57822914843552,0.541184271825429,-2.48896362059301,-0.124918305867379,-0.0671669923101811,-0.006867821520027,5.01261120258729,0.00145428664494309,-0.000468601758694751,-0.00040109487944255,-1.57822914843552,0.541184271825429,-2.48896362059301,-0.124918305867379,-0.0671669923101811,-0.006867821520027,-0.60157640493448,-1.60949196362372,0.0668783388918524,0.116496952289928,-0.0378572784433354,-0.0163255122148081
8.8,3.61040377681187,2.69329162773774,-3.06333258125189,-0.218174094841357,0.00859019663761269,-0.0205613511895921,-1.70360230039657,0.245306960500984,-2.43110496060359,-0.125592162004185,-0.0881141370711053,-0.0348734233918697,5.02343674379531,0.00496904384236828,0.00147143370629407,0.00262537499672803,-1.70360230039657,0.245306960500984,-2.43110496060359,-0.125592162004185,-0.0881141370711053,-0.0348734233918697,-0.128949820400302,-2.17242728959299,-0.00165668979202316,0.400053183179846,0.111425438972564,0.111364044952615
8.9,3.4664212712008,2.61602593340236,-3.17019860925768,-0.214785473563568,0.00397043950132024,-0.0243418324344876,-1.56876408012424,-0.117448444578558,-2.38315708311805,0.0444587527050707,0.00257556062778416,0.0434470090113692,4.99972736657818,0.00229938844835983,0.000539854777429654,-0.00090419492796554,-1.56876408012424,-0.117448444578558,-2.38315708311805,0.0444587527050707,0.00257556062778416,0.0434470090113692,-0.0906520673640122,-2.12968663969516,-0.0403883403776177,0.18508004388262,0.0404568204394041,-0.0375903199501036
9,3.42691761143025,2.48840056762304,-3.29146293674253,-0.133898836493679,0.0553032201748372,0.023252664598418,-1.54792823387896,-0.288958489811523,-2.41581563709969,-0.0440817409982583,-0.0247704660353621,-0.0234514527978504,5.06429834138601,0.00180034832697546,-0.000126407933011657,7.8685917805179e-06,-1.54792823387896,-0.288958489811523,-2.41581563709969,-0.0440817409982583,-0.0247704660353621,-0.0234514527978504,-0.523258753621311,-1.36469337480438,0.212588639258033,0.144510400641898,-0.0117325592547604,0.000885344526704139
9.1,3.27829077003848,2.35565027149282,-3.49991645025103,-0.219408200061619,-0.00760782487766189,-0.0528373162377781,-1.79688931219177,-0.284627480559653,-2.43583341627304,-0.0967567116487938,-0.0891745838517621,-0.0440720515569185,5.22468201307472,0.00686704317100786,0.0023855534971793,0.00460067099622223,-1.79688931219177,-0.284627480559653,-2.43583341627304,-0.0967567116487938,-0.0891745838517621,-0.0440720515569185,-0.0426312734139831,-2.27524927648373,0.388560283460288,0.553303875298618,0.181985764756162,0.19466793733785
9.2,3.1441040126588,2.42769971395471,-3.58040284929158,-0.176212071307888,0.0284246185173974,0.00214408480379655,-1.55771318664988,-0.657214286093181,-2.1760612008551,0.192436305185553,0.0748299085586295,0.120066814800377,5.0322340094546,-0.00134906101406993,-0.00116075513244768,-0.00577839843941498,-1.55771318664988,-0.657214286093181,-2.1760612008551,0.192436305185553,0.0748299085586295,0.120066814800377,-0.27782725920031,-1.76491676823564,0.0946149505617733,-0.108948298975746,-0.0898396171574586,-0.243307337662003
9.3,3.0843687888277,2.19021667914986,-3.65201682294191,-0.0916303223011019,0.0612161916736103,0.0375295678585136,-1.71386988317599,-0.736949717277738,-2.43037968634879,-0.181081959876233,-0.0997765103148613,-0.145604475238992,5.25869999177064,0.00503088118714456,0.00129635612995197,0.00512188133843799,-1.71386988317599,-0.736949717277738,-2.43037968634879,-0.181081959876233,-0.0997765103148613,-0.145604475238992,-0.604174019172218,-0.985727911682572,0.643660442757904,0.404694644577484,0.0966181107951784,0.216630625437334
9.4,2.957819338612,2.17005613714031,-3.8553813747889,-0.209228808384093,0.0186350082252269,-0.0386865559051034,-1.79510275629335,-0.556959522933913,-2.14858391982578,0.130666612457719,0.040692357641113,0.129568271199393,5.19915523777572,0.000585078945013149,-0.00059102534744865,-0.00430248547873248,-1.79510275629335,-0.556959522933913,-2.14858391982578,0.130666612457719,0.040692357641113,0.129568271199393,-0.272927790351131,-2.15084052263293,0.359771689345687,0.04719531995183,-0.0454207354378545,-0.18105150090131
9.5,2.76341429315553,2.16882855467154,-3.91714293076122,-0.114347478796793,0.0499150611746002,0.0447704437694529,-1.79309712105571,-1.14232595931569,-2.24731340655623,-0.0760193575542471,-0.0731411988320688,-0.108848119247436,5.2766816074131,0.00425053337939994,0.00115337571783298,0.00303880402660933,-1.79309712105571,-1.14232595931569,-2.24731340655623,-0.0760193575542471,-0.0731411988320688,-0.108848119247436,-0.468699108929345,-1.22632808922836,0.661385567674666,0.341942444687521,0.0859096301355537,0.1287096976626
9.6,2.6814909901251,1.8933250175838,-4.0491257846352,-0.174484594781657,0.0198478562465409,-0.0322928935265601,-1.84615515411845,-0.96553125998378,-2.10259229786295,0.111955241414677,0.0239619930622038,0.0748987810549949,5.27400305940642,0.00147450725593068,2.58267077631397e-05,-0.0020145331140234,-1.84615515411845,-0.96553125998378,-2.10259229786295,0.111955241414677,0.0239619930622038,0.0748987810549949,-0.265177996419157,-1.82352885075087,0.575800703037164,0.118799290694829,0.00155873350420655,-0.084544868199542
9.7,2.54008459810762,1.91674537612867,-4.12910522430052,-0.0889795321377181,0.0695238610142179,0.0511495538889948,-1.81211574392327,-1.29170893483609,-2.09185233438591,0.00924140547160854,-0.0197108660397301,-0.0329658594103439,5.30211957827851,0.00132926392158978,-0.000449810694911754,-0.000858525796376776,-1.81211574392327,-1.29170893483609,-2.09185233438591,0.00924140547160854,-0.0197108660397301,-0.0329658594103439,-0.684601983259681,-0.978597328389375,0.726771587295758,0.106619936431846,-0.0366357711250147,-0.0357726368032231
9.8,2.41472244183284,1.68083133857677,-4.26434407826765,-0.14934975817346,0.0296427901521375,-0.0133235914452824,-2.01783432019998,-1.19524539976423,-2.05071365763342,-0.00578967223170743,-0.0560179916649142,-0.0260955360092982,5.38579863017041,0.00398715496445362,0.0011109050135009,0.00186892593283425,-2.01783432019998,-1.19524539976423,-2.05071365763342,-0.00578967223170743,-0.0560179916649142,-0.0260955360092982,-0.337025408870315,-1.59841315995562,0.837008818576155,0.321179797789147,0.0841395600921906,0.0792956291770249
9.9,2.21492674341078,1.67268872912443,-4.36072293371605,-0.14067013246443,0.0258087315396988,0.000522349676922669,-1.9392804238409,-1.48868771709843,-1.92052451412166,0.128944046103289,0.0197980073520511,0.0470656878373803,5.36070764027663,0.00120776356923946,-5.35909881013007e-05,-0.00224757052808458,-1.9392804238409,-1.48868771709843,-1.92052451412166,0.128944046103289,0.0197980073520511,0.0470656878373803,-0.273157243216887,-1.5033567065064,0.801976693885129,0.0972087336474959,-0.00487459918135475,-0.0944305420219171
10,2.10754642764614,1.44030776375886,-4.43775625065349,-0.0928132044815144,0.0458143802143809,0.020861318387631,-1.9697879833214,-1.62760782213241,-1.91792056198231,0.0104913714780826,-0.0361268541957012,-0.0554070347340102,5.42124297816881,0.00304502000527421,0.000606273867279119,0.0016396169025065,-1.9697879833214,-1.62760782213241,-1.91792056198231,0.0104913714780826,-0.0361268541957012,-0.0554070347340102,-0.473361543897243,-1.01497676886371,0.974491305611259,0.245100868419045,0.0449559320702726,0.069576777779856
10.1,1.98232700741541,1.3016052367343,-4.54317031808458,-0.126487470832048,0.0318959509804917,-0.0110368228326762,-2.04494185955955,-1.5802161133693,-1.78947930322731,0.107958934450236,0.00262268852162707,0.0408678765461313,5.42226008531259,0.00167429878772004,2.70530501833584e-05,-0.00140885009281949,-2.04494185955955,-1.5802161133693,-1.78947930322731,0.107958934450236,0.00262268852162707,0.0408678765461313,-0.358152408443137,-1.36417150864475,0.942412784041769,0.134882289583158,0.00154151376433512,-0.059073799751676
10.2,1.77975771663301,1.19202392834665,-4.63625473067978,-0.112249136752782,0.0187171323566474,-0.00131272499145942,-2.10181676357479,-1.84884201683117,-1.79112119217711,0.0333413298943484,-0.0467267327784105,-0.0525045030036016,5.52314112406883,0.00423733714024158,0.00142999042083185,0.00255875659165362,-2.10181676357479,-1.84884201683117,-1.79112119217711,0.0333413298943484,-0.0467267327784105,-0.0525045030036016,-0.207065657906109,-1.23706269456135,1.1648417395679,0.341357634460207,0.108686754057225,0.108320222935795
10.3,1.63190072579666,0.973476118059819,-4.73443644117452,-0.132857387241153,0.00023374818713754,-0.0360187070147116,-2.07466634993317,-1.92902922059445,-1.60790714391879,0.158968802532541,0.0191084864521124,0.0423959062228326,5.50120627075104,0.00270437295976567,0.000840220480857232,-0.000284903903568142,-2.07466634993317,-1.92902922059445,-1.60790714391879,0.158968802532541,0.0191084864521124,0.0423959062228326,-0.0550317827493694,-1.45641821917254,1.09545272820674,0.21802097241379,0.064349023242439,-0.0116969060769714
10.4,1.55330916818828,0.867594453070158,-4.72548175159499,-0.0327751671734446,0.0709368693668448,0.0463429752981674,-1.97533943290336,-2.04700797367799,-1.54706940134463,0.141870000320102,0.034647358736145,0.0155490733106605,5.44571244599708,-0.000831211508577639,-0.00159219385362553,-0.00292121381260689,-1.97533943290336,-2.04700797367799,-1.54706940134463,0.141870000320102,0.034647358736145,0.0155490733106605,-0.754178750436485,-0.392263894741326,1.04819872848267,-0.0673280843334904,-0.123496136482418,-0.12294698372875
10.5,1.41766301760773,0.639364686655524,-4.83503979239196,-0.0700585398823944,0.039662946578701,-0.000838748796722322,-2.27472519753493,-1.89414500935551,-1.57073714835512,-0.0355566066645371,-0.0986954839987591,-0.0782063965454809,5.58445363088454,0.00462870746574751,0.00147217503379316,0.00374800382509739,-2.27472519753493,-1.89414500935551,-1.57073714835512,-0.0355566066645371,-0.0986954839987591,-0.0782063965454809,-0.442444825802692,-0.781466574353603,1.32274638134214,0.372885968935819,0.112036637012467,0.158449885776585
10.6,1.15832510348521,0.620385186019382,-4.92295785500071,-0.125686896160313,-0.0051488915142042,-0.0293019480046106,-2.22020588368948,-2.03547173604801,-1.35387602496553,0.215115154805042,0.0401639369860179,0.0839369255741147,5.54956535721328,0.00121807930084982,3.80049362748825e-05,-0.00257244526842895,-2.22020588368948,-2.03547173604801,-1.35387602496553,0.215115154805042,0.0401639369860179,0.0839369255741147,0.0159095402270909,-1.39240913643531,1.20143252711599,0.0982576852546431,0.00301702891911465,-0.108278683954007
10.7,1.00177164477136,0.384343645771383,-4.9553721450108,-0.0480894158313619,0.0216058807034677,0.00656011563342351,-2.16890409508852,-2.36444851327632,-1.37513733531071,0.0547078947809092,-0.0437260112617555,-0.0836454211469737,5.64450457071726,0.00396470204104619,0.00132897893204206,0.00366465059205502,-2.16890409508852,-2.36444851327632,-1.37513733531071,0.0547078947809092,-0.0437260112617555,-0.0836454211469737,-0.240042842299259,-0.544259043680243,1.46332643555687,0.319345451773581,0.101048712935866,0.154878438391013
10.8,0.916905792673502,0.11775000253902,-5.02641594131388,-0.0861732735223386,0.00429635859973904,-0.0430413802591873,-2.21461861473991,-2.18929628882288,-1.13747091853486,0.200044484742521,0.027738022713746,0.0744737681803666,5.57004777563034,0.00165362709474998,0.000344394938170536,-0.00147005292014884,-2.21461861473991,-2.18929628882288,-1.13747091853486,0.200044484742521,0.027738022713746,0.0744737681803666,-0.0888948798115574,-0.955851107591789,1.28865646155772,0.133381002726529,0.0265682737108568,-0.0618022400736827
10.9,0.736706743305394,0.055596280536089,-5.01512364616605,-0.0229864305730554,0.0309278572803652,0.0179003898529947,-2.19895366406506,-2.37749794464679,-1.18014003103825,0.107899171836861,-0.0123909023613154,-0.0428287042676705,5.64105859793829,0.00191106115139102,0.000354814136423005,0.00119090980866162,-2.19895366406506,-2.37749794464679,-1.18014003103825,0.107899171836861,-0.0123909023613154,-0.0428287042676705,-0.344086491290813,-0.265514257299894,1.4637427275584,0.153784256779844,0.0264043551487257,0.0504581699406614
11,0.612059275939316,-0.172198127720012,-5.09123209890651,-0.0445312185700037,0.0219917657704439,-0.021213709396566,-2.27271944311459,-2.23943548965849,-0.987816586410243,0.134718842870565,-0.00562094387814069,0.0239105802109738,5.60536486541358,0.00194186929953193,0.000249292536127341,-0.000118327567388683,-2.27271944311459,-2.23943548965849,-0.987816586410243,0.134718842870565,-0.00562094387814069,0.0239105802109738,-0.256810237034988,-0.493726075573162,1.38690779465943,0.15647795475548,0.0188620234506444,-0.0048034607555459
11.1,0.451963404563282,-0.221119432438326,-5.055673676858,-0.00126466972957592,0.0490606042826569,0.0308802426124804,-2.23752623442215,-2.29293504725644,-0.947832912379452,0.163253827491549,0.0126612824357249,0.0156211143554932,5.60168805256186,-0.000523619885424464,-0.00118163678436553,-0.00219380111900564,-2.23752623442215,-2.29293504725644,-0.947832912379452,0.163253827491549,0.0126612824357249,0.0156211143554932,-0.548724094467356,-0.0311254463606212,1.3798869175518,-0.0424620209125443,-0.091435139837247,-0.0923965615492509
11.2,0.318158856386819,-0.401421280930755,-5.09584312339658,0.0194455412121243,0.0562911943830454,0.0296716496125766,-2.34872708114396,-2.20123009246008,-0.86716659726358,0.0616547951837223,-0.0467547564926341,-0.0327856432714414,5.63035613500948,0.000916340129704444,-0.000576349630060001,0.000149252278634028,-2.34872708114396,-2.20123009246008,-0.86716659726358,0.0616547951837223,-0.0467547564926341,-0.0327856432714414,-0.639641499840133,0.200068475607197,1.43075051697644,0.073583748799866,-0.044948658914699,0.00644755329545067
