time,x,y,z,roll,pitch,yaw,xdot,ydot,zdot,p,q,r,thrust,roll angle,pitch angle,yaw angle,_xdot,_ydot,_zdot,_p,_q,_r,_xddot,_yddot,_zddot,_phiddot,_thetaddtot,_yawddot
0,5.01841953230695,4.01841953230695,0.0184195323069548,0.0184195323069548,0.0184195323069548,0.0184195323069548,0.0184195323069548,0.0184195323069548,0.0184195323069548,0.0184195323069548,0.0184195323069548,0.0184195323069548,9.30806311135095,-0.00893553962524925,0.00858679813860811,-0.00180501147388606,-0.0902952866965097,0.125752083544253,4.85278091014727,-0.38653149329156,0.373310151792827,-0.0319809259241075,-0.212975625973224,0.20683857644572,1.02500068820653,-0.0614356439330525,-0.071999783985818,0.0209599915661293
0.1,3.02036642022638,2.42036642022637,0.0203664202263731,0.0194418835017875,0.019299629982012,0.0183833353760024,-0.0902952866965097,0.125752083544253,4.85278091014727,-0.38653149329156,0.373310151792827,-0.0319809259241075,5.41953366830119,-0.000761765681898617,-0.00093603553036189,0.000496753835792287,-0.0902952866965097,0.125752083544253,4.85278091014727,-0.38653149329156,0.373310151792827,-0.0319809259241075,-0.212975625973224,0.20683857644572,1.02500068820653,-0.0614348898279432,-0.0720046271262777,0.0209706836812947
0.2,3.29136521826518,2.7225450839228,2.2362653602914,-0.175576673944723,0.174144661060536,-0.0156186897246157,-0.0564331247377007,0.0591779611209001,1.00782683802575,-0.0643543912847702,-0.0009396305793943,0.0100786491901528,6.67281707370007,0.000256332051604676,0.000299381549270489,0.000248572679471442,-0.0564331247377007,0.0591779611209001,1.00782683802575,-0.0643543912847702,-0.0009396305793943,0.0100786491901528,-2.31292246491766,-2.29531826198922,3.13170987712639,0.0207177805202822,0.0230727429104518,0.010524805137746
0.3,3.30505361788121,2.70178109848023,0.764054945941665,-0.0450410950217496,0.0297443255677494,0.0100468636017522,-0.50734485154899,-0.393724380525066,2.50821333219782,-0.0222121800620924,0.0474205867130289,0.008578152012711,6.42878158177785,-0.00480370974436726,0.00280768798233163,-0.000942596723906489,-0.50734485154899,-0.393724380525066,2.50821333219782,-0.0222121800620924,0.0474205867130289,0.008578152012711,-0.376159809160761,-0.582731507116402,3.02884178161762,-0.387384202824677,0.215989090732044,-0.0397292279583457
0.4,3.06361308588991,2.46598638964485,1.59412503982808,-0.0494977273941021,0.0318756214262784,-0.0102038742547386,-0.368423718723402,-0.291323131275915,2.30827792929451,-0.262150047553078,0.138307721663133,-0.0351007715177386,6.07716471092835,0.000140437634638327,0.000407134957977779,0.00205586892860235,-0.368423718723402,-0.291323131275915,2.30827792929451,-0.262150047553078,0.138307721663133,-0.0351007715177386,-0.393002789540832,-0.597387071819819,2.3232766056349,0.0113063482599633,0.0312979355916733,0.0867959661783491
0.5,3.17053889064187,2.56390445551234,1.61994027348298,-0.115985414477989,0.121867928084866,0.0148287599830438,-0.318935414332208,-0.254520093431245,2.11302869734111,-0.0232233248169592,0.0870791987239648,0.0706679760941427,6.13463446064467,-0.00371426731620068,-0.00291165863444831,-0.00408211850302747,-0.318935414332208,-0.254520093431245,2.11302869734111,-0.0232233248169592,0.0870791987239648,0.0706679760941427,-1.4602937366459,-1.44167980417321,2.28644829724281,-0.299388416239647,-0.223786780851944,-0.172136663037791
0.6,3.13113192828036,2.52497131377582,1.63904468442264,-0.0509843071179895,0.0746135102008148,0.0299768239727918,-0.545417344665108,-0.472455043366526,2.28246640553469,-0.222525350034222,-0.0800543715636821,-0.0936403076399797,5.97923596167908,-0.0014646331994984,0.00193028858860228,0.00295432846123789,-0.545417344665108,-0.472455043366526,2.28246640553469,-0.222525350034222,-0.0800543715636821,-0.0936403076399797,-0.871611526081642,-0.635840196710679,2.09970408253682,-0.118348423047903,0.148222164805973,0.124779537597892
0.7,3.0436791346485,2.446772091625,1.92624902688449,-0.112343917559451,0.0372869413049873,-0.00596271455060211,-0.53764295532034,-0.44131716004296,2.2306090403476,-0.108992220770623,0.146450503268723,0.0884200681648241,5.79231825593603,-0.00243463175762193,-0.00294419731061025,-0.00395249147458066,-0.53764295532034,-0.44131716004296,2.2306090403476,-0.108992220770623,0.146450503268723,0.0884200681648241,-0.436869449888641,-1.2961456432874,1.69360615925894,-0.196074506199318,-0.226033450886303,-0.166629588277426
0.8,2.98728267118176,2.40585471605521,1.97631317796988,-0.100571991066989,0.106792912492982,0.0392467132730871,-0.61815068062281,-0.593124560549387,2.10848204635359,-0.185226770101811,-0.084108324597547,-0.0896157351622012,5.81372320609296,-0.000766973973414229,-0.00161082833117648,0.00240984636822164,-0.61815068062281,-0.593124560549387,2.10848204635359,-0.185226770101811,-0.084108324597547,-0.0896157351622012,-1.18635189326943,-1.21490908667886,1.69278553936813,-0.062075996227742,-0.124239996476062,0.101879316538806
0.9,2.93474204302507,2.32577148228716,2.07058163595833,-0.134084364909296,0.0211933151148578,-0.026188240454589,-0.696172453786152,-0.687826111952529,2.22114985815246,-0.109176267589227,-0.0211005635460603,0.05904142823401,5.60140413023145,-0.00146063946740525,-0.000391054447966809,-0.00155631823079748,-0.696172453786152,-0.687826111952529,2.22114985815246,-0.109176267589227,-0.0211005635460603,0.05904142823401,-0.27441093680676,-1.49095018145659,1.28976031790196,-0.117491577477089,-0.0294892966683309,-0.0654619305048929
1,2.80835000719219,2.19820565286213,2.22412007686418,-0.152723613324539,0.00200629308201519,-0.00400167763200051,-0.810088274701333,-0.867600458520083,2.03141470888866,-0.178175394594351,-0.0198580173661649,-0.0644748936391505,5.58527078304265,0.00186051886378453,-0.00132405470596696,0.00325126374223831,-0.810088274701333,-0.867600458520083,2.03141470888866,-0.178175394594351,-0.0198580173661649,-0.0644748936391505,-0.0289506863092432,-1.69927900074919,1.23049870318432,0.150015598707965,-0.101908162749315,0.137400184618286
1.1,2.7380869543661,2.09938121418138,2.26744354990068,-0.178021425067071,0.0133428719894423,-0.0448082075213623,-0.800237460440962,-0.990214340718093,2.09573728119323,-0.0253927498203823,-0.0421160274884521,0.0555957564018036,5.45993117085973,-0.000584057699700521,-0.00230516934815071,-0.000498077337580574,-0.800237460440962,-0.990214340718093,2.09573728119323,-0.0253927498203823,-0.0421160274884521,0.0555957564018036,-0.229868897081799,-1.92535373635299,0.936328063211574,-0.0467902837617977,-0.176520663802558,-0.0207794413074769
1.2,2.7297564098054,2.03512412483682,2.45493573369183,-0.0794047680294962,0.0408453767020278,0.0447944339818816,-0.746949817263949,-1.069724550233,2.04999988597468,-0.094981621006154,-0.0636472520922119,0.00625715378224791,5.38230409503503,-0.00318585166841549,-0.00353030592805266,-0.00232197175544539,-0.746949817263949,-1.069724550233,2.04999988597468,-0.094981621006154,-0.0636472520922119,0.00625715378224791,-0.399502142583843,-0.872628095184295,0.911739958201256,-0.25690404182885,-0.271507271696852,-0.0977498577733991
1.3,2.65765142168786,1.89703675129417,2.53640760865294,-0.149965868091356,-0.0077230526923883,-0.0112834862010225,-0.827674772380622,-1.27895414734546,1.94833174843835,-0.242907995553556,-0.153150609228201,-0.0669693376834139,5.30225490858645,0.00453765806573925,-0.000406485591339948,0.00371373621600106,-0.827674772380622,-1.27895414734546,1.94833174843835,-0.242907995553556,-0.153150609228201,-0.0669693376834139,0.0630972784864856,-1.5851731050091,0.675173981537929,0.365930492046047,-0.0313006199419844,0.15690807715915
1.4,2.60236224064336,1.77207199591886,2.61393440236246,-0.200901086893494,-0.0324972470561033,-0.0268726194825493,-0.822819655954827,-1.31759243306389,1.93894403318014,0.102868752336429,-0.00884485397948374,0.0871754997861781,5.20831347907772,-0.00163769655258203,-0.00391948908517316,-0.00285670573287268,-0.822819655954827,-1.31759243306389,1.93894403318014,0.102868752336429,-0.00884485397948374,0.0871754997861781,0.275672760909534,-2.08682324987773,0.391729776760057,-0.131879054749811,-0.300426050710764,-0.120369019409756
1.5,2.52794930980989,1.65460380496604,2.71443178464064,-0.0719958005519349,0.0104345308731691,0.0315475946080138,-0.847347735309818,-1.48310663988715,1.86833572710752,-0.164251065918605,-0.179216822273503,-0.0719497056431839,5.19751023752835,0.000113972040776235,-0.00263896167103798,0.00192459498385594,-0.847347735309818,-1.48310663988715,1.86833572710752,-0.164251065918605,-0.179216822273503,-0.0719497056431839,-0.0845445286609908,-0.750791764266495,0.557526929129788,0.00912597028934413,-0.203349233123369,0.0813605749674179
1.6,2.46689397155315,1.50843948287534,2.81255428030086,-0.187525272093881,-0.066382407831532,-0.0389755873438111,-0.810009982676546,-1.68645432512558,1.84758875119438,-0.0938362440884713,-0.132493752077071,0.0362191902855751,5.0316700232787,0.00456164573223019,-0.00123483890615481,9.24557633498833e-05,-0.810009982676546,-1.68645432512558,1.84758875119438,-0.0938362440884713,-0.132493752077071,0.0362191902855751,0.582234088826963,-1.90021992127064,0.0551396649647042,0.367942119191059,-0.0941405321352811,0.00397981525197151
1.7,2.40181261738303,1.29968539122078,2.86342804954853,-0.186718995838298,-0.0751756561801376,-0.0180438418347222,-0.873975255551865,-1.75014295027318,1.69849147807568,0.0890419780221671,-0.108414026485358,-0.0212879711487914,5.081567420842,0.000838578450846578,-0.00270830473399679,0.00181538311339094,-0.873975255551865,-1.75014295027318,1.69849147807568,0.0890419780221671,-0.108414026485358,-0.0212879711487914,0.715871129594959,-1.89986856550617,0.148279859989133,0.0676302113050685,-0.208093064896869,0.0766117372283327
1.8,2.31758139093293,1.17416232130715,2.92292913294198,-0.10767473229073,-0.0726256216434518,-0.0364169465748074,-0.815448399119855,-1.94315091915431,1.7473860122981,-0.0578166847098429,-0.173940301168027,0.0203369384804121,4.94122162204733,0.00213444929615588,-0.00204559112903677,0.000704595037684422,-0.815448399119855,-1.94315091915431,1.7473860122981,-0.0578166847098429,-0.173940301168027,0.0203369384804121,0.673794731881071,-1.08728749469623,-0.0106892570998323,0.172108264035343,-0.156760173043438,0.0296882994054811
1.9,2.32831423582779,1.03071868775195,3.0875279000352,-0.126146543284946,-0.0658466576022475,0.0215579168408525,-0.686763643194122,-2.05715552404453,1.63026884805545,0.040638257114245,-0.120666654756656,0.0338725880459734,4.84541885047141,0.00152088142795098,-0.00353646748447638,-0.00266471658539702,-0.686763643194122,-2.05715552404453,1.63026884805545,0.040638257114245,-0.120666654756656,0.0338725880459734,0.658716496668629,-1.20530669654849,-0.216999234322625,0.122620184949043,-0.271784702738107,-0.112567417018676
2,2.30125634718946,0.829710689555406,3.09513023711697,-0.104119681080657,-0.0710676008219248,0.0118598430234228,-0.658580923017727,-2.17626853674115,1.4949748198885,0.00601840070018092,-0.2076567201578,-0.0589879150221059,4.88764983767221,0.00260110906971484,-0.00175476958299179,0.00220235812189686,-0.658580923017727,-2.17626853674115,1.4949748198885,0.00601840070018092,-0.2076567201578,-0.0589879150221059,0.702363729272152,-1.00770424053111,-0.112180600866651,0.209830858433395,-0.13532219318792,0.0927362124300913
2.1,2.24988594311136,0.632615455407288,3.12080883513681,-0.132129526174641,-0.135218022692832,-0.0468106534501772,-0.614734490377406,-2.33750499956216,1.52011863141252,0.0419541292676746,-0.156465839444594,0.0363172325875527,4.78960185637044,0.00453253501456184,-0.00124775037213948,0.000500590184951171,-0.614734490377406,-2.33750499956216,1.52011863141252,0.0419541292676746,-0.156465839444594,0.0363172325875527,1.21962517677664,-1.32053320426056,-0.400969749500931,0.365328331472311,-0.0953020162468324,0.0208278915837203
2.2,2.22284115150852,0.422288062767119,3.21531050687046,-0.114530222667042,-0.119915681202718,-0.00653930028738892,-0.580421436757309,-2.40761285903003,1.43420102518284,0.144411811703215,-0.142857542159161,0.00206772956015141,4.74875435936213,0.00231410977172167,-0.00282452064619025,0.000242310983114957,-0.580421436757309,-2.40761285903003,1.43420102518284,0.144411811703215,-0.142857542159161,0.00206772956015141,1.12160744662964,-1.09273314915469,-0.442470824030124,0.186602380336718,-0.217219693674458,0.00985929283381971
2.3,2.21728684484443,0.28186860788115,3.29523200438436,-0.0345212491595673,-0.0941986080739231,0.0154051124741591,-0.411805538776196,-2.49171370272624,1.38115106462582,0.0896886274935472,-0.187845061661323,0.0229858087858393,4.63279166360734,0.00121023302210787,-0.00252047208791908,-0.0017748511402457,-0.411805538776196,-2.49171370272624,1.38115106462582,0.0896886274935472,-0.187845061661323,0.0229858087858393,0.875818538071737,-0.306340783968924,-0.590990747048481,0.0975921123522515,-0.193867466520224,-0.0752909588460345
2.4,2.22706310215251,0.0657779570515449,3.33520083182617,-0.0679897458275114,-0.140613626875967,0.00720123899872239,-0.319069238709917,-2.67382155944658,1.25476984683276,0.0363142655844466,-0.200526735672459,-0.0379036926831322,4.64594307323754,0.00601522734974484,-0.000272037640061681,0.00149437772804659,-0.319069238709917,-2.67382155944658,1.25476984683276,0.0363142655844466,-0.200526735672459,-0.0379036926831322,1.30376785883099,-0.621893827868814,-0.631079279338266,0.485302802594916,-0.021253118935675,0.0625900128961938
2.5,2.2503727778361,-0.177638534145183,3.35377258045839,-0.0762729676965689,-0.148768001750262,-0.0145851265347627,-0.241675700984628,-2.66678952364363,1.24719575408828,0.258788742476848,-0.106172441043651,0.0431229725845698,4.58745475554852,0.0019951528238312,-0.00260404993904569,-0.00132954156227579,-0.241675700984628,-2.66678952364363,1.24719575408828,0.258788742476848,-0.106172441043651,0.0431229725845698,1.34560940969381,-0.718820896633088,-0.762812792258254,0.160725021794789,-0.200080721819616,-0.0566377421842059
2.6,2.24537023785202,-0.345930223914267,3.42334289055645,0.0258870489815428,-0.117013571717541,0.0248672992172837,-0.127655089497808,-2.71977537145419,1.13470301538185,0.108077304006662,-0.205252060902065,-0.0208696839832557,4.52127037911489,0.00235386991263919,-0.00134019942078656,-0.000113234604758694,-0.127655089497808,-2.71977537145419,1.13470301538185,0.108077304006662,-0.205252060902065,-0.0208696839832557,1.04918723267374,0.260226771165815,-0.832303661706421,0.190152444535945,-0.103427041975027,-0.00527137355609229
2.7,2.27898555727112,-0.533161369743018,3.45555579773398,-0.0211039034144056,-0.164368656076142,0.00337652858239739,0.0438921844362801,-2.84693560262711,1.12359212710001,0.134626563933323,-0.158973325737841,0.0101126708638927,4.45693733718498,0.00575613447174483,7.5406314748108e-05,-0.00071275454954621,0.0438921844362801,-2.84693560262711,1.12359212710001,0.134626563933323,-0.158973325737841,0.0101126708638927,1.45887514456014,-0.183178706626661,-1.01822597057925,0.464291557614665,0.00572813334747834,-0.0305976788306249
2.8,2.33714850410304,-0.801856304802017,3.49493226871157,-0.00945792369251922,-0.160336376134692,0.00507131634175207,0.0964264651043885,-2.80051336050265,0.96835116986224,0.290599367570441,-0.109887421794123,-0.0096699937650121,4.49422175905326,0.00245911992499928,-0.00136648647602699,8.32983942568834e-05,0.0964264651043885,-2.80051336050265,0.96835116986224,0.290599367570441,-0.109887421794123,-0.0096699937650121,1.43535598065413,-0.0777326320257798,-0.937242383288613,0.198564159842851,-0.105282161179392,0.00299792677474665
2.9,2.30897042659934,-0.994665731974756,3.46139341064972,0.0374173830847451,-0.181336101790952,-0.0346193898606548,0.206901589659349,-2.88236523121246,0.93280705269761,0.138916214438968,-0.200802249285649,-0.0200589874264801,4.48229268152402,0.00603246525312746,0.00170144847940707,0.00237851605761509,0.206901589659349,-2.88236523121246,0.93280705269761,0.138916214438968,-0.200802249285649,-0.0200589874264801,1.62621628922646,0.279233002756034,-0.998573314031294,0.486598168803086,0.130828478504849,0.0999463187714482
3,2.39504360308882,-1.18093765632643,3.53462407364109,0.0184834369062671,-0.197734626129355,-0.011197269383019,0.401082965163198,-2.85663056164447,0.95930521815816,0.333009038189726,-0.0476480364602171,0.0603768473272063,4.34606268118309,0.00335918309238118,-0.00024588312991803,-0.00272790529090921,0.401082965163198,-2.85663056164447,0.95930521815816,0.333009038189726,-0.0476480364602171,0.0603768473272063,1.70895602471404,0.141524833850725,-1.28870412776986,0.2706671855943,-0.0188287595104061,-0.115487012338404
3.1,2.49328293060166,-1.35923194399951,3.61069150714685,0.128360604967078,-0.123986158955161,0.0424826361366291,0.55011933034379,-2.79790910261898,0.746109318790293,0.255087813285189,-0.105390468175496,-0.0412510211298928,4.29722529644213,0.00117906827219976,-0.00117964612383095,-0.000306981722808086,0.55011933034379,-2.79790910261898,0.746109318790293,0.255087813285189,-0.105390468175496,-0.0412510211298928,1.00644595997423,1.14393767089922,-1.35168727651443,0.0959409773778936,-0.0909093325347167,-0.0131700998472976
3.2,2.56319410532618,-1.52947452202391,3.56566847561353,0.106690308881771,-0.162956609239862,-0.00392863669449204,0.774909748312739,-2.84228520830126,0.770780120754366,0.162261735390257,-0.159320900727996,0.00298018631245632,4.2648895745279,0.00628794311603817,0.00351180452397901,-0.000366260604065818,0.774909748312739,-2.84228520830126,0.770780120754366,0.162261735390257,-0.159320900727996,0.00298018631245632,1.37952954001954,0.902906586214628,-1.44108189331197,0.507204269235685,0.270130967615258,-0.0155396855738578
3.3,2.65265113184833,-1.83733687713638,3.56660401432144,0.0199903143906305,-0.250735117784126,-0.0557403061562126,0.763579637971019,-2.81029529992914,0.577042665271212,0.343836494419575,-0.0145651399223689,-0.0482123218164058,4.54485995147363,0.00744693450491223,0.00359632142060229,0.0044466397009849,0.763579637971019,-2.81029529992914,0.577042665271212,0.343836494419575,-0.0145651399223689,-0.0482123218164058,2.26147622081099,0.0557907930862414,-1.00627234609402,0.600740261349334,0.276640800417669,0.187627301291575
3.4,2.72501272283656,-1.96267179500573,3.56097459721166,0.154625692483121,-0.155739570238818,-0.0410141960102295,0.976732687175585,-2.6238102812871,0.7161090871662,0.454881608132295,0.0293684929963557,0.0959518658829827,4.14953406673557,-0.00092138294421567,-0.000533799055183966,-0.0030584673889849,0.976732687175585,-2.6238102812871,0.7161090871662,0.454881608132295,0.0293684929963557,0.0959518658829827,1.3232542384818,1.22491482559952,-1.7091905482006,-0.0751134617930706,-0.0411821305396882,-0.128836597766879
3.5,2.83026108877262,-2.03942212393737,3.6604665098003,0.222811315772397,-0.139156832624156,0.0275009141156669,1.18498815601028,-2.66559226959196,0.399289316583895,0.116270573374831,-0.114769941455223,-0.0696471380939446,4.21123600412143,0.00541966510176753,0.00417587151492691,0.00173010726696759,1.18498815601028,-2.66559226959196,0.399289316583895,0.116270573374831,-0.114769941455223,-0.0696471380939446,1.08777881757048,1.89175958586087,-1.67513567150729,0.438218376358104,0.321618290241048,0.073481147943728
3.6,3.02114141621649,-2.26979799218205,3.5772460775428,0.110752851072393,-0.193170752533424,-0.0279358976006978,1.38336887973001,-2.49567720618309,0.529237370373717,0.397891139054221,0.0807790899858417,0.0451931258706356,4.22399475413353,0.00432502444044247,0.00390439624338333,-0.000463722346929812,1.38336887973001,-2.49567720618309,0.529237370373717,0.397891139054221,0.0807790899858417,0.0451931258706356,1.63729021147593,0.888340700275527,-1.56993578329456,0.348514730015717,0.300233426815668,-0.0189894366983669
3.7,3.17587266588888,-2.4200558916468,3.66101149102129,0.226688102547039,-0.119664471225474,-0.00543614116743273,1.4261735718282,-2.33906403786375,0.194080419281797,0.363545850249583,0.0747698707189219,-0.0153843235089746,4.19479788210093,0.000233814642642759,0.00140242791048094,0.00103834396489321,1.4261735718282,-2.33906403786375,0.194080419281797,0.363545850249583,0.0747698707189219,-0.0153843235089746,0.986154679675603,1.88024196912768,-1.69350407059803,0.0195178468507806,0.108248481930141,0.0446102944403903
3.8,3.26654550843532,-2.47402516004803,3.53448603485248,0.247301251258296,-0.111592153298522,-0.0144867973554958,1.65135804761185,-2.21233132349701,0.291175813773647,0.206936028821723,-0.0117525333467169,0.0266045789555005,4.09304853220974,0.00375236053821859,0.00517024724145665,-0.000215586177565539,1.65135804761185,-2.21233132349701,0.291175813773647,0.206936028821723,-0.0117525333467169,0.0266045789555005,0.912810899922754,1.99084570878096,-1.9223200639917,0.30294404431811,0.3979569570826,-0.00811049468926159
3.9,3.51749531177893,-2.58513202389963,3.64601836146948,0.226102806260955,-0.11534757315963,0.0362279411211356,1.7915906207776,-1.98611355677727,0.127704977356021,0.389381820012001,0.184706535740453,0.0253124181541993,4.04813210367722,-0.000213890846479115,0.00234764922801194,-0.00224429568604241,1.7915906207776,-1.98611355677727,0.127704977356021,0.389381820012001,0.184706535740453,0.0253124181541993,0.841761567511035,1.84673088061566,-1.97223777897475,-0.0163800500713638,0.181301803230139,-0.0935833625655533
4,3.66977233669945,-2.66349335857795,3.58552960853128,0.308249653607057,-0.0412015914334704,0.0156094021355693,1.85681732061828,-1.8127042693567,-0.0860513330548947,0.217197522276453,0.0708872169140206,-0.0347420583620509,4.06404986707064,0.000599645032872713,0.0028386976012394,0.00130556998606231,1.85681732061828,-1.8127042693567,-0.0860513330548947,0.217197522276453,0.0708872169140206,-0.0347420583620509,0.280485656551053,2.47067341369364,-2.07158246361157,0.0496255029165434,0.219723580340526,0.0563222534958136
4.1,3.80456770935356,-2.73403941126946,3.48650516249484,0.243878066054543,-0.0922766442003011,-0.0134768975626708,1.93458684207713,-1.56464454787319,-0.0134642877397115,0.242561451132695,0.0884540738596449,0.0342059288496843,4.00582831988812,0.00248292018003134,0.00603261165387329,-0.000209279925068979,1.93458684207713,-1.56464454787319,-0.0134642877397115,0.242561451132695,0.0884540738596449,0.0342059288496843,0.742400664545016,1.92472647483529,-2.0684942443978,0.20084086967914,0.46478430540858,-0.0075227580104886
4.2,3.96100060724444,-2.79504001380783,3.52962048985223,0.242638248059796,-0.101646051955172,-0.0116102487214245,1.92511401675773,-1.4087329171196,-0.391476607104013,0.310372310982261,0.219445304951258,-0.0169900303922353,4.15772103221839,0.000508822545066949,0.0035190180556577,0.00208193943425753,1.92511401675773,-1.4087329171196,-0.391476607104013,0.310372310982261,0.219445304951258,-0.0169900303922353,0.842201217298812,1.98826097990659,-1.77980124079324,0.0421975183757894,0.27231763218739,0.0892186998577831
4.3,4.08049996323941,-2.80771607917366,3.34780991242156,0.306968060318682,-0.0204402055618702,-0.0187925246137451,2.04805929663774,-1.14977214991826,-0.359350969194484,0.248601294965461,0.144522222938743,0.0488251392557556,4.03307211762619,-0.00132307622101832,0.00321451815228988,-0.000994520671040877,2.04805929663774,-1.14977214991826,-0.359350969194484,0.248601294965461,0.144522222938743,0.0488251392557556,0.202928964223042,2.43396180993038,-2.12252105257029,-0.105923185654434,0.248627710478406,-0.0406038309685972
4.4,4.26036696263279,-2.79109244596655,3.34652760497386,0.300491601491428,-0.0399973648803198,0.0175902627365274,2.11293053539691,-0.900379987988293,-0.456774554592417,0.169826317667377,0.156786127603424,-0.0143893875651072,3.97692725099239,8.2506269382724e-06,0.00504285779424908,0.000198023568801865,2.11293053539691,-0.900379987988293,-0.456774554592417,0.169826317667377,0.156786127603424,-0.0143893875651072,0.262340088692093,2.35923930723361,-2.21862535453476,0.00205830308511948,0.390780487701051,0.00970444375124247
4.5,4.43566640876388,-2.79301964630302,3.30721594658804,0.267321372883734,-0.0373426928951955,-0.0211791140729882,2.11303929115092,-0.685763650917957,-0.688492185978495,0.214138458818368,0.230222508966402,0.000119520188608887,4.0615121135482,-0.000323299685243238,0.00391409324933447,0.00128915385749494,2.11303929115092,-0.685763650917957,-0.688492185978495,0.214138458818368,0.230222508966402,0.000119520188608887,0.337868482814774,2.13901240847642,-1.98095194811658,-0.0249958944028819,0.303665987344923,0.0556753665965318
4.6,4.57753394247754,-2.76249489411813,3.17938082194465,0.300950366119115,0.0115042198772086,-0.0133558597320908,2.15435185740374,-0.438336906921942,-0.798768331504383,0.203620987521076,0.205868614465764,0.029153927719788,4.0411161425981,-0.00248072266678685,0.00320754222572895,-0.000635552257115738,2.15435185740374,-0.438336906921942,-0.798768331504383,0.203620987521076,0.205868614465764,0.029153927719788,-0.0567939257524094,2.39677216409491,-2.09153277163884,-0.199150392042204,0.249479055962492,-0.0256715777551725
4.7,4.74730237870748,-2.68494432558878,3.09091000861895,0.323678830265555,0.0260815414456218,0.0139494669010873,2.18497494089067,-0.1537273765911,-0.858892723356571,0.116633921616592,0.206195927411017,-0.000811126459825603,3.97446017524813,-0.00262795955928151,0.00348270054932931,-0.000671281428580249,2.18497494089067,-0.1537273765911,-0.858892723356571,0.116633921616592,0.206195927411017,-0.000811126459825603,-0.231778902620396,2.52521838302154,-2.27641616513869,-0.210919585016871,0.2717820718935,-0.027318498993455
4.8,4.94308818629974,-2.5787719757701,3.06661664960795,0.318203339202464,0.0613052770574219,0.02419979316168,2.19868291801573,0.13670517585996,-1.01388396504549,0.118763062984016,0.246969453624977,0.0151919861615341,3.9396822815834,-0.00398081306725937,0.0018125257678873,-0.00199311397538278,2.19868291801573,0.13670517585996,-1.01388396504549,0.118763062984016,0.246969453624977,0.0151919861615341,-0.518025768131305,2.45332616571366,-2.34024592456582,-0.32023076084931,0.143395307479001,-0.0832709071239219
4.9,5.01549106960935,-2.55405467512766,2.89028760596271,0.249645508168202,0.0168607212045435,-0.0454618434678446,2.01909411035476,0.299548167004237,-1.2305859803121,-0.0128075408287872,0.126215517621584,-0.0801260832695079,4.07746345850519,0.00212504509923624,0.00612807253221948,0.00585252979275711,2.01909411035476,0.299548167004237,-1.2305859803121,-0.0128075408287872,0.126215517621584,-0.0801260832695079,-0.0415283945300746,2.01873318040825,-1.90899849635839,0.172008613700551,0.476022698315486,0.247535619117927
5,5.12756143546033,-2.44781819532205,2.76711351016398,0.224003884299242,0.00355768482231189,-0.0513978904630582,2.06061211662534,0.54445980393095,-1.33554103454624,0.26250717337464,0.335745498959771,0.119324558502877,4.11512502510384,-0.00530297218554557,0.00206303941414776,-0.0034223883093587,2.06061211662534,0.54445980393095,-1.33554103454624,0.26250717337464,0.335745498959771,0.119324558502877,0.0654144033189051,1.82728099218683,-1.78542642750566,-0.427471586617373,0.160450487342839,-0.143944327333093
5.1,5.30868929238403,-2.27608917536018,2.64194820093231,0.389013343934358,0.141235184597481,0.0581687878531051,2.13681896831699,0.796940710222138,-1.41261519237019,-0.0311004792992434,0.234700403285685,-0.0493563103910415,4.08015220583096,-0.00645292557371083,-0.000562867999333516,-0.000523449258348187,2.13681896831699,0.796940710222138,-1.41261519237019,-0.0311004792992434,0.234700403285685,-0.0493563103910415,-1.24100164346543,3.0279793105867,-2.3345853421657,-0.520242403569084,-0.0368944728014806,-0.0219685433132382
5.2,5.46074409163106,-2.14258568834448,2.50336302868936,0.263005786411901,0.11205881478884,-0.0186154158388651,1.93221589441686,1.22096683101118,-1.32901550379706,-0.10084715664986,0.11241312376891,0.00294714878122031,3.88628771659971,-0.00179474435167825,0.00437215953502191,0.000620568490142622,1.93221589441686,1.22096683101118,-1.32901550379706,-0.10084715664986,0.11241312376891,0.00294714878122031,-0.801515566270506,2.03601885041868,-2.35177441327088,-0.144869176313432,0.340814675664115,0.0260434153460686
5.3,5.53402432303039,-1.93447556491381,2.57538102044112,0.209342042749227,0.0545686436695456,-8.76211784630295e-05,1.87128787368929,1.28040904064355,-1.82084073930122,0.0605082870434543,0.307404074338352,0.0151004426104958,4.10674038167068,-0.00438290438591787,0.00133741271754115,-0.000845255466134138,1.87128787368929,1.28040904064355,-1.82084073930122,0.0605082870434543,0.307404074338352,0.0151004426104958,-0.438046263434406,1.70693400010303,-1.78779593626776,-0.353713397408317,0.107376867915535,-0.035923123810771
5.4,5.6502924304838,-1.81456562899994,2.21156485438547,0.290810944500313,0.163244602079061,0.0072297635611175,1.85363357213211,1.49683012368609,-1.77946631318374,-0.048960563087614,0.206793368802159,-0.00726182372774149,4.17287091922253,-0.00625799307225847,-0.000305519004027681,-2.97015572516051e-05,1.85363357213211,1.49683012368609,-1.77946631318374,-0.048960563087614,0.206793368802159,-0.00726182372774149,-1.31666974935712,2.38351115832952,-1.92097837731327,-0.505325348025639,-0.0183736795595006,-0.00185002588439795
5.5,5.72731668418216,-1.66287760861862,2.05205455851293,0.219139382991799,0.109402289769463,-0.0265161744878653,1.60193035560636,1.79859453113267,-1.74494562447714,-0.170776530664325,0.120934902271198,-0.0117976816811286,4.05886001985355,-0.00194836274955257,0.00359779399082353,0.00178491128046751,1.60193035560636,1.79859453113267,-1.74494562447714,-0.170776530664325,0.120934902271198,-0.0117976816811286,-0.818038088335428,1.78702536535921,-1.93378690786888,-0.157971929494772,0.281554362589175,0.074500067214303
5.6,5.76555586878033,-1.44026817857978,2.04514536916998,0.158130770334286,0.0820254474417732,-0.0203142358642865,1.56776924694568,1.89992114811567,-2.04853093247503,-0.00763204506893694,0.28490525991839,0.0297179085440336,4.17512840270717,-0.00444236659176275,0.000406998292317872,-0.00046172372821966,1.56776924694568,1.89992114811567,-2.04853093247503,-0.00763204506893694,0.28490525991839,0.0297179085440336,-0.648780168704039,1.32838908912936,-1.59165129500172,-0.359147651499692,0.0354971467041852,-0.0203870003131771
5.7,5.87972457836426,-1.25083838310508,1.77005458010548,0.248376554144945,0.188773410417772,0.0140873526980242,1.54905769786785,2.06288087870466,-2.01504979678432,-0.105965542134884,0.185344048172938,0.00211363349489358,4.24453534651789,-0.00709560578165872,-0.00126344566015795,-0.000731081093463395,1.54905769786785,2.06288087870466,-2.01504979678432,-0.105965542134884,0.185344048172938,0.00211363349489358,-1.57336939102538,2.06491484130766,-1.7276144184473,-0.573706473249327,-0.0919539086145453,-0.032044470037713
5.8,5.99786111254001,-1.02133666443851,1.64886266391469,0.226950719909936,0.183677943224441,0.0231967794103212,1.32740012541089,2.408629048012,-1.97000568173825,-0.221388383330586,0.13520175499776,0.0140405451678814,4.1732745371205,-0.00598587640453501,-0.000278582723581677,-0.00174936746419196,1.32740012541089,2.408629048012,-1.97000568173825,-0.221388383330586,0.13520175499776,0.0140405451678814,-1.52854001507979,1.84307785325539,-1.81428171470177,-0.484473093025314,-0.016258445620555,-0.0751652088137116
5.9,6.00801732595217,-0.760908160188034,1.6267099058368,0.152026392489583,0.157225356789152,0.0164404668370551,1.1556996691032,2.54408942193646,-2.17317466208588,-0.213943271099213,0.16075222548187,-0.0231197361367463,4.18246866190729,-0.00445385014010914,-0.000436473934724825,0.000318273381713642,1.1556996691032,2.54408942193646,-2.17317466208588,-0.213943271099213,0.16075222548187,-0.0231197361367463,-1.31531273144014,1.24534325889678,-1.64352897406854,-0.36127693583481,-0.0282351079821086,0.0120242079328439
6,6.0005602748797,-0.56922172692272,1.38181640783995,0.116923155892878,0.154939876231922,-0.0212190233569023,0.996022810136889,2.57900382969901,-2.2684721046304,-0.187665925029652,0.134547594742798,0.00125470880160152,4.26731038603395,-0.00415518259141113,-0.000334224625740906,0.000931800688719294,0.996022810136889,2.57900382969901,-2.2684721046304,-0.187665925029652,0.134547594742798,0.00125470880160152,-1.28665700882097,1.02315252479814,-1.43519108422981,-0.337090696275615,-0.0213846773232317,0.0378478786493011
6.1,6.04298526759181,-0.348183260221525,1.19179800560811,0.142924442721443,0.177869257315145,0.016019887802,0.901268676954645,2.71223062743133,-2.23165988303268,-0.172691545118003,0.157669107345648,0.0380694764180033,4.30005264930171,-0.00689652477901678,-0.00242868635054885,-0.00260989135676354,0.901268676954645,2.71223062743133,-2.23165988303268,-0.172691545118003,0.157669107345648,0.0380694764180033,-1.52555602234128,1.20070063266241,-1.43188517860437,-0.558349418980633,-0.182690361360449,-0.111626547110234
6.2,6.04567747329776,-0.140180348236078,1.03734035659412,0.118718869194263,0.173836018395198,0.00799233858596207,0.670851362105245,2.83119086772629,-2.31093231677605,-0.330137806333294,0.0504195552088953,-0.0601670677041477,4.34357455391101,-0.00326694718505811,-0.00039037358701609,0.00236894490355476,0.670851362105245,2.83119086772629,-2.31093231677605,-0.330137806333294,0.0504195552088953,-0.0601670677041477,-1.50014459516806,1.01695054943246,-1.31400462599408,-0.266470233823673,-0.025060482387192,0.098401958185993
6.3,6.00311477157644,0.0778703964969236,0.881228133277782,0.0244376328322906,0.127269802689374,-0.0394151877963267,0.49677265474172,2.90331115904774,-2.34304709794436,-0.201956289516161,0.125380189935802,0.0423364165246751,4.30870795970145,-0.00347376055571741,-0.00102803466649917,-0.000222278431452617,0.49677265474172,2.90331115904774,-2.34304709794436,-0.201956289516161,0.125380189935802,0.0423364165246751,-1.08430518490982,0.253492195392207,-1.26483288046211,-0.28219675441338,-0.0761149309147327,-0.0108069881220301
6.4,5.9826114272021,0.30531082361013,0.723455794175951,0.070149844211004,0.167800893690895,0.0107378867754678,0.447912194296839,2.82621593755825,-2.36685965983171,-0.223488546516032,0.0948585744631845,-0.00847153059114729,4.35448258316278,-0.00494155563257604,-0.00229722170738695,-0.000198765800121003,0.447912194296839,2.82621593755825,-2.36685965983171,-0.223488546516032,0.0948585744631845,-0.00847153059114729,-1.45741735951673,0.594816616003702,-1.24447595871815,-0.401467953086384,-0.172983604071239,-0.00979724292910917
6.5,5.98805255208737,0.478965679957114,0.515527948910243,0.0446149273512441,0.160199272447483,-0.0155493883231637,0.232769435829191,2.93819367796695,-2.42918356539068,-0.302914427522682,0.0370251028792088,-0.0110972490910498,4.44937177383491,-0.00308312718010082,-0.00132465569696908,0.00114962697986561,0.232769435829191,2.93819367796695,-2.42918356539068,-0.302914427522682,0.0370251028792088,-0.0110972490910498,-1.41172745876479,0.418886352996142,-1.03394185681076,-0.251566384729072,-0.0986641560724301,0.0471583011814075
6.6,5.94190085269278,0.714502606811306,0.388702147376221,0.00169852115141522,0.146094688122081,-0.00910597355466027,0.0970425375944606,2.97088680484986,-2.36972354527014,-0.234773104476971,0.0764840051423272,0.0261051835005314,4.37998244634038,-0.00394991475772526,-0.00236381480151149,-0.000916327940217398,0.0970425375944606,2.97088680484986,-2.36972354527014,-0.234773104476971,0.0764840051423272,0.0261051835005314,-1.27504645306937,0.0264904555998635,-1.14336629830955,-0.321303088197913,-0.179208502457707,-0.0398635287654844
6.7,5.91701288528199,0.942880737288232,0.275009151901683,0.0305545984820961,0.181054724661189,0.0216463788901138,0.0127684406120878,2.92653346217809,-2.43597385302378,-0.274893209060641,0.0369806335353569,-0.00726746756891454,4.45385923080129,-0.00454048859747957,-0.00331486115193562,-0.000769298808999587,0.0127684406120878,2.92653346217809,-2.43597385302378,-0.274893209060641,0.0369806335353569,-0.00726746756891454,-1.60875343615379,0.237364054991227,-1.05197403073974,-0.369546457007537,-0.252230775493648,-0.0335629124654472
6.8,5.85287997319274,1.09586675218957,0.0541739329034843,-0.0336484531636611,0.137343150692479,-0.0238396871963475,-0.270587180658589,2.9423097588627,-2.48337787201464,-0.341607577838834,-0.0347230004555159,-0.031582066270745,4.49303076371498,-0.00086693787858897,-0.000940418937678068,0.00256439631221215,-0.270587180658589,2.9423097588627,-2.48337787201464,-0.341607577838834,-0.0347230004555159,-0.031582066270745,-1.23645807699672,-0.272913583203243,-0.91359671694849,-0.073198547476328,-0.0700862162104114,0.107245646637871
6.9,5.76937709146607,1.32319012595785,-0.058091544535861,-0.0548734643700838,0.132216708850845,-0.00716533614472463,-0.291634486506297,2.8597326588022,-2.4010656977336,-0.175149464285071,0.076517032751346,0.0664158722894213,4.40743067371564,-0.00441535866716593,-0.00363748757894177,-0.00286332543953221,-0.291634486506297,2.8597326588022,-2.4010656977336,-0.175149464285071,0.076517032751346,0.0664158722894213,-1.16376447445753,-0.475132775808339,-1.08522598185023,-0.358680687006254,-0.278379551844996,-0.121557353878095
7,5.75610066041035,1.50987181200825,-0.190104152124844,0.0193095546228141,0.196040262144201,0.0518114858253794,-0.369718223917814,2.79314561660407,-2.50147561918137,-0.326769272588284,-0.034849630002935,-0.0417557263346204,4.57063461941414,-0.00380728285655065,-0.00400932249514083,-0.000443563444656231,-0.369718223917814,2.79314561660407,-2.50147561918137,-0.326769272588284,-0.034849630002935,-0.0417557263346204,-1.78702006877991,0.0840689360031767,-0.84549806266264,-0.311101943105427,-0.30655221043663,-0.0193758645628805
7.1,5.68220950800525,1.65573469223734,-0.404375796985549,-0.0831162939755876,0.132342325297614,-0.0174904713739821,-0.712534315559073,2.89046175247385,-2.50400954514284,-0.330363159256002,-0.0719822571706794,-0.0072703584693813,4.59041022466973,-0.000887308445905983,-0.0018306430046585,0.00121943273629133,-0.712534315559073,2.89046175247385,-2.50400954514284,-0.330363159256002,-0.0719822571706794,-0.0072703584693813,-1.22043117492676,-0.740965985582957,-0.740877590500519,-0.0747099227118688,-0.139795604291938,0.0509977675011833
7.2,5.52958262923167,1.88350184773925,-0.495435864003424,-0.0933426268847238,0.122108018261112,0.00923402641857664,-0.7169205134017,2.64973313356175,-2.39207445676631,-0.20820199880182,0.00957516208677867,0.039023787278693,4.43566297709391,-0.00306916621766721,-0.00359317786536401,-0.00224798194037348,-0.7169205134017,2.64973313356175,-2.39207445676631,-0.20820199880182,0.00957516208677867,0.039023787278693,-1.06818495969959,-0.836770095944375,-1.0430609170674,-0.250426440627129,-0.27584657713764,-0.0951012327703444
7.3,5.46263587460122,1.97171262717498,-0.655466016336759,-0.0698633109124085,0.142227460094484,0.0190332900489326,-0.808834250365908,2.51947640406771,-2.6022197759267,-0.321167298802387,-0.0874625409338546,-0.0507267010089882,4.62186497663784,-0.000673305869846647,-0.00229835283060955,0.00157306123950429,-0.808834250365908,2.51947640406771,-2.6022197759267,-0.321167298802387,-0.0874625409338546,-0.0507267010089882,-1.29457020301933,-0.670032168059125,-0.681928553505594,-0.0579985169710395,-0.176435967302418,0.0662443970083098
7.4,5.41971890097064,2.14098652350365,-0.861637916360988,-0.0974023947366308,0.136296707851481,0.0151441446334469,-0.931339208674613,2.55584960177713,-2.45718818607882,-0.193953686131941,-0.00767745827150138,0.0658341793187304,4.60864310301749,-0.00370646912410283,-0.00454264087231379,-0.00372388753615298,-0.931339208674613,2.55584960177713,-2.45718818607882,-0.193953686131941,-0.00767745827150138,0.0658341793187304,-1.23274642250338,-0.915139955849653,-0.721478661356665,-0.30149935330326,-0.349550400782329,-0.157070742459324
7.5,5.29184767073133,2.29471378131834,-0.958743502659966,-0.0753965958221807,0.147505844485797,0.0485783401945499,-1.08157265708216,2.36824607612468,-2.5034255745857,-0.349878132167993,-0.136556724479454,-0.0709836018857019,4.63475275324379,-0.000459079837732472,-0.00260152479058717,0.00123246263987386,-1.08157265708216,2.36824607612468,-2.5034255745857,-0.349878132167993,-0.136556724479454,-0.0709836018857019,-1.32297493677032,-0.763370389016082,-0.667203092015294,-0.0408565870008497,-0.200630056687898,0.052166020506999
7.6,5.10923806909601,2.33176945832927,-1.18232644007415,-0.213950051812117,0.0339462836937281,-0.0648446063467785,-1.32313011958978,2.24192242385088,-2.60213498066823,-0.266234125182996,-0.100804399549353,-0.00750371424374761,4.67102960287107,0.00367381483924332,-0.000166757026126039,0.00346200634614337,-1.32313011958978,2.24192242385088,-2.60213498066823,-0.266234125182996,-0.100804399549353,-0.00750371424374761,-0.437717408981947,-1.95927439465853,-0.686200488836839,0.293945623375806,-0.0135566510634319,0.14641266437296
7.7,4.97771568211031,2.47518884744406,-1.3339678397618,-0.160416818751072,0.0774423640327214,-0.00183264388487444,-1.10518285735657,1.76836099412398,-2.38962893750419,-0.0528548270047726,0.011616847857576,0.0762792593541313,4.45767748705384,-0.00204430187008552,-0.00313421191002114,-0.00349885857334167,-1.10518285735657,1.76836099412398,-2.38962893750419,-0.0528548270047726,0.011616847857576,0.0762792593541313,-0.68348921241071,-1.42279666257487,-1.03548881886686,-0.166951879837437,-0.242065246422399,-0.147178514612057
7.8,4.93602895943021,2.40301974360503,-1.47510208754827,-0.112100885417343,0.0917169500864221,0.0076672602407247,-1.28359926704884,1.73106454401513,-2.77245844413543,-0.321673602461103,-0.147439943978226,-0.106939318523744,4.80343285477788,0.00315105018827086,-0.000412366661153408,0.00474118999114249,-1.28359926704884,1.73106454401513,-2.77245844413543,-0.321673602461103,-0.147439943978226,-0.106939318523744,-0.866089369843084,-1.08135624441051,-0.303558676478488,0.250713211423905,-0.0333866995046086,0.200532012559752
7.9,4.84991177450318,2.56143703844725,-1.72368817249055,-0.186860840528784,0.0659836548771147,-0.0267399693820964,-1.33515688028874,1.79864101899118,-2.45556277066741,-0.0565865892014328,0.0135166247482876,0.121482529166869,4.68683040530229,-0.0018895122259954,-0.00332475836035494,-0.00444890623643456,-1.33515688028874,1.79864101899118,-2.45556277066741,-0.0565865892014328,0.0135166247482876,0.121482529166869,-0.653642842864793,-1.72453486434966,-0.619556728433702,-0.15384007604622,-0.2567812163717,-0.18712250514088
8,4.73034420922587,2.68403318736826,-1.75325458855833,-0.0927715237364562,0.125325483399107,0.0680717242391437,-1.36834325088494,1.42741412820308,-2.55125649095092,-0.2771775171841,-0.135579209706254,-0.0914758608868512,4.71316098544524,0.00103806970339857,-0.00209967157893834,0.00118375586348178,-1.36834325088494,1.42741412820308,-2.55125649095092,-0.2771775171841,-0.135579209706254,-0.0914758608868512,-1.11108730882196,-0.951018170110372,-0.49782542414569,0.0803103635076357,-0.164004139271129,0.0505733852921442
8.1,4.63153773849454,2.65783101615251,-1.93994229147277,-0.19705820609928,0.0586160528318591,-0.025507256725225,-1.57997030482505,1.55927640914712,-2.65926546354828,-0.150951535494631,-0.080784790078666,0.0335010056554819,4.86874270223862,0.00115447556624331,-0.00145907706997501,-0.000345557413136608,-1.57997030482505,1.55927640914712,-2.65926546354828,-0.150951535494631,-0.080784790078666,0.0335010056554819,-0.607847434718299,-1.89156918348274,-0.27736607633482,0.0912974914806708,-0.113957082237583,-0.0138806381538038
8.2,4.45739741394705,2.80837251740022,-2.12021658261793,-0.149441327935521,0.0828152489060479,0.0350339576968228,-1.51764469578768,1.10219904729754,-2.42106486142901,-0.135413010321962,-0.0689703380348954,0.00442734132926915,4.69365680375616,0.000221567840257715,-0.00230795068976185,-0.00183336205712625,-1.51764469578768,1.10219904729754,-2.42106486142901,-0.135413010321962,-0.0689703380348954,0.00442734132926915,-0.718443645847871,-1.42367523560638,-0.559127375374368,0.0156774986126943,-0.17993050747903,-0.076628038009595
8.3,4.39766170027944,2.74108871705448,-2.16872113607954,-0.135407302334378,0.100238952686117,0.0406351771499161,-1.57983738748919,1.13643791278353,-2.65846565477569,-0.158306051460392,-0.0955733002444828,-0.0168791970740761,4.89402597258037,-3.81976257756178e-05,-0.00229489605706643,-0.00107597811644443,-1.57983738748919,1.13643791278353,-2.65846565477569,-0.158306051460392,-0.0955733002444828,-0.0168791970740761,-0.916057132855896,-1.35966356513726,-0.160227194376688,-0.00523813676010365,-0.179183050979716,-0.0446483125332729
8.4,4.22597172089085,2.78529508999041,-2.46200564189371,-0.193397389718693,0.0433460873550662,-0.00851043996782253,-1.79648130421296,0.945980346864307,-2.54354059172734,-0.202524548447744,-0.134666807200745,-0.0359960838366394,4.9207439375846,0.00380239192622564,-0.000119826798286588,0.00212251386823285,-1.79648130421296,0.945980346864307,-2.54354059172734,-0.202524548447744,-0.134666807200745,-0.0359960838366394,-0.434587906382891,-1.88784528601184,-0.16105927446899,0.304832294315249,-0.0117881338376246,0.0903217773220911
8.5,4.03501700267939,2.78455354648294,-2.55533718620931,-0.219341541959072,0.0213727445282645,-0.0166844085492152,-1.70618330069318,0.606167359088222,-2.47203756097655,-0.0305291928977078,-0.0466675695577856,0.0387713532921947,4.82966181355936,0.00197054357247446,-0.000737037485790645,-0.00104962953317786,-1.70618330069318,0.606167359088222,-2.47203756097655,-0.0305291928977078,-0.0466675695577856,0.0387713532921947,-0.236521327499879,-2.09808911684853,-0.384257978662193,0.157682216103413,-0.0588099133874424,-0.0435260641410426
8.6,3.97198113455048,2.72133790435806,-2.67573461339563,-0.138361409569134,0.0718068148238875,0.0341477439728592,-1.64903259033986,0.365647304630942,-2.56159824761491,-0.0830811179642497,-0.0661060852717249,-0.018213049730764,4.92214953346588,0.000987915060770564,-0.00146295885700697,-0.000748900923271283,-1.64903259033986,0.365647304630942,-2.56159824761491,-0.0830811179642497,-0.0661060852717249,-0.018213049730764,-0.652768547661794,-1.38082059441314,-0.0849060761131124,0.0780520798867359,-0.115451921327163,-0.0308539305850384
8.7,3.89019121275633,2.6684256150012,-2.86132143890493,-0.157757866294731,0.064911597777822,0.0164946726348288,-1.81478633391861,0.452344256475687,-2.54088337275385,-0.113010811636214,-0.0924129100618886,-0.00770824519603019,5.02513468037602,0.00161212304170056,-0.0010849511593382,-0.000408519842984446,-1.81478633391861,0.452344256475687,-2.54088337275385,-0.113010811636214,-0.0924129100618886,-0.00770824519603019,-0.617694947793022,-1.5893450767453,0.0945620499933142,0.128666053976911,-0.0861035409449126,-0.0165046747864962
8.8,3.66465469929781,2.68780460920614,-3.04021573318676,-0.215775926628138,0.00902513314374226,-0.0202287840231041,-1.93642153803504,0.164070993427843,-2.47921539039368,-0.11511048259112,-0.114905292250994,-0.0345292610204669,5.04067701527798,0.00510973047622827,0.00091019338700493,0.00258900877767181,-1.93642153803504,0.164070993427843,-2.47921539039368,-0.11511048259112,-0.114905292250994,-0.0345292610204669,-0.132516566435367,-2.15623328746281,0.0371720031217304,0.410908023441845,0.0674102752499433,0.109949858711408
8.9,3.50678225937679,2.60830010265947,-3.15014008496324,-0.212449194520586,0.00224436578158738,-0.0240970474664932,-1.79707230699998,-0.200675859503871,-2.42088085847322,0.0545744605331205,-0.0243566330077593,0.0431078809323169,5.00771026962992,0.00247637715518764,4.95631338729172e-05,-0.000904538325461773,-1.79707230699998,-0.200675859503871,-2.42088085847322,0.0545744605331205,-0.0243566330077593,0.0431078809323169,-0.0728496743825722,-2.11065556728981,-0.0197765817404019,0.198960838343672,0.00186975994755081,-0.0375002383843514
9,3.4536253715554,2.47486762876711,-3.27098645804022,-0.130893403190328,0.0519154821754366,0.0243050133722472,-1.76818739000082,-0.369114720801467,-2.45877435457548,-0.0310911077059631,-0.0508603181703638,-0.0230048075953694,5.0749402658186,0.00189487179440223,-0.000553942212352748,-6.46921696681469e-05,-1.76818739000082,-0.369114720801467,-2.45877435457548,-0.0310911077059631,-0.0508603181703638,-0.0230048075953694,-0.489844301652264,-1.33706135785499,0.239497215879879,0.151716867974861,-0.0454690964660354,-0.00209337037933282
9.1,3.29335430417852,2.33809070870117,-3.48538772198265,-0.214634605574357,-0.012280739879386,-0.0516646378105605,-2.01115910461671,-0.3572245159655,-2.47338181511683,-0.0873319187478561,-0.114775895849827,-0.0453126509449761,5.24154767762733,0.00690009625858014,0.00201618336048603,0.00459768569597898,-2.01115910461671,-0.3572245159655,-2.47338181511683,-0.0873319187478561,-0.114775895849827,-0.0453126509449761,0.0103096953826403,-2.2363153832982,0.431780872678674,0.555605997985222,0.152714463657072,0.194605934114693
9.2,3.14753391151211,2.40758545633346,-3.56684261533355,-0.172216075856503,0.0223904216738438,0.00213196842840379,-1.75970131820765,-0.726221729335346,-2.20211196286388,0.199421818165914,0.0502051085744168,0.120290392855551,5.03275347305702,-0.00118781140264833,-0.00149479127533337,-0.00579192679917837,-1.75970131820765,-0.726221729335346,-2.20211196286388,0.199421818165914,0.0502051085744168,0.120290392855551,-0.218340671765535,-1.72535570819796,0.104126543145973,-0.0962193902239299,-0.116389279946087,-0.243831266117886
9.3,3.07873035938489,2.16784838386912,-3.63694295076851,-0.0881326515773675,0.0541691429953808,0.0395758065182963,-1.90913538900834,-0.799665824755026,-2.47078771726575,-0.167196242588323,-0.124170898459032,-0.145592702184674,5.27549238542833,0.00499070854351726,0.0010493690431198,0.00502253885568282,-1.90913538900834,-0.799665824755026,-2.47078771726575,-0.167196242588323,-0.124170898459032,-0.145592702184674,-0.531851829976166,-0.950470146010019,0.684618609904026,0.40111950252264,0.0768372022029684,0.212465334448746
9.4,2.94168358463332,2.1453181666828,-3.84882875758505,-0.202250734681703,0.0103707005115609,-0.0375059973137685,-1.98149897101535,-0.615522524555775,-2.16914374708997,0.134669875567138,0.0179778544376636,0.127515840423297,5.202289270794,0.000621685370966591,-0.000829839982321289,-0.00426470900701694,-1.98149897101535,-0.615522524555775,-2.16914374708997,0.134669875567138,0.0179778544376636,0.127515840423297,-0.183996926849187,-2.08458319610011,0.381953328853131,0.049909166110475,-0.0646421017414011,-0.179447773227243
9.5,2.7385558345267,2.14091175751015,-3.90424691117595,-0.110975482719987,0.0407357350914112,0.0454451400813155,-1.96469767039169,-1.18901057939208,-2.27765482383245,-0.0670998298558946,-0.0959569455857301,-0.1078894030459,5.28962976158295,0.00426732460909566,0.00102379622046754,0.00295884185854302,-1.96469767039169,-1.18901057939208,-2.27765482383245,-0.0670998298558946,-0.0959569455857301,-0.1078894030459,-0.374515824029763,-1.1898726463128,0.695459201843782,0.343066882006631,0.0752122266183036,0.125329380984671
9.6,2.65053194897252,1.86831184604745,-4.04337475284927,-0.168616899924046,0.0093961935351167,-0.030548858667147,-2.00844221898205,-1.01466703341591,-2.1200024810997,0.118692591100365,0.00440217328506767,0.0731781144116379,5.27844441738134,0.00143423372143715,-9.57886521293655e-05,-0.00201859936487677,-2.00844221898205,-1.01466703341591,-2.1200024810997,0.118692591100365,0.00440217328506767,0.0731781144116379,-0.151854081208625,-1.76783338312538,0.596709726761128,0.115347946591838,-0.00859436533350745,-0.0847387033066153
9.7,2.50175097394643,1.8859716540997,-4.11897487733143,-0.0836364565090116,0.0590162071734971,0.0519107279864066,-1.95759128938826,-1.33213601964538,-2.11354654932576,0.0146630465105508,-0.0390427748471187,-0.0330695456264762,5.30849852155631,0.00131580322290616,-0.000509636937170535,-0.000891193396007422,-1.95759128938826,-1.33213601964538,-2.11354654932576,0.0146630465105508,-0.0390427748471187,-0.0330695456264762,-0.577161062722242,-0.918117297501573,0.751466373054818,0.105370785040677,-0.0419315343763803,-0.0371861545019722
9.8,2.37291910008609,1.65151186277104,-4.2583504662766,-0.14415130439943,0.0181487531214593,-0.0117031158359917,-2.1561057332169,-1.22575839723152,-2.06907810009558,-3.12406818720329e-05,-0.0734289839665417,-0.0268885016680808,5.39528780658852,0.00390766861531127,0.00109981160606292,0.0018275788510399,-2.1561057332169,-1.22575839723152,-2.06907810009558,-3.12406818720329e-05,-0.0734289839665417,-0.0268885016680808,-0.211920929124348,-1.54772002820473,0.866899095607485,0.314615900899483,0.082588964087842,0.0775033947829341
9.9,2.16658050480908,1.64404163678183,-4.35425064163123,-0.13490453890797,0.0140554106997234,0.00168170049894631,-2.05969198296919,-1.51932008990963,-1.93134254401538,0.131750875129757,0.00420850768826656,0.0460020825203201,5.36254617644591,0.00117046591915744,-2.93311649146561e-05,-0.00225417052895048,-2.05969198296919,-1.51932008990963,-1.93134254401538,0.131750875129757,0.00420850768826656,0.0460020825203201,-0.146944983857307,-1.44272815267315,0.81659628607685,0.0940637171887374,-0.00369866798487618,-0.0947676111022282
10,2.05762586965016,1.40991900160397,-4.42941344890962,-0.0882636474477394,0.0337614573590818,0.0217526511182302,-2.07766234317373,-1.64933505217888,-1.93322926145294,0.0152351120133375,-0.0502540855049244,-0.0557387040084275,5.42700190971586,0.0029671732333119,0.000682790557042527,0.00161195493311747,-2.07766234317373,-1.64933505217888,-1.93322926145294,0.0152351120133375,-0.0502540855049244,-0.0557387040084275,-0.344054181409173,-0.964482231385508,0.995591129495638,0.238733286182634,0.0502362192126239,0.06834384425525
10.1,1.92947785728644,1.27301302656684,-4.53784846485999,-0.120626725667125,0.019706441669206,-0.00959681826059816,-2.14046904593565,-1.59811464305753,-1.79975604775602,0.11026602674019,-0.00933249637202897,0.0400172482775654,5.42561209828937,0.00157180516714399,0.000118146697657853,-0.00143797650523379,-2.14046904593565,-1.59811464305753,-1.79975604775602,0.11026602674019,-0.00933249637202897,0.0400172482775654,-0.224792721088667,-1.3036783503666,0.960281219900752,0.126499970582986,0.00792658304993302,-0.0603765515585888
10.2,1.7250878110293,1.16280811761452,-4.62916609142549,-0.107441018395795,0.00655459456529973,-0.000346977309230403,-2.18319284434239,-1.8596994683404,-1.80042418117522,0.0346122156309134,-0.0576956331148007,-0.0534413551685321,5.52664095534024,0.00416982509261929,0.00158180694029502,0.00255667889808883,-2.18319284434239,-1.8596994683404,-1.80042418117522,0.0346122156309134,-0.0576956331148007,-0.0534413551685321,-0.0724427684276481,-1.18526730749733,1.17931000800582,0.335848377615038,0.119813642151658,0.108154830575962
10.3,1.57678072841972,0.946577191476691,-4.72783626655013,-0.128143719110213,-0.0121012167240144,-0.0349889939033535,-2.14197242957663,-1.93656154457063,-1.61546770981143,0.16097519981485,0.0109708582504685,0.0420146287839829,5.50314230679157,0.00259962342702046,0.00100918871821661,-0.000316235159292706,-2.14197242957663,-1.93656154457063,-1.61546770981143,0.16097519981485,0.0109708582504685,0.0420146287839829,0.0828103089500333,-1.41028949314935,1.10524287377248,0.209473992326755,0.0767920563858021,-0.0131009175708827
10.4,1.49837021042637,0.840869657829087,-4.71849252728309,-0.0279181316266813,0.0591660159531214,0.0472899714600938,-2.02890085385787,-2.05255272412194,-1.55549483113752,0.142397119061147,0.0278315131703675,0.0144931049033059,5.44693158215257,-0.000939747452361452,-0.0014218738572629,-0.00291644069557622,-2.02890085385787,-2.05255272412194,-1.55549483113752,0.142397119061147,0.0278315131703675,0.0144931049033059,-0.628824224546809,-0.334196415023255,1.06056334756452,-0.0761291726645902,-0.110874417118219,-0.122826908560296
10.5,1.36398605812232,0.612935515610964,-4.82866617580257,-0.0657220172579132,0.0280342389773887,-1.69123570711027e-05,-2.32181523265623,-1.88746878014186,-1.57981150534785,-0.0357459868368897,-0.104845986892513,-0.0784977729912746,5.58862040927907,0.00451070151306362,0.00168957557892188,0.00372350900602224,-2.32181523265623,-1.88746878014186,-1.57981150534785,-0.0357459868368897,-0.104845986892513,-0.0784977729912746,-0.31264041509392,-0.734056810877716,1.33872768011204,0.363341615173213,0.128343480545329,0.157336236934722
10.6,1.10379789968014,0.598192192201612,-4.91695573784164,-0.12129340911094,-0.0167461872402912,-0.0275944980479968,-2.2526077536896,-2.02808051984455,-1.35845539223677,0.213807102717145,0.0366044341001352,0.0829605569699817,5.54967830730078,0.00110038874411461,0.000270120522945006,-0.00260668405411152,-2.2526077536896,-2.02808051984455,-1.35845539223677,0.213807102717145,0.0366044341001352,0.0829605569699817,0.147373275102044,-1.34755933081189,1.20626444062719,0.0886657311512962,0.0204040285085984,-0.109805956040445
10.7,0.950107989115989,0.362782118869812,-4.94758618119183,-0.0447524611023224,0.0106323216086748,0.00702033893268809,-2.18696659930929,-2.35563423577988,-1.38170029457531,0.053343175232318,-0.0459029193571299,-0.0848873978482083,5.64552715694384,0.00388819656585666,0.00159084229452382,0.0037029301054041,-2.18696659930929,-2.35563423577988,-1.38170029457531,0.053343175232318,-0.0459029193571299,-0.0848873978482083,-0.116378527289938,-0.505963295546901,1.46911187554705,0.313183288428128,0.120841098058514,0.156417323099989
10.8,0.8687020912065,0.0975389416821528,-5.01991365863054,-0.0824070171244195,-0.00611696663844672,-0.0421301414480546,-2.22321300405704,-2.17514717905717,-1.14459389374579,0.19964690901447,0.0277871295925718,0.0748285415574972,5.57161247069824,0.00150134699913248,0.000594676027201699,-0.00152881746224205,-2.22321300405704,-2.17514717905717,-1.14459389374579,0.19964690901447,0.0277871295925718,0.0748285415574972,0.0292386602362937,-0.919288142913749,1.29520222713689,0.121009083170904,0.0454500942868673,-0.0643558600444772
10.9,0.691004681139846,0.0373348646518514,-5.00859900319532,-0.0193410998947574,0.0212767448051516,0.0189548856998887,-2.19790928410126,-2.36195327956655,-1.18629873606073,0.104120705985562,-0.0118459167588981,-0.0446431933352398,5.6415172103573,0.00182029616504599,0.000618130526038766,0.00122819338614123,-2.19790928410126,-2.36195327956655,-1.18629873606073,0.104120705985562,-0.0118459167588981,-0.0446431933352398,-0.235824171690784,-0.222722452560803,1.46837077809566,0.146468291836305,0.0463733425077393,0.0519648853219212
11,0.569501115975695,-0.188781041465833,-5.08447798726704,-0.0421427946588472,0.0126735062174439,-0.0207484951043447,-2.26401724628269,-2.21593970436382,-0.99560836510751,0.132884780883304,-0.00355285219368921,0.0241937838509233,5.60666778968736,0.00181690516611878,0.000519578211027268,-0.000151937626490848,-2.26401724628269,-2.21593970436382,-0.99560836510751,0.132884780883304,-0.00355285219368921,0.0241937838509233,-0.151753069084351,-0.469374039094821,1.39247980730687,0.146353659472773,0.0393860818732283,-0.00628291881434298
11.1,0.412306854345113,-0.233583120268819,-5.04963386249612,0.00162852459923996,0.0404477735944058,0.0321009476339386,-2.2199850612216,-2.27200350566421,-0.956246145717587,0.159601848693778,0.0160232220540866,0.014334784140065,5.60349393240048,-0.000647941678817155,-0.000924926005883141,-0.00218942240748211,-2.2199850612216,-2.27200350566421,-0.956246145717587,0.159601848693778,0.0160232220540866,0.014334784140065,-0.453525814028103,0.00369664366690993,1.38780682422373,-0.0525027692121375,-0.0719172613799563,-0.0922668116628097
11.2,0.28257548301566,-0.413971946964404,-5.09007880489621,0.0213732870927322,0.0484121021194224,0.0300432097331475,-2.32516999382281,-2.17343114867144,-0.874751843539494,0.0575256297350834,-0.0430338717056652,-0.0332642483120918,5.63112860596613,0.000815619302732321,-0.000308475034206581,0.000155778492234726,-2.32516999382281,-2.17343114867144,-0.874751843539494,0.0575256297350834,-0.0430338717056652,-0.0332642483120918,-0.551876327415683,0.224216668833488,1.43649264937187,0.0654665188941585,-0.0245196830024336,0.00667543698517995
