time,x,y,z,roll,pitch,yaw,xdot,ydot,zdot,p,q,r,thrust,roll angle,pitch angle,yaw angle,_xdot,_ydot,_zdot,_p,_q,_r,_xddot,_yddot,_zddot,_phiddot,_thetaddtot,_yawddot
0,3.01841953230695,2.01841953230695,0.0184195323069548,0.0184195323069548,0.0184195323069548,0.0184195323069548,0.0184195323069548,0.0184195323069548,0.0184195323069548,0.0184195323069548,0.0184195323069548,0.0184195323069548,8.95097014134856,-0.00530850846233548,0.00452043117997586,-0.00177736740078055,0.0184195323069548,0.0184195323069548,0.0184195323069548,0.0184195323069548,0.0184195323069548,0.0184195323069548,-0.335687933576593,0.323598750256385,8.08586721411782,-0.42810563144913,0.347725586484565,-0.0749944083320797
0.1,1.82036642022637,1.22036642022637,0.0203664202263731,0.0198925980405026,0.0197180346377238,0.0192523567402645,-0.0830148588241859,0.118715979101103,4.4601091386209,-0.225675573782047,0.20129267976531,-0.0313398020872169,5.53081618653604,-0.000518912839315786,-0.00137240848610645,0.000537506211999249,-0.0830148588241859,0.118715979101103,4.4601091386209,-0.225675573782047,0.20129267976531,-0.0313398020872169,-0.2222517912926,0.215791478470427,1.24729392464914,-0.0418507372731467,-0.105566934427707,0.0226795011107268
0.2,1.96250384037887,1.38713837967479,2.05554630500806,-0.10159776656159,0.0950736544527681,-0.0142652236320081,-0.058748957321105,0.0614317446511992,1.0945380659718,-0.0411425041675915,-0.0371415314682184,0.0102809624148687,6.75206090340005,0.000588957163364065,0.000452670542049376,0.000185712687356266,-0.058748957321105,0.0614317446511992,1.0945380659718,-0.0411425041675915,-0.0371415314682184,0.0102809624148687,-1.29475001910173,-1.35129774855819,3.56381480938298,0.0475210410207131,0.0348440872229172,0.00784750664372542
0.3,1.97436807727576,1.37224399828862,0.780343095804408,-0.0247430059395613,0.00276608419724723,0.0103068953590548,-0.300920612385774,-0.203247714462382,2.52555832373766,0.00828295133733933,0.0366690935919295,0.00724431837255538,6.47584681588959,-0.00337121953412099,0.00124129319834681,-0.000844304303513874,-0.300920612385774,-0.203247714462382,2.52555832373766,0.00828295133733933,0.0366690935919295,0.00724431837255538,-0.0325099694948592,-0.320783244101281,3.13767968184481,-0.271868385087564,0.0954897908584126,-0.035613173070238
0.4,1.83930354842582,1.23361556924646,1.51510219965749,-0.0243695690952265,0.0145017451738824,-0.0106682711633024,-0.210720647396823,-0.156062492348227,2.36111908205259,-0.181644912556687,0.0553193232278364,-0.0328268966251432,6.08920338875917,0.000372130664737796,3.47351602044789e-06,0.00204383643621176,-0.210720647396823,-0.156062492348227,2.36111908205259,-0.181644912556687,0.0553193232278364,-0.0328268966251432,-0.179705260812571,-0.294852821625897,2.36351056480915,0.0300018255943101,0.000257582151581476,0.0862511516263216
0.5,1.91949310236698,1.30182070166474,1.6082517188687,-0.0660264340370713,0.070650271527155,0.0161638527375463,-0.156576757523197,-0.0969970546939196,2.13092588502169,0.00912012534440655,0.0465065414137174,0.0703581639385205,6.17537286973356,-0.00334026592797891,-0.00277842303991396,-0.0040843404266909,-0.156576757523197,-0.0969970546939196,2.13092588502169,0.00912012534440655,0.0465065414137174,0.0703581639385205,-0.856673347752128,-0.828838130161711,2.48308986586393,-0.269309421806978,-0.213621385756731,-0.172305723104909
0.6,1.89157578603838,1.28099180916236,1.61514094141005,-0.0186778125490267,0.0377962161875106,0.0312362385700011,-0.312359261241501,-0.245702458465836,2.32365754560911,-0.181421254198343,-0.0979699011212301,-0.0935403696779886,6.0061001864696,-0.000859112126788515,0.0011747055628448,0.00295594808271872,-0.312359261241501,-0.245702458465836,2.32365754560911,-0.181421254198343,-0.0979699011212301,-0.0935403696779886,-0.44660041018608,-0.238412730981501,2.19152762122256,-0.0693999739901659,0.0902108320891619,0.124757088211179
0.7,1.85105598975859,1.24801721832847,1.8825258715473,-0.073932687318713,0.00850922660357244,-0.0059171787508956,-0.27879158621406,-0.191525723761277,2.2814386174054,-0.0576133653723636,0.0896062327132731,0.0886099902908456,5.81116520015556,-0.00247228091302206,-0.00285058863221133,-0.00390474022781203,-0.27879158621406,-0.191525723761277,2.2814386174054,-0.0576133653723636,0.0896062327132731,0.0886099902908456,-0.103703756171283,-0.857888920693164,1.78016117509605,-0.199278534953063,-0.219010609905398,-0.1647234190759
0.8,1.81476706615691,1.22512386164714,1.95968157260835,-0.0552546940525975,0.058650433838967,0.0408194874971204,-0.333106256934437,-0.308945620737553,2.15688363552878,-0.157863150955861,-0.105544364836083,-0.0884548611431233,5.84083407736427,-0.000753552031753111,-0.00127955481967159,0.00229193940785406,-0.333106256934437,-0.308945620737553,2.15688363552878,-0.157863150955861,-0.105544364836083,-0.0884548611431233,-0.656800721558678,-0.672501623887655,1.83378483377409,-0.0608707183910706,-0.098638048853796,0.0967578940166913
0.9,1.78843513077669,1.17693453925875,2.0529873135923,-0.0958740415177396,-0.0133848101601564,-0.023758483678867,-0.365756828692827,-0.355243995727813,2.28350213062315,-0.0817788207550217,-0.0347906826306704,0.0565454369873142,5.60933846251329,-0.00140044313859928,-0.000591734424168238,-0.00153503131290078,-0.365756828692827,-0.355243995727813,2.28350213062315,-0.0817788207550217,-0.0347906826306704,0.0565454369873142,0.12391100525901,-1.07718055815847,1.35615601073284,-0.112847351700252,-0.0451574062523073,-0.0647267975101052
1,1.70298002877995,1.08919060854226,2.20360541389395,-0.113440666917041,-0.0309047149466088,-0.00463279986543106,-0.446069384753291,-0.499993546151538,2.09105811530286,-0.147631214277498,-0.0528307776034352,-0.0639921919232873,5.60729172452258,0.00148837026176909,-0.000759409384418251,0.00325983497993474,-0.446069384753291,-0.499993546151538,2.09105811530286,-0.147631214277498,-0.0528307776034352,-0.0639921919232873,0.338416185989096,-1.27104444019813,1.32718108193002,0.120021982056748,-0.058457141469002,0.137584674317243
1.1,1.66338659662647,1.02509200086536,2.25892224022805,-0.135003205196924,-0.0285451727273201,-0.0437687683530277,-0.401153571197298,-0.585479393053939,2.17577649262813,-0.0150591600662205,-0.0451659131983921,0.0557778447275147,5.45374033314591,-0.000924820267387196,-0.00181289925689656,-0.000560565490294499,-0.401153571197298,-0.585479393053939,2.17577649262813,-0.0150591600662205,-0.0451659131983921,0.0557778447275147,0.243950173522556,-1.48016740332629,0.993829286715819,-0.0745217360960555,-0.138923716345297,-0.0236211113555034
1.2,1.69224726300794,1.00010609436679,2.45986371342462,-0.0447118338350959,0.0098837423002661,0.045525330835507,-0.316576480809788,-0.627246990498266,2.10785214401813,-0.083537566732543,-0.0661137804701874,0.00485961762293322,5.3840946622968,-0.00360854323074624,-0.00339776699574894,-0.00230303548495233,-0.316576480809788,-0.627246990498266,2.10785214401813,-0.083537566732543,-0.0661137804701874,0.00485961762293322,-0.0843077449617082,-0.485645076343861,0.946902081652231,-0.291009678342047,-0.261339959145053,-0.0971546482837845
1.3,1.65952906828605,0.906224977034748,2.52834772527858,-0.113784666993244,-0.0381833676418519,-0.0107791209984989,-0.358531782951746,-0.801206668810753,2.02193285521643,-0.236746529727768,-0.169364563769169,-0.066622075391259,5.29663127863849,0.00389728834827586,0.000490782339751876,0.00367386226366216,-0.358531782951746,-0.801206668810753,2.02193285521643,-0.236746529727768,-0.169364563769169,-0.066622075391259,0.388785489558976,-1.20701240440592,0.707089830657765,0.314297309101599,0.0377332879094418,0.155017663129533
1.4,1.64814558400538,0.818988674606231,2.63050090389225,-0.165821906317507,-0.0689036595743499,-0.0239688703004463,-0.327161018550575,-0.805310733550883,2.0079941425395,0.0973974345461276,0.00673997771495016,0.0861554584472755,5.17896687529967,-0.00232212247784452,-0.00332257422193043,-0.00294047174129214,-0.327161018550575,-0.805310733550883,2.0079941425395,0.0973974345461276,0.00673997771495016,0.0861554584472755,0.662174910947208,-1.72607767719805,0.381612817478665,-0.187357860815662,-0.254809976490728,-0.124126590645219
1.5,1.61416495892038,0.749242655456915,2.73010953915875,-0.0430475147818316,-0.0137520138626894,0.0303497406248526,-0.324868736094771,-0.933869595188948,1.92378374076155,-0.173979876454237,-0.171660658129641,-0.0740429018122909,5.18703715514569,-0.000641940808687908,-0.00213948564040593,0.00209138504911769,-0.324868736094771,-0.933869595188948,1.92378374076155,-0.173979876454237,-0.171660658129641,-0.0740429018122909,0.15600938458222,-0.441909595028462,0.553483718190126,-0.0517408141621799,-0.164814174283229,0.0881941931916431
1.6,1.59517268791593,0.654481827244751,2.82126172021333,-0.159807760893211,-0.0917498824503442,-0.037650786930436,-0.248444845633693,-1.10763773230329,1.91265612953383,-0.109414688031869,-0.127272816037697,0.0397519788369143,4.99463501221242,0.00369401615812228,-0.000186420403206159,-0.000123155269295254,-0.248444845633693,-1.10763773230329,1.91265612953383,-0.109414688031869,-0.127272816037697,0.0397519788369143,0.843092027984015,-1.62246218540308,0.0105054813975567,0.297756639281825,-0.0136770755762593,-0.00531617844983004
1.7,1.58231746110127,0.488056631129813,2.89623857132493,-0.163068302059356,-0.1022247777566,-0.0143672284308587,-0.296570058958906,-1.1399208465356,1.74504859739623,0.0658408328234739,-0.0779288413942184,-0.0263023766551442,5.02895599816364,-5.6212457592125e-05,-0.00196289256558061,0.00189147518050763,-0.296570058958906,-1.1399208465356,1.74504859739623,0.0658408328234739,-0.0779288413942184,-0.0263023766551442,0.989198412295617,-1.64724900578739,0.0626719250620589,-0.00458339238471851,-0.150817921490807,0.0796300207842479
1.8,1.5394704919396,0.417458892649268,2.94457356985425,-0.087921724032558,-0.0872198751954053,-0.0380059522197534,-0.213241336732976,-1.30141881742504,1.77775937493354,-0.0861227962902959,-0.151823144064957,0.0216352412338,4.90573419064445,0.00113822691182383,-0.00133272601559391,0.000730697645172307,-0.213241336732976,-1.30141881742504,1.77775937493354,-0.0861227962902959,-0.151823144064957,0.0216352412338,0.818018987594142,-0.893257405205039,-0.0735813596058961,0.0916131750080393,-0.102009232961133,0.0306301379028758
1.9,1.59764800191864,0.326898035509962,3.10701744903984,-0.110473331500788,-0.0826820385858877,0.0238299025954856,-0.0571401856240454,-1.39727581934084,1.65253804500902,0.00436367136139806,-0.0974778910845268,0.0341597848553006,4.79763052105603,0.000491919903750854,-0.0024634409360325,-0.00277698677047876,-0.0571401856240454,-1.39727581934084,1.65253804500902,0.00436367136139806,-0.0974778910845268,0.0341597848553006,0.812604174131804,-1.03879811315355,-0.305811060244782,0.0395679139900589,-0.189255262042277,-0.117445757670629
2,1.62405877703538,0.172759453739288,3.12577483703738,-0.0937932620326474,-0.0861571918051307,0.01253394120225,-0.0179119176222614,-1.49649711667894,1.50563204135391,-0.0359915019945701,-0.166401719865675,-0.061872828514962,4.82281925042501,0.00168526351660446,-0.000896908699791053,0.00230189585652864,-0.0179119176222614,-1.49649711667894,1.50563204135391,-0.0359915019945701,-0.166401719865675,-0.061872828514962,0.837622732122762,-0.892941721533237,-0.242378282474975,0.136020670588207,-0.0692214644099567,0.0968149443888128
2.1,1.61848391764736,0.0283049879051662,3.14616218979086,-0.1260423579136,-0.140002852068315,-0.0458999862992585,0.0412656822997078,-1.63607408919796,1.50036234233442,0.00173588683697737,-0.119305163058024,0.0380928787902228,4.72742615370928,0.00343993523439285,-0.000344145231177028,0.000350893885843897,0.0412656822997078,-1.63607408919796,1.50036234233442,0.00173588683697737,-0.119305163058024,0.0380928787902228,1.25300551090844,-1.24736548665431,-0.521927611854288,0.277044830208303,-0.0258393461755375,0.0144191569974796
2.2,1.64034524815267,-0.127997679779068,3.23193285840001,-0.110711735628572,-0.12483844614712,-0.00358095944262558,0.0892086556359681,-1.69008502850367,1.40023025877149,0.0920710590048912,-0.101196985441918,-0.0017331323143132,4.67559600911738,0.00126884642035241,-0.00173438932252028,0.000237664675685075,0.0892086556359681,-1.69008502850367,1.40023025877149,0.0920710590048912,-0.101196985441918,-0.0017331323143132,1.15352272356209,-1.03731042098134,-0.58838601010393,0.102260971448613,-0.133315129633527,0.0095933271882503
2.3,1.68549482425873,-0.214628632090265,3.30885011799029,-0.0383404024788746,-0.0943211221962881,0.0139025467244387,0.259813854622746,-1.76680680395508,1.32413251613408,0.0345215686884352,-0.134904401144826,0.0221946560265865,4.57574949829154,0.000247151696087367,-0.00172326555070061,-0.00171972962408373,0.259813854622746,-1.76680680395508,1.32413251613408,0.0345215686884352,-0.134904401144826,0.0221946560265865,0.866060367674855,-0.338778880578812,-0.705874440997761,0.0198425736775655,-0.132442265111643,-0.0730111969215509
2.4,1.74077073818029,-0.379997578320132,3.33819229325923,-0.0764742283946653,-0.133117656619548,0.00747877993670743,0.36018366156874,-1.94544941538251,1.17947070040267,-0.0193666439206264,-0.155839795111896,-0.0373304192218737,4.57737026089162,0.00506116514325413,0.000748249243716721,0.00141816247409034,0.36018366156874,-1.94544941538251,1.17947070040267,-0.0193666439206264,-0.155839795111896,-0.0373304192218737,1.21670720662538,-0.690339420746898,-0.762772298726592,0.408308600404827,0.0573853337343886,0.0593488378855826
2.5,1.81400402193675,-0.572604832951729,3.35307241186121,-0.0878621159422831,-0.14158907992661,-0.011744034864406,0.435898339139778,-1.93371148482312,1.14468501191453,0.20079558485383,-0.0480880454211631,0.0407669046523457,4.51343463805615,0.000945936709257499,-0.00161923677814091,-0.00137728801635044,0.435898339139778,-1.93371148482312,1.14468501191453,0.20079558485383,-0.0480880454211631,0.0407669046523457,1.25953648805438,-0.806947128536495,-0.907934335502429,0.075983586641912,-0.124243442970185,-0.0586683522641535
2.6,1.85550161983489,-0.689606308898566,3.40785700608256,0.00944212410533626,-0.101584218906987,0.023625587894788,0.540770486290953,-1.99015277773706,1.02147987913079,0.0402822377808486,-0.146148231975245,-0.0227796211107296,4.46173082319152,0.00156085006406221,-0.000624640540111737,-2.89917387949593e-05,0.540770486290953,-1.99015277773706,1.02147987913079,0.0402822377808486,-0.146148231975245,-0.0227796211107296,0.902641374078071,0.105608101851898,-0.932936677420006,0.126093299274152,-0.0482394111864152,-0.00171994455858196
2.7,1.93047688624465,-0.828592390685263,3.42844625902636,-0.0452111669948444,-0.144319879588954,0.00320384337024255,0.709474391016329,-2.13452445852076,0.976854382429083,0.0749974640653011,-0.106374636375213,0.0111596785905525,4.40200819152068,0.00489988872259782,0.00104003506674641,-0.000700100071181282,0.709474391016329,-2.13452445852076,0.976854382429083,0.0749974640653011,-0.106374636375213,0.0111596785905525,1.26616294316876,-0.393849707119116,-1.10641348164971,0.395066981901115,0.0800683560904683,-0.0300680901688
2.8,2.03513562817439,-1.05345731796329,3.45298889583924,-0.034040187062456,-0.140009495457076,0.00758039561667465,0.747204169863541,-2.09080916149905,0.817778675118298,0.224987445100807,-0.0440731753009651,-0.0100883335550746,4.42865533773931,0.00161591434791651,-0.0006236672243554,7.78729594061209e-05,0.747204169863541,-2.09080916149905,0.817778675118298,0.224987445100807,-0.0440731753009651,-0.0100883335550746,1.23759350437248,-0.292073321412438,-1.04444195188911,0.130394212001977,-0.0480278032880491,0.00275717943097533
2.9,2.04735540271222,-1.1980464139525,3.40866048914846,0.00666616870087314,-0.151631741268471,-0.0337050802724645,0.835675101823425,-2.19666436195978,0.7632758614405,0.0707779240759558,-0.139962424970168,-0.0209489975411037,4.42385270342358,0.00546347059900773,0.00220466138307905,0.00253305030506697,0.835675101823425,-2.19666436195978,0.7632758614405,0.0707779240759558,-0.139962424970168,-0.0209489975411037,1.33765666738339,0.0139104713154434,-1.06400822631619,0.440526030645037,0.169630430113696,0.10644060322759
3,2.16798824414427,-1.34640080537345,3.46384438778833,-0.0175616354967859,-0.1663842117597,-0.00879676200847073,1.00925417883774,-2.19539402616837,0.75851673550638,0.273986341250666,0.00595378238357094,0.0632043305956699,4.31249244155532,0.00258080136119874,0.000427325403447213,-0.00267431399349846,1.00925417883774,-2.19539402616837,0.75851673550638,0.273986341250666,0.00595378238357094,0.0632043305956699,1.42684128899807,-0.164018822484423,-1.30543734247503,0.207695567107235,0.0330715738624069,-0.113278690123979
3.1,2.30403829057137,-1.48660397756846,3.51870871177807,0.0926477873792643,-0.0922219062827619,0.0447688977666875,1.13653588144393,-2.15383760036796,0.56860739641081,0.182489206273888,-0.0440738813233252,-0.0404436983265812,4.26613224798066,0.000718032834197538,-0.000671471078911347,-0.000272430579140298,1.13653588144393,-2.15383760036796,0.56860739641081,0.182489206273888,-0.0440738813233252,-0.0404436983265812,0.746265839751009,0.823588570339755,-1.35042988135517,0.0585299825385286,-0.051852025109452,-0.0117977062962018
3.2,2.40693857485804,-1.61746559718901,3.47078796708469,0.0611622509414687,-0.124380979862332,-0.00363268788419238,1.33471421785782,-2.24970621750934,0.576817821983777,0.102178649774517,-0.101135420353486,0.00342368110602589,4.24920313633365,0.00601906981520113,0.0037015553065782,-5.98259142059148e-05,1.33471421785782,-2.24970621750934,0.576817821983777,0.102178649774517,-0.101135420353486,0.00342368110602589,1.05422538402137,0.515631388192952,-1.3930146556795,0.485355836230437,0.284746749541732,-0.00274241503486783
3.3,2.52296087362229,-1.90154567942259,3.45258429380439,-0.0245007893137547,-0.210119066404688,-0.0515289610793026,1.29517111846363,-2.24226024339137,0.385034934798802,0.291010189624679,0.0325613217139185,-0.0413645574555336,4.51272887498664,0.0070837545712349,0.00368147025517744,0.00443741974121341,1.29517111846363,-2.24226024339137,0.385034934798802,0.291010189624679,0.0325613217139185,-0.0413645574555336,1.86804563990042,-0.317746326409434,-0.985696607898442,0.571276314274404,0.283189088444114,0.187057509270966
3.4,2.62544441880947,-1.99370639824058,3.43572580677846,0.109828277390617,-0.116587019320445,-0.0332301759452427,1.46143482304442,-2.08813664238048,0.532832042211659,0.396737572098627,0.0747749273807095,0.0961066400862643,4.1349313619632,-0.00126299443254932,-0.000291526431158503,-0.00304942080739402,1.46143482304442,-2.08813664238048,0.532832042211659,0.396737572098627,0.0747749273807095,0.0961066400862643,0.985767670459493,0.874171325556044,-1.64576604536348,-0.102580243616093,-0.0224102221867217,-0.128689197643879
3.5,2.74936731191156,-2.04877963266215,3.52514351808397,0.172827575415695,-0.0976247005167457,0.0295499591593064,1.64699597631366,-2.17976330345667,0.217132104831358,0.0550132209800487,-0.0663778002242366,-0.0691366135572788,4.23068425353198,0.00565592227092954,0.0041288272203255,0.00189464064475972,1.64699597631366,-2.17976330345667,0.217132104831358,0.0550132209800487,-0.0663778002242366,-0.0691366135572788,0.769094434612329,1.47845756662178,-1.51437380382404,0.45706106274144,0.317772011709044,0.0801201234096356
3.6,2.96249999300674,-2.26047380489939,3.430151942224,0.0556666894035128,-0.147917337236705,-0.0252105674598173,1.80545848258327,-2.06383534940437,0.363594786629771,0.363685485650783,0.120270723394406,0.0493747686790531,4.25346497002356,0.00433072879291243,0.00370066102333744,-0.000618262202536866,1.80545848258327,-2.06383534940437,0.363594786629771,0.363685485650783,0.120270723394406,0.0493747686790531,1.26333014598556,0.441602523650534,-1.40899760991466,0.349004462872684,0.284616077699305,-0.0258751393581871
3.7,3.13001486308677,-2.39736858869174,3.50699617951751,0.180263104187167,-0.0756705565427714,0.0014838585560121,1.82446104345006,-1.92120919241811,0.0827186769919728,0.317899380004118,0.10758468995565,-0.0182790801427237,4.19365312706202,0.000276187592646545,0.00130373226163531,0.00099945839288104,1.82446104345006,-1.92120919241811,0.0827186769919728,0.317899380004118,0.10758468995565,-0.0182790801427237,0.621560516338517,1.50467085564054,-1.58220963191312,0.0228583302209229,0.100524514186355,0.0425474864786996
3.8,3.24417235984778,-2.42678792015946,3.39363541056543,0.193710137815785,-0.0680171738780372,-0.0126016909895502,2.0044994365017,-1.86855104744609,0.16102570571976,0.16380965180111,0.0239909369826418,0.0260660519945703,4.13186883073858,0.00429655239139294,0.00484175780009797,-0.000235668445317261,2.0044994365017,-1.86855104744609,0.16102570571976,0.16380965180111,0.0239909369826418,0.0260660519945703,0.57114045827933,1.58370601671634,-1.71957145960433,0.346762516892201,0.372604432508349,-0.00944270975990369
3.9,3.50036996533861,-2.54262289763971,3.48793394853401,0.170823331296013,-0.0682413469221563,0.0388268747727845,2.11385545340147,-1.6737189960088,0.0418964898613774,0.368078045894193,0.209155808769655,0.0251170308046213,4.0918943444898,0.000113473844445035,0.00202367344401736,-0.00243606083683437,2.11385545340147,-1.6737189960088,0.0418964898613774,0.368078045894193,0.209155808769655,0.0251170308046213,0.495500661879383,1.41149066922066,-1.76409604266552,0.00981640141232571,0.156137396064365,-0.102218697874738
4,3.66328302749001,-2.60826975946895,3.43571612979281,0.260720836750822,0.00285109584032153,0.0199205300952781,2.14712456954872,-1.53658263574045,-0.141234688434376,0.187996246482085,0.0955695776451695,-0.0389721785016685,4.09176471622258,0.00101369854076911,0.00236417777570846,0.00124787164140498,2.14712456954872,-1.53658263574045,-0.141234688434376,0.187996246482085,0.0955695776451695,-0.0389721785016685,-0.0645591095510026,2.10865884593432,-1.903069877346,0.0826798679727344,0.18282234729043,0.053302258356539
4.1,3.80717036496097,-2.67113297506225,3.34285447411146,0.190787026778018,-0.0471888154825845,-0.012991356954562,2.18389542754345,-1.35281325528492,-0.0485365794631389,0.219731235504317,0.104906499585826,0.0326802359173927,4.04395640629793,0.00334034990271453,0.00549663013971506,-0.000281138739112773,2.18389542754345,-1.35281325528492,-0.0485365794631389,0.219731235504317,0.104906499585826,0.0326802359173927,0.394487868011874,1.52872887190586,-1.87767997226883,0.269757551484591,0.423278022229449,-0.011181571963614
4.2,3.96340857943174,-2.74396760438261,3.39088784193329,0.191051570909512,-0.0584483774328545,-0.00864259546214756,2.14257824596658,-1.21870027888432,-0.402494528055983,0.30801421827156,0.231228271148365,-0.0189875701522754,4.18792641581413,0.001065936155251,0.00288004206736301,0.00193250251855953,2.14257824596658,-1.21870027888432,-0.402494528055983,0.30801421827156,0.231228271148365,-0.0189875701522754,0.494101941178235,1.58629170728599,-1.60058756376471,0.0866996823524494,0.222634854519656,0.0822496492539273
4.3,4.08977522119165,-2.74829991167583,3.21623072549286,0.263230435665675,0.0213040658866369,-0.0153583998747226,2.22245581295131,-1.00861329449073,-0.355041173575282,0.236290778228658,0.150542117403135,0.0448532620585369,4.06032918207212,-0.000565706546620043,0.00249956766462578,-0.00103690456925748,2.22245581295131,-1.00861329449073,-0.355041173575282,0.236290778228658,0.150542117403135,0.0448532620585369,-0.134560437954484,2.1153199887623,-1.97084142902913,-0.0451961041235484,0.193147278476157,-0.0430711426447677
4.4,4.26590424730047,-2.73974739921716,3.21965150441614,0.252321853385363,0.000350229614710235,0.0190144524218816,2.25541504358991,-0.801365192557101,-0.417831724549942,0.168479637035089,0.155967361061763,-0.0162080563621494,3.99768599762681,0.00106451026909787,0.00438856046395335,0.000195247519926606,2.25541504358991,-0.801365192557101,-0.417831724549942,0.168479637035089,0.155967361061763,-0.0162080563621494,-0.0406629169148021,1.99565592516365,-2.06779893712175,0.0866034483461451,0.3395467257271,0.00888893758192578
4.5,4.43733280872649,-2.75259980465121,3.1972148114541,0.223127716856595,-0.000314574887908453,-0.0193798094372848,2.22297962907685,-0.623766030667549,-0.651749471839913,0.229449699814814,0.22958207924368,-0.000876200435108747,4.0858221589965,0.000444665414270337,0.00304459058060173,0.00126492119506861,2.22297962907685,-0.623766030667549,-0.651749471839913,0.229449699814814,0.22958207924368,-0.000876200435108747,0.03754733187873,1.80784052510046,-1.84093018643577,0.0363800726455482,0.235906388563348,0.053957062221608
4.6,4.57482866087242,-2.72918583122604,3.06677668590768,0.264216643313781,0.0483339975343109,-0.0105880579779426,2.23167592020492,-0.407219291081692,-0.728952969641858,0.209954773826567,0.193634408217441,0.0276022440169435,4.04611162952337,-0.00148929157095057,0.00242531186518782,-0.000655132300163534,2.23167592020492,-0.407219291081692,-0.728952969641858,0.209954773826567,0.193634408217441,0.0276022440169435,-0.355012705290588,2.11718730614144,-2.00772077120712,-0.119730619002417,0.188389664235093,-0.0271817712509491
4.7,4.73898590503403,-2.66081143494634,2.99739142975995,0.283970340665231,0.0578456272924434,0.0166668993080941,2.23131941384325,-0.159148320866302,-0.780389898155489,0.135874405150927,0.194170732346209,-0.00230179069643825,3.96919937032197,-0.00148998548762373,0.00274610325298282,-0.000664151958080513,2.23131941384325,-0.159148320866302,-0.780389898155489,0.135874405150927,0.194170732346209,-0.00230179069643825,-0.47757098509184,2.21644323040005,-2.20227498354012,-0.11980497984538,0.213958730141347,-0.0276858555971442
4.8,4.92564140086678,-2.56981109615444,2.98333624991899,0.284557602672201,0.0922415775962994,0.0261822874565894,2.22044815409548,0.0950170153402472,-0.942887297829021,0.14870651393804,0.233573530859419,0.0142355522189327,3.93746031843813,-0.00301612689942826,0.00094143394332918,-0.00197281894501279,2.22044815409548,0.0950170153402472,-0.942887297829021,0.14870651393804,0.233573530859419,0.0142355522189327,-0.753832806504087,2.19176547325078,-2.28389375259667,-0.243050058342844,0.0751876981878527,-0.0830526360364152
4.9,4.9885708903418,-2.56112891095393,2.8038641134383,0.222171448684613,0.0463389151360945,-0.0431857804503793,2.01504201716296,0.230792384269671,-1.13795478101918,0.0136460956471979,0.1039557144197,-0.0808062783111227,4.06389859816659,0.00308668437112538,0.00515505427776385,0.00587662120998021,2.01504201716296,0.230792384269671,-1.13795478101918,0.0136460956471979,0.1039557144197,-0.0808062783111227,-0.289582924014159,1.80513064060985,-1.89048408264922,0.248917547239993,0.399865552491608,0.247950752033572
5,5.09071375517018,-2.46946478390569,2.69797209584488,0.196000886409387,0.0273281515628656,-0.0521749792231705,2.02741113580695,0.457817941671409,-1.24252579511397,0.293386669826086,0.305661340680546,0.118769335941528,4.08489565448432,-0.00413497037867101,0.00142256994452838,-0.00325179340278,2.02741113580695,0.457817941671409,-1.24252579511397,0.293386669826086,0.305661340680546,0.118769335941528,-0.135689744006278,1.60030752351514,-1.79962584171926,-0.333494047636027,0.110318971732906,-0.137306082121554
5.1,5.2618704552102,-2.3103637999558,2.58295505108441,0.365846896918523,0.161602609034142,0.0631435302214603,2.08228640772261,0.685898985484544,-1.33735667832661,0.0113154312988373,0.216534580479861,-0.0464832292037501,4.03848567615548,-0.00547035280347206,-0.00152499986098642,-0.000868076381064439,2.08228640772261,0.685898985484544,-1.33735667832661,0.0113154312988373,0.216534580479861,-0.0464832292037501,-1.39349152530947,2.80712070479293,-2.36582637603976,-0.441692870674907,-0.112444870319014,-0.0370278197115788
5.2,5.40154476644795,-2.19304520389855,2.43989889218795,0.245935900223597,0.13478136359839,-0.014569617782472,1.86791347928885,1.0665576193775,-1.2537713527652,-0.0614058530011774,0.0759888688072513,-0.00584904337228753,3.84814194496053,-0.000694813932008649,0.00355188359212016,0.000865133300392559,1.86791347928885,1.0665576193775,-1.2537713527652,-0.0614058530011774,0.0759888688072513,-0.00584904337228753,-0.975653719297664,1.88818417193635,-2.41299749444897,-0.0565908834614403,0.276569345521498,0.0358946283335949
5.3,5.46162931764882,-2.01339983425796,2.51378644758859,0.193937626315968,0.06827200615803,-0.00387306053268479,1.789193461081,1.13118478429003,-1.74178636696542,0.110308654013552,0.27357630844218,0.0192535173052005,4.05987320518967,-0.00351564491493155,0.000757058577013905,-0.00084738450053713,1.789193461081,1.13118478429003,-1.74178636696542,0.110308654013552,0.27357630844218,0.0192535173052005,-0.537471557445999,1.56696492958345,-1.86103610504737,-0.284108051260942,0.0613391346964422,-0.0364252910383537
5.4,5.56863458611542,-1.90082819791352,2.16388514399276,0.282605054906398,0.175641812759554,0.0117381684723847,1.75841627434649,1.33100430957408,-1.72624271079258,-0.00667670143720667,0.180424422919993,-0.008376399014813,4.12037763979232,-0.00535858536966474,-0.00124595895489267,-0.000201439375791104,1.75841627434649,1.33100430957408,-1.72624271079258,-0.00667670143720667,0.180424422919993,-0.008376399014813,-1.40974778472892,2.28161279878869,-2.01789490587699,-0.43312219290643,-0.0920053642877583,-0.00945571154127413
5.5,5.63339411299011,-1.76753997919861,1.99437996825687,0.210206403356325,0.123226361707429,-0.0250871957714416,1.50136278985733,1.61649301619932,-1.69344912081618,-0.122813101912525,0.0761482300898449,-0.0168570403769421,4.00484564198918,-0.00100527564543189,0.00291427691023712,0.00193653715814731,1.50136278985733,1.61649301619932,-1.69344912081618,-0.122813101912525,0.0761482300898449,-0.0168570403769421,-0.920610748552958,1.69494277699552,-2.03601779671459,-0.0821438302426895,0.227727339685304,0.0805810557862461
5.6,5.66063876675752,-1.56386532409229,1.99221011267726,0.154446362099921,0.0859169417319191,-0.0228706976703914,1.45408125412735,1.71555033508528,-2.00844379437683,0.046434804281714,0.247536269240384,0.0317782614518357,4.12404171829785,-0.0037916079882951,-0.000116530343827712,-0.000468586792865493,1.45408125412735,1.71555033508528,-2.00844379437683,0.046434804281714,0.247536269240384,0.0317782614518357,-0.670154438443913,1.2844895251363,-1.69015640141428,-0.306737622790894,-0.00606861846979444,-0.0209361788954682
5.7,5.76442663042006,-1.38755830260464,1.71680935222995,0.250557878827418,0.193272401028198,0.016760653528167,1.43625128624458,1.87915622438455,-1.99338074344026,-0.0617942323570326,0.152538273330544,0.000772505888851752,4.18956864701865,-0.00635230001002709,-0.00200503309747914,-0.000816664518690905,1.43625128624458,1.87915622438455,-1.99338074344026,-0.0617942323570326,0.152538273330544,0.000772505888851752,-1.5937387073157,2.05113788584172,-1.84364750350606,-0.513845306902551,-0.150265329390447,-0.0358727353016303
5.8,5.87329999147198,-1.1726697895181,1.58763350828052,0.227506485284053,0.187986826954722,0.0248468784684952,1.21898898848063,2.22021457771122,-1.95274888878695,-0.170174386221031,0.0904663209025107,0.0108678769488857,4.10233674747312,-0.0052273388251565,-0.000723806360115402,-0.00167957616653488,1.21898898848063,2.22021457771122,-1.95274888878695,-0.170174386221031,0.0904663209025107,0.0108678769488857,-1.53930658229009,1.81287216872676,-1.95756745305967,-0.423293709341972,-0.0517499942800648,-0.0724017301665126
5.9,5.87627156947012,-0.926414975268904,1.56668704850605,0.158517420336145,0.154206593872629,0.0170999881220203,1.04842647589857,2.35072880869437,-2.18169826594262,-0.15878142785492,0.125459017988965,-0.0229024572035606,4.13297350848918,-0.00398586697739705,-0.000878051912215835,0.000278563235707942,1.04842647589857,2.35072880869437,-2.18169826594262,-0.15878142785492,0.125459017988965,-0.0229024572035606,-1.2758276907411,1.28318804409634,-1.74454451165219,-0.323433002694266,-0.063463597040618,0.0102102782418689
6,5.86224974272458,-0.749555511685241,1.31052634017606,0.128410086028355,0.153428798011364,-0.0205041938908481,0.895328970419068,2.40267499337287,-2.27980697948178,-0.142712964635331,0.0972520038343437,-0.00094750931811197,4.23677599695295,-0.00373737397012612,-0.000791635341013552,0.00101239220189499,0.895328970419068,2.40267499337287,-2.27980697948178,-0.142712964635331,0.0972520038343437,-0.00094750931811197,-1.26181259227113,1.11120594295369,-1.50493324965073,-0.303170495241736,-0.0576693261736298,0.0411363785764926
6.1,5.89936004604417,-0.536864354662439,1.11755068983166,0.153044112318408,0.173419344774665,0.0155529263401977,0.799862710192654,2.55479521173229,-2.23517845846722,-0.127552944141677,0.11862548954245,0.0385929325135483,4.2518319073129,-0.00648665700662062,-0.00268459962295511,-0.00256893973244522,0.799862710192654,2.55479521173229,-2.23517845846722,-0.127552944141677,0.11862548954245,0.0385929325135483,-1.47015454119469,1.27365090428798,-1.53179021338629,-0.52496353380685,-0.203445422972636,-0.109986815349499
6.2,5.89514168919146,-0.333954241109271,0.968376998911063,0.131598432195601,0.166145013891015,0.00965536682175718,0.581988982860999,2.67691923264079,-2.33725741419906,-0.283807406307425,0.0181204999096172,-0.0604042466710909,4.31208501117178,-0.00301050837302146,-0.000663487535483747,0.0023674519789598,0.581988982860999,2.67691923264079,-2.33725741419906,-0.283807406307425,0.0181204999096172,-0.0604042466710909,-1.42480778807511,1.11794956561321,-1.37813068708515,-0.245431426566179,-0.0470596454146452,0.0982700390181059
6.3,5.850621706862,-0.124754630160654,0.799337588340898,0.0406805306548906,0.120658596386421,-0.0394690901238255,0.417111700158324,2.76656166730653,-2.36298218889829,-0.161105846664523,0.0902445137184465,0.0411890387579745,4.28941327322141,-0.00332051878812612,-0.00122565749655701,-0.000116528118847954,0.417111700158324,2.76656166730653,-2.36298218889829,-0.161105846664523,0.0902445137184465,0.0411890387579745,-1.01717456390475,0.389334713359049,-1.30059113090275,-0.269365344988325,-0.0921427167350592,-0.00640316565405164
6.4,5.82769662292849,0.0987470352569391,0.641661072747829,0.0866250234194649,0.157742529469445,0.00995699414747766,0.371609263507841,2.71501958856374,-2.38672998634591,-0.185317876121528,0.0633398089547437,-0.00713091397873219,4.33920005727031,-0.00487291204208872,-0.00238947603191781,-0.000163774447334434,0.371609263507841,2.71501958856374,-2.38672998634591,-0.185317876121528,0.0633398089547437,-0.00713091397873219,-1.3655793987751,0.737266474836741,-1.27148375894375,-0.395401979016647,-0.180842515502453,-0.00837184183932242
6.5,5.82929992006394,0.271886760753842,0.432831693291813,0.062352422364801,0.149701184200343,-0.0146955910044812,0.171797409192955,2.84066622408439,-2.44645959793488,-0.268438066756776,0.00837772574014539,-0.0111760416600374,4.43705810671866,-0.0030839464173839,-0.00137101258778149,0.0011810894380025,0.171797409192955,2.84066622408439,-2.44645959793488,-0.268438066756776,0.00837772574014539,-0.0111760416600374,-1.31266891698926,0.572315723910048,-1.05218671150574,-0.251062833854107,-0.10285923552742,0.048436358745378
6.6,5.78411122850838,0.506218315019124,0.304198088904891,0.0200867360068112,0.135178070133168,-0.00896546638879647,0.0475972262729427,2.89332086245655,-2.38721349835682,-0.202878051475465,0.0493933658210187,0.0260171400994579,4.3731575279189,-0.0040269773266868,-0.00235153083695879,-0.000852431204498625,0.0475972262729427,2.89332086245655,-2.38721349835682,-0.202878051475465,0.0493933658210187,0.0260171400994579,-1.17685241529492,0.186231481642163,-1.14522283703528,-0.326905206401593,-0.178780671647563,-0.0372182872928567
6.7,5.75995492497259,0.735965942515402,0.188436375639859,0.0497210319325014,0.168903271101042,0.0216970708103697,-0.0273259621476669,2.86936293753487,-2.451241433196,-0.246065103220435,0.0127132772231265,-0.00653589517461543,4.45348005064986,-0.0047254827207051,-0.0032364224019425,-0.000737453786320635,-0.0273259621476669,2.86936293753487,-2.451241433196,-0.246065103220435,0.0127132772231265,-0.00653589517461543,-1.50467358374516,0.410132883181871,-1.04063932372163,-0.383800354558971,-0.246594205691421,-0.0322760658719815
6.8,5.69642985144599,0.891662287525605,-0.0334586095312228,-0.0138682037866806,0.125039654361016,-0.0232032366251287,-0.296955241358723,2.90480713416261,-2.49090005610241,-0.318167523111533,-0.0567492174287514,-0.0314579691428319,4.50036020226897,-0.00108238344277075,-0.000790878018375554,0.0025734265170334,-0.296955241358723,2.90480713416261,-2.49090005610241,-0.318167523111533,-0.0567492174287514,-0.0314579691428319,-1.12500243611295,-0.0987450486959352,-0.880409486725407,-0.0898864189697533,-0.0588665019075299,0.107561359643048
6.9,5.6161306716379,1.12365071431141,-0.144037574380804,-0.0356778624425619,0.119720920955848,-0.00684879696389927,-0.307009924832872,2.84500506014816,-2.39996721772982,-0.153662334504362,0.0577145496966336,0.0660830843323173,4.41257635176607,-0.00473335071107788,-0.003492505557174,-0.00281996881993562,-0.307009924832872,2.84500506014816,-2.39996721772982,-0.153662334504362,0.0577145496966336,0.0660830843323173,-1.05549374288575,-0.307574197510968,-1.05359369875888,-0.383642484285726,-0.267433305045514,-0.119801082113043
7,5.60550762163115,1.31654517896079,-0.274229501628318,0.0385788480954828,0.183030594155711,0.0511901909266226,-0.374916617394918,2.7953189619934,-2.49948263078631,-0.31010720351945,-0.0521129166897084,-0.0412693598856289,4.58385462840562,-0.00417588737188735,-0.00378454902207178,-0.000396185804041893,-0.374916617394918,2.7953189619934,-2.49948263078631,-0.31010720351945,-0.0521129166897084,-0.0412693598856289,-1.68328503794751,0.26781269922642,-0.80213005996548,-0.34005571457288,-0.289299313373324,-0.0174624720245623
7.1,5.53489751573333,1.46843666112661,-0.488886644213543,-0.0643257463736876,0.11965947798428,-0.0165872962400077,-0.705075362688554,2.91150143522838,-2.48973329801975,-0.317796209486492,-0.0866480271016073,-0.00660271239142823,4.60254194322842,-0.00126357798635578,-0.00155095114804161,0.00116788280330583,-0.705075362688554,2.91150143522838,-2.48973329801975,-0.317796209486492,-0.0866480271016073,-0.00660271239142823,-1.10623988952871,-0.573445826713697,-0.689640218316628,-0.104311686842827,-0.118272813906491,0.048726525092657
7.2,5.38768126557922,1.70505659716579,-0.573849258941545,-0.0754907995569831,0.109401707556159,0.00999389815991962,-0.697396048518148,2.69153648596577,-2.3723930542975,-0.197105597239272,-0.00155294923780475,0.0374994532532397,4.4485934156714,-0.00354897697224839,-0.00332843741238332,-0.00219370226711748,-0.697396048518148,2.69153648596577,-2.3723930542975,-0.197105597239272,-0.00155294923780475,0.0374994532532397,-0.961905884414139,-0.680665004893721,-0.991192499410019,-0.28840175295194,-0.255380242146896,-0.0929162137534632
7.3,5.32606242297,1.80274459849446,-0.732900074553515,-0.0522229064933143,0.129910625129383,0.017788414653147,-0.781698255156566,2.57454706997567,-2.57552476543249,-0.316029110893474,-0.0973860795855349,-0.0499018028629847,4.63907472952746,-0.00114207047305614,-0.00197169208790018,0.00160566246257934,-0.781698255156566,2.57454706997567,-2.57552476543249,-0.316029110893474,-0.0973860795855349,-0.0499018028629847,-1.19149951020522,-0.505585481270748,-0.622575463010858,-0.0949989640557394,-0.151069645189637,0.0675033732320478
7.4,5.287542045949,1.98016719815897,-0.935174799154421,-0.0813481148520771,0.124536659365488,0.0158853026962858,-0.893158678474019,2.62884815246651,-2.42191514456719,-0.190412057424396,-0.0147880760281613,0.066270440953284,4.62253948132285,-0.00422978603450429,-0.00424687327136338,-0.0037674019565395,-0.893158678474019,2.62884815246651,-2.42191514456719,-0.190412057424396,-0.0147880760281613,0.066270440953284,-1.13250223289572,-0.769326996651679,-0.666857231221679,-0.342983568758947,-0.326564014294293,-0.159030882608947
7.5,5.16636625454161,2.14534365456498,-1.02628088773794,-0.060304860279974,0.135647963804876,0.048049946455418,-1.03390055385361,2.45370068418593,-2.46247659583682,-0.350347475805759,-0.14289114169948,-0.0722463663021101,4.6490961223718,-0.000982852328205917,-0.00220880493341105,0.00132919259867673,-1.03390055385361,2.45370068418593,-2.46247659583682,-0.350347475805759,-0.14289114169948,-0.0722463663021101,-1.22676586311655,-0.620025355706069,-0.613968622520716,-0.082300993309792,-0.169996648054303,0.0561152813061045
7.6,4.99037339941632,2.19271381435565,-1.24580166899554,-0.199853823601045,0.0229687464475018,-0.0646889753268492,-1.2663878484706,2.34047332982617,-2.55420617551171,-0.269032266082613,-0.102602706442664,-0.00560896403436535,4.67802221871109,0.00316782374305142,0.000243282213771332,0.00336986074343652,-1.2663878484706,2.34047332982617,-2.55420617551171,-0.269032266082613,-0.102602706442664,-0.00560896403436535,-0.330230943172745,-1.83991967076779,-0.642600660802888,0.253838909812317,0.0183633521251375,0.142387645762616
7.7,4.8658480896495,2.34730998729804,-1.39176945193964,-0.147663214070241,0.0677787027134842,-0.000959384598096391,-1.03733088848283,1.88194485380579,-2.33715761376606,-0.0567844561911677,0.0122739957687853,0.0739983916682611,4.46345320367541,-0.00266071517745363,-0.00281626901389329,-0.00343074079465898,-1.03733088848283,1.88194485380579,-2.33715761376606,-0.0567844561911677,0.0122739957687853,0.0739983916682611,-0.599271337040521,-1.31281624041682,-1.00051389755903,-0.21602944125622,-0.217183690860846,-0.144444368821711
7.8,4.83212087161638,2.28812494389658,-1.52997502749873,-0.100475594307512,0.0824879407066429,0.00492702272315118,-1.21348888153998,1.84871026369987,-2.71919161701665,-0.332486306980786,-0.14842407406022,-0.105694572254705,4.81127072740916,0.00268676040854405,2.02650734125256e-05,0.00481678325898628,-1.21348888153998,1.84871026369987,-2.71919161701665,-0.332486306980786,-0.14842407406022,-0.105694572254705,-0.784080004496915,-0.969079571132087,-0.26854270139725,0.21403982035595,0.000492114287364167,0.20358085421914
7.9,4.75162465359601,2.4555397908056,-1.7733574491975,-0.177765196546319,0.0572333015713154,-0.0258302588638039,-1.25622216266263,1.92666252796688,-2.39883371488328,-0.0630983101179014,0.0179141785090765,0.123030859231663,4.6918445352893,-0.00246498637945694,-0.0029939975038174,-0.00456462463169676,-1.25622216266263,1.92666252796688,-2.39883371488328,-0.0630983101179014,0.0179141785090765,0.123030859231663,-0.570987339209079,-1.64512345560961,-0.589307897583701,-0.199675765816299,-0.230874661483203,-0.192145191954725
8,4.64048704226201,2.59031185095138,-1.79657105961653,-0.0833052676380018,0.117634228572807,0.067007175554056,-1.28186213507143,1.55777493769781,-2.48659285786949,-0.290577307482114,-0.13328185470756,-0.0942040271455574,4.71239074737091,0.000508081083931171,-0.00169636447845641,0.00137057454643709,-1.28186213507143,1.55777493769781,-2.48659285786949,-0.290577307482114,-0.13328185470756,-0.0942040271455574,-1.04730268134964,-0.856272038399582,-0.482810631625371,0.0382733483398079,-0.132300253962907,0.0583171571843037
8.1,4.55013312579229,2.57392716706062,-1.97745182755447,-0.190308860633576,0.0514206802736396,-0.0267106345856879,-1.49007700955945,1.69894479736412,-2.60404140231462,-0.164570493914319,-0.0739940617835668,0.0375383933511871,4.87100775327415,0.000697971350930537,-0.00109284942934064,-0.000474823984003356,-1.49007700955945,1.69894479736412,-2.60404140231462,-0.164570493914319,-0.0739940617835668,0.0375383933511871,-0.540721940591224,-1.82903209396497,-0.256512285451091,0.0550725126694187,-0.0851765808661499,-0.0194706726847736
8.2,4.38317518240552,2.73691032508372,-2.15601513053543,-0.144071313391809,0.0772691472381696,0.0360115343953835,-1.42209896354506,1.24424696775468,-2.35241749361646,-0.147939140468753,-0.0626125512286865,0.00152479991784213,4.68583982841437,-0.000321627476565601,-0.00196417601846675,-0.00173777774247425,-1.42209896354506,1.24424696775468,-2.35241749361646,-0.147939140468753,-0.0626125512286865,0.00152479991784213,-0.667018355923093,-1.37042783523151,-0.563087344875491,-0.0275793726283771,-0.152848010841256,-0.072724301054108
8.3,4.33179093935128,2.67990475852234,-2.1958319756964,-0.130312262205419,0.0950160776009652,0.0383754951797669,-1.4833869931753,1.2791274986709,-2.60199306044209,-0.17652624144309,-0.088284653734668,-0.0148417212314014,4.89339365796125,-0.000460460166005417,-0.00195293912111285,-0.00106041496864322,-1.4833869931753,1.2791274986709,-2.60199306044209,-0.17652624144309,-0.088284653734668,-0.0148417212314014,-0.871161950507802,-1.30611667064885,-0.149961590876448,-0.0387255231053922,-0.152170500807467,-0.0441151754684943
8.4,4.16669612731783,2.73367011593421,-2.48866159421258,-0.191546225986753,0.0390330767139156,-0.00849839294655305,-1.69643669898543,1.09372608280101,-2.47839909175626,-0.21744033131783,-0.126251772512942,-0.0356221860688603,4.90823586810926,0.00338835396430203,0.000237691795835993,0.00211102232226512,-1.69643669898543,1.09372608280101,-2.47839909175626,-0.21744033131783,-0.126251772512942,-0.0356221860688603,-0.391932146742046,-1.86556773225434,-0.18040169183061,0.271932826061175,0.0163882332165169,0.0897219491656693
8.5,3.98366010026789,2.7445171248665,-2.57415569613315,-0.21704891415544,0.0180721088207963,-0.0166656263017377,-1.60415018910677,0.749624992606934,-2.41516598586778,-0.0466354476350249,-0.0362438385667632,0.0385462851368464,4.81435547181337,0.00153068612052526,-0.00043207809356007,-0.0010372383598103,-1.60415018910677,0.749624992606934,-2.41516598586778,-0.0466354476350249,-0.0362438385667632,0.0385462851368464,-0.204450566410486,-2.07041095095299,-0.408740887732876,0.122618928134361,-0.0346891487371814,-0.0431102134445317
8.6,3.92803256780318,2.68903401831133,-2.69373253560028,-0.137681791619408,0.0696343285211532,0.0329775037457791,-1.54759775213196,0.514096474305163,-2.50804764029412,-0.102288232247975,-0.0565403542605392,-0.0179101633583011,4.91184224354308,0.000633955303713984,-0.0011806940170726,-0.000706030680216406,-1.54759775213196,0.514096474305163,-2.50804764029412,-0.102288232247975,-0.0565403542605392,-0.0179101633583011,-0.632222026460651,-1.36986346619194,-0.102861065428815,0.0499341592102311,-0.0930356111340707,-0.029140810918561
8.7,3.85272809675709,2.64773241035181,-2.87698439584684,-0.159334105174347,0.0632174141874133,0.0154599140028569,-1.71305840487989,0.594403822129096,-2.48760806087431,-0.130063561571662,-0.0824411501084476,-0.00667679185526489,5.01447562487144,0.00130764426708611,-0.000801354832539855,-0.000405480865795997,-1.71305840487989,0.594403822129096,-2.48760806087431,-0.130063561571662,-0.0824411501084476,-0.00667679185526489,-0.600883058195761,-1.60068176110469,0.0721364400497642,0.104494568049798,-0.0636051865147758,-0.0164614398416082
8.8,3.63386545184033,2.67410199669306,-3.05084134015004,-0.21757410461268,0.00806160758334833,-0.0206087468936128,-1.8342766343138,0.299171590321589,-2.42575796092501,-0.131287601384067,-0.103777849708488,-0.0343378108959489,5.01810143210109,0.00481252974841936,0.00117718797990433,0.00260111569779665,-1.8342766343138,0.299171590321589,-2.42575796092501,-0.131287601384067,-0.103777849708488,-0.0343378108959489,-0.123627065801608,-2.1643423735305,-0.0107292939646992,0.387277094487682,0.0886180611474164,0.11038590289077
8.9,3.48287762698807,2.60080002073578,-3.15683562533341,-0.214808929280169,0.00241293174445667,-0.0243920369404458,-1.69771127264057,-0.0633900008487132,-2.3803509520824,0.0376178609906282,-0.0127111534675625,0.0435123424039167,4.98972888386862,0.00218524533535372,0.000262105342903947,-0.00090805490958316,-1.69771127264057,-0.0633900008487132,-2.3803509520824,0.0376178609906282,-0.0127111534675625,0.0435123424039167,-0.0754016043756155,-2.12602214410425,-0.0599270885348151,0.175759670661465,0.0188793442551198,-0.0377124853251584
9,3.43536221232836,2.47713073250231,-3.28003447309405,-0.134681147742659,0.05288517400748,0.0234316188511884,-1.67257454293673,-0.23590693099784,-2.41753191466466,-0.0492990514670095,-0.0407050825462769,-0.022940431763284,5.06014908954046,0.00168725383738719,-0.000351919658641602,-2.53290358241827e-05,-1.67257454293673,-0.23590693099784,-2.41753191466466,-0.0492990514670095,-0.0407050825462769,-0.022940431763284,-0.498135995310841,-1.37094389016423,0.204629729236403,0.135258500468322,-0.0292803474010312,-0.000483637653255033
9.1,3.28004164468452,2.3475685797924,-3.49068393487065,-0.219932674886003,-0.0112027617928118,-0.0525608960639476,-1.91647473327951,-0.234712196285165,-2.43592463054464,-0.102748876020493,-0.103834902242903,-0.0442642536593008,5.22090134040707,0.00675342936777471,0.00221164700675456,0.00459259225949634,-1.91647473327951,-0.234712196285165,-2.43592463054464,-0.102748876020493,-0.103834902242903,-0.0442642536593008,-0.00568062869324798,-2.28087606845769,0.379642550936323,0.544031596388779,0.168382115899545,0.194350611682416
9.2,3.13992766160665,2.42140779438362,-3.56987376174826,-0.177356672645499,0.0244335027254939,0.00198149614285388,-1.670386522668,-0.609102147048867,-2.17069569092019,0.185951916097936,0.0615372933518061,0.120387158413281,5.0181072011827,-0.0014100896306852,-0.00136546700085672,-0.00578823595049876,-1.670386522668,-0.609102147048867,-2.17069569092019,0.185951916097936,0.0615372933518061,0.120387158413281,-0.237840159606356,-1.7711473031653,0.0658325633444807,-0.113948474365559,-0.105829929329788,-0.243705786670103
9.3,3.07525350980933,2.18692855792148,-3.64031282012508,-0.0933373824427722,0.056973332497334,0.0382080759447319,-1.82195463391776,-0.688368610169285,-2.43872325040782,-0.185117075430926,-0.115349802583456,-0.145307493920199,5.2590883898027,0.00493109519963855,0.00120139127794095,0.0050747795319104,-1.82195463391776,-0.688368610169285,-2.43872325040782,-0.185117075430926,-0.115349802583456,-0.145307493920199,-0.558442400456367,-1.00237763964734,0.645401662295791,0.396545450060745,0.089094491364964,0.214651039813402
9.4,2.94313773127185,2.16996812134227,-3.8492464649354,-0.210181428240424,0.0126226194765572,-0.0383696765098329,-1.89759646107014,-0.51293465965182,-2.14579810016668,0.123711399980524,0.0293074126950155,0.128934853956111,5.19325057263595,0.000530454190480481,-0.000713225703930753,-0.00428981249329754,-1.89759646107014,-0.51293465965182,-2.14579810016668,0.123711399980524,0.0293074126950155,0.128934853956111,-0.211249009391689,-2.16049857395023,0.347117002807671,0.0427190277162746,-0.0550827228304892,-0.180517467662829
9.5,2.74413658428539,2.16958844111933,-3.90577580874465,-0.116928539555051,0.044819569931285,0.0449003416045875,-1.88512325480844,-1.098614240387,-2.24570476382678,-0.0804028781335474,-0.0864777629413953,-0.108155195840507,5.26768306552505,0.0042065407109275,0.00109517934137056,0.00299824122503526,-1.88512325480844,-1.098614240387,-2.24570476382678,-0.0804028781335474,-0.0864777629413953,-0.108155195840507,-0.413169248941279,-1.24888367662769,0.642919221406984,0.338335243628654,0.0812015808756938,0.126991381911517
9.6,2.66004767038592,1.8975515311725,-4.03954715252164,-0.176247314357329,0.0131944296473244,-0.031717806072353,-1.93456570392768,-0.926144833845179,-2.10900596222167,0.107030714356388,0.0132124593321553,0.0743575771944226,5.27152107099918,0.00142172133677005,-1.57794757510404e-05,-0.00201815713398155,-1.93456570392768,-0.926144833845179,-2.10900596222167,0.107030714356388,0.0132124593321553,0.0743575771944226,-0.195504569854204,-1.84330482093949,0.56881221085635,0.114480234185041,-0.00190069530068491,-0.0847127495239541
9.7,2.5138439755823,1.92136019026827,-4.12199892272145,-0.0913376581348647,0.0632122524857258,0.0512819881986511,-1.89027789077426,-1.25487322629289,-2.08888822385476,0.00441573674953755,-0.0302483436254234,-0.0327118805710428,5.29413279456165,0.00131261834708254,-0.000468959205375133,-0.000877790645157164,-1.89027789077426,-1.25487322629289,-2.08888822385476,0.00441573674953755,-0.0302483436254234,-0.0327118805710428,-0.615694196922646,-0.998636275727199,0.71307057994434,0.105240746192842,-0.038349673008573,-0.0366057646433082
9.8,2.38721913592198,1.68735508245506,-4.25419920239646,-0.151898165893706,0.02278580345099,-0.0127605083263854,-2.08960972964107,-1.15897279649363,-2.05718563355889,-0.0096065079875774,-0.0655957027675132,-0.0262259781696559,5.38469941014046,0.00395687215520404,0.00113481471081251,0.00184712347132345,-2.08960972964107,-1.15897279649363,-2.05718563355889,-0.0096065079875774,-0.0655957027675132,-0.0262259781696559,-0.263316725099042,-1.62634094200827,0.832632681479646,0.318698223469904,0.0857317512822224,0.0783496259951471
9.9,2.18491277271041,1.68108537903134,-4.35409770052349,-0.143000457891149,0.0187401457135345,0.00085278562938047,-2.00278228327076,-1.4584217851035,-1.9180550284159,0.124475463737891,0.0119471669762719,0.0468335113206017,5.3527468709622,0.00120661681930988,-2.86588182235652e-05,-0.00225361721351511,-2.00278228327076,-1.4584217851035,-1.9180550284159,0.124475463737891,0.0119471669762719,0.0468335113206017,-0.197261956471287,-1.52584705274364,0.78436051635704,0.0970767382013095,-0.00320065640046009,-0.0947174593665257
10,2.07626826945326,1.44863145660792,-4.42770222411949,-0.0958003417463587,0.0390070884983433,0.0211238426024974,-2.02539239695012,-1.59764764059554,-1.9227729002674,0.00740029253115333,-0.04397396978681,-0.0553078081275532,5.41707416797467,0.0030459267092491,0.000667278784421363,0.00162172488754346,-2.02539239695012,-1.59764764059554,-1.9227729002674,0.00740029253115333,-0.04397396978681,-0.0553078081275532,-0.398580672171026,-1.04498029269742,0.966266505659533,0.245161876911793,0.0494124540935916,0.0687878297255102
10.1,1.95007806214723,1.31194192988126,-4.53641365140868,-0.128946791059998,0.024564858983904,-0.0105456263657271,-2.09387492308038,-1.55463141888728,-1.79293567766271,0.104686969771504,-0.00347964944284655,0.0406673814147505,5.41956026705047,0.00167500312772342,0.000102351643192719,-0.00142337384302049,-2.09387492308038,-1.55463141888728,-1.79293567766271,0.104686969771504,-0.00347964944284655,0.0406673814147505,-0.278707914660675,-1.39093803704902,0.935889782989792,0.134902958544774,0.00710443845826502,-0.0597249129492295
10.2,1.74660208508999,1.20214538111499,-4.62866413964111,-0.115120518226869,0.0117564821011513,-0.00103548027027773,-2.14202455287761,-1.82561375817348,-1.79196863974632,0.0302772056297605,-0.0520998244359444,-0.0526590866648624,5.51785939143746,0.00427058150713302,0.00152248054763327,0.00255261916274739,-2.14202455287761,-1.82561375817348,-1.79196863974632,0.0302772056297605,-0.0520998244359444,-0.0526590866648624,-0.130192037549335,-1.26749926372387,1.15191519327333,0.344031782174356,0.115576332455902,0.108021826364963
10.3,1.59923002568921,0.984541910049753,-4.72612893511247,-0.135681229927253,-0.00681317544828206,-0.0356691117294746,-2.10777699637865,-1.90943019245099,-1.61259865795618,0.157140129916689,0.0148551698447972,0.0423974775973064,5.49826350148705,0.00272410852724701,0.000949609323234904,-0.000301901352455167,-2.10777699637865,-1.90943019245099,-1.61259865795618,0.157140129916689,0.0148551698447972,0.0423974775973064,0.021140183559213,-1.48914975210586,1.08520960035101,0.219577647562523,0.0725553160884845,-0.0124558463646198
10.4,1.52068845407265,0.878543152832159,-4.71874921842491,-0.0353735774902247,0.0641474974235348,0.0466230310544169,-2.00167248246196,-2.031400588517,-1.55000596045726,0.139809661463983,0.0313187886873015,0.0152938214765474,5.44168840008637,-0.000805995754325456,-0.00147519520716276,-0.00292280514697919,-2.00167248246196,-2.031400588517,-1.55000596045726,0.139809661463983,0.0313187886873015,0.0152938214765474,-0.678529721337671,-0.416980457045472,1.04419804915323,-0.0652991389179284,-0.114701382422272,-0.123054491430375
10.5,1.38562793932805,0.649928006391018,-4.82768773384565,-0.0728416853918351,0.0330245294161562,-0.000576261330237955,-2.2945050915153,-1.87767920321181,-1.57648023164576,-0.0373608778491694,-0.101251039107089,-0.0781436525065293,5.584145343782,0.00466938248358617,0.00160551636907701,0.00373323284945366,-2.2945050915153,-1.87767920321181,-1.57648023164576,-0.0373608778491694,-0.101251039107089,-0.0781436525065293,-0.368250956400242,-0.812585825352102,1.32260133084248,0.376173493732374,0.122100269823708,0.15778824141163
10.6,1.12738587521296,0.632324268345022,-4.91684424837886,-0.128273242969734,-0.0116991944253583,-0.0287011354977595,-2.23301585989161,-2.02404536296204,-1.35563113632214,0.213953498036905,0.0388224807596713,0.0836781279039384,5.54728610114061,0.00125290428802308,0.000182182206651221,-0.00258812370730291,-2.23301585989161,-2.02404536296204,-1.35563113632214,0.213953498036905,0.0388224807596713,0.0836781279039384,0.0879470930854867,-1.42234687148929,1.19266908698128,0.101022354793574,0.0139315620536191,-0.108981289115502
10.7,0.972268477678835,0.395175022719378,-4.94764625969639,-0.0508039886714803,0.0155810718740174,0.00666474430829787,-2.17501357146705,-2.35629928793073,-1.37851324739149,0.0536627966709017,-0.0442733463334264,-0.0839468842274812,5.64203376784659,0.00403042675837671,0.00147381464587387,0.00367503937219044,-2.17501357146705,-2.35629928793073,-1.37851324739149,0.0536627966709017,-0.0442733463334264,-0.0839468842274812,-0.171760951041936,-0.574186549321807,1.45814040258462,0.32466646271273,0.112011670020651,0.155280555788625
10.8,0.889094432231292,0.128175417424083,-5.01959422293119,-0.0885967080230567,-0.00158461718590829,-0.0427158967071727,-2.21510549222213,-2.18305548018402,-1.14269567111222,0.200319956399745,0.0279248665052292,0.0747361430494224,5.57053525345174,0.00168597206333734,0.000502073119059129,-0.00149665268617254,-2.21510549222213,-2.18305548018402,-1.14269567111222,0.200319956399745,0.0279248665052292,0.0747361430494224,-0.0245262627875156,-0.985623101743058,1.28735993845106,0.135948415771341,0.0385536973859985,-0.0629600495723665
10.9,0.710686242292861,0.0655860914976309,-5.0090412992316,-0.0251406264769296,0.0254736374645099,0.0182451325655207,-2.19456367727378,-2.37441132474713,-1.18252414593454,0.107108189028451,-0.0112127540243313,-0.0434006767706301,5.63925257185288,0.00197199966837311,0.000507011957113797,0.00120282680494959,-2.19456367727378,-2.37441132474713,-1.18252414593454,0.107108189028451,-0.0112127540243313,-0.0434006767706301,-0.281962349455517,-0.288711023899978,1.4612830438582,0.158713768299656,0.0379586658805026,0.0509305351446831
11,0.587860758748657,-0.163005005987169,-5.0840826242154,-0.0469691095258562,0.0169211862265176,-0.0210652081214053,-2.26290243371013,-2.23640450681413,-0.992767339598323,0.135245883343325,-0.00400908457844315,0.0241723305374678,5.60555959519894,0.00199057522704871,0.000409436941434353,-0.000136190176514883,-2.26290243371013,-2.23640450681413,-0.992767339598323,0.135245883343325,-0.00400908457844315,0.0241723305374678,-0.200532677632732,-0.522274616818178,1.38715184192553,0.160389656633271,0.0310570153202467,-0.00558468887456601
11.1,0.430210560367079,-0.211632675695451,-5.04976689743134,-0.00323817199242785,0.0443168929949576,0.0313323484271701,-2.22396896774662,-2.29380770587329,-0.951697191793555,0.163507988419001,0.0151725190560048,0.0152152324546624,5.60125085244025,-0.000479755263906569,-0.0010240504441039,-0.00219516169666176,-2.22396896774662,-2.29380770587329,-0.951697191793555,0.163507988419001,0.0151725190560048,0.0152152324546624,-0.494914973317362,-0.0518053021278781,1.38144404568544,-0.0389232567349002,-0.0794360481627452,-0.0924779736858281
11.2,0.298371494006239,-0.3935085078107,-5.08950831082295,0.0173730961821211,0.0520559401062058,0.029775348667411,-2.33084167818482,-2.20201025981107,-0.871153818991754,0.0618873835531933,-0.0437752454735071,-0.0328479176670032,5.62930517249107,0.000974595266368702,-0.000422974583748964,0.000148043482943279,-2.33084167818482,-2.20201025981107,-0.871153818991754,0.0618873835531933,-0.0437752454735071,-0.0328479176670032,-0.591287672310289,0.178062812837011,1.43166266276467,0.0782940867218225,-0.0332605376010319,0.00637705001000761
