time,x,y,z,roll,pitch,yaw,xdot,ydot,zdot,p,q,r,thrust,roll angle,pitch angle,yaw angle,_xdot,_ydot,_zdot,_p,_q,_r,_xddot,_yddot,_zddot,_phiddot,_thetaddtot,_yawddot
0,2.01841953230695,4.01841953230695,0.0184195323069548,0.0184195323069548,0.0184195323069548,0.0184195323069548,0.0184195323069548,0.0184195323069548,0.0184195323069548,0.0184195323069548,0.0184195323069548,0.0184195323069548,9.05830483890798,-0.00903851084713647,0.00247871928330725,-0.00185631825251894,0.0184195323069548,0.0184195323069548,0.0184195323069548,0.0184195323069548,0.0184195323069548,0.0184195323069548,-0.339713303146127,0.327479153546853,8.3004637846189,-0.728912269755478,0.19067081953187,-0.0783256677339465
0.1,1.22036642022637,2.42036642022637,0.0203664202263731,0.0201187689632275,0.0192876271659363,0.0190483997900928,-0.0852021668727324,0.120830105064162,4.57813811557512,-0.391109145173274,0.114912916724118,-0.0331718996099258,5.53050064953524,-0.000371098295430142,-0.00106685793923558,0.000562426685622373,-0.0852021668727324,0.120830105064162,4.57813811557512,-0.391109145173274,0.114912916724118,-0.0331718996099258,-0.217483745783357,0.218415874796335,1.2467058866552,-0.0299302095404335,-0.0820630462068707,0.0237309978880739
0.2,1.29561614462205,2.72007113285634,2.10621769172465,-0.177604906728084,0.0552132842033624,-0.0152183548533852,-0.0583209877336985,0.061940973126339,1.10491132280837,-0.0504538743267903,-0.0301093921653158,0.0106891042045739,6.68624183254463,0.000311167390397187,0.000408877341340126,0.00020222944932229,-0.0583209877336985,0.061940973126339,1.10491132280837,-0.0504538743267903,-0.0301093921653158,0.0106891042045739,-0.762223904899134,-2.35122524225374,3.33207266575818,0.0251111174280781,0.0314998939575995,0.00854546831371989
0.3,1.30930784868841,2.70289085875719,0.788225628873815,-0.0389378201842548,0.000772757417853577,0.0104520913674719,-0.194539434874346,-0.398062311675785,2.48414758441233,-0.0184949860846286,0.0280843186317607,0.0075122948421724,6.4742152546358,-0.00491182372190363,0.00024818118592176,-0.000868581177041233,-0.194539434874346,-0.398062311675785,2.48414758441233,-0.0184949860846286,0.0280843186317607,0.0075122948421724,-0.0047295180229951,-0.504133234691698,3.128611979914,-0.396111197072805,0.0191058055166587,-0.0366379370487674
0.4,1.22073873893624,2.47232878750112,1.52508001294388,-0.0471359882333793,0.00573840268721294,-0.0105942267196146,-0.153236277797594,-0.285180082325522,2.35729707075917,-0.265543683650983,0.00645676224548168,-0.0334632316666483,6.08704191320831,0.000173390247130103,9.48953958347848e-05,0.00207301082015386,-0.153236277797594,-0.285180082325522,2.35729707075917,-0.265543683650983,0.00645676224548168,-0.0334632316666483,-0.075854903060257,-0.572853542006138,2.35036191343462,0.013979176501317,0.00728640549207286,0.0874834920880563
0.5,1.2841105336141,2.56694889144937,1.61855001776322,-0.116637792360122,0.0428122622753926,0.0156509177790431,-0.0877013929882263,-0.249266030792226,2.1271452723263,-0.0217590663234649,0.0403097748889041,0.0708502924307022,6.14806499062799,-0.00363422307146637,-0.00284407840709625,-0.0040704146362953,-0.0877013929882263,-0.249266030792226,2.1271452723263,-0.0217590663234649,0.0403097748889041,0.0708502924307022,-0.500229966631442,-1.43894875368521,2.39139373107407,-0.2930468257473,-0.218590763449687,-0.171722788618348
0.6,1.26504376140864,2.52765913358254,1.62573467977135,-0.0500486022994431,0.0268190828928978,0.0309471568383052,-0.200380803315064,-0.46648631780394,2.29521372992373,-0.21683351669651,-0.111820468070583,-0.0932724216501514,6.01354032404798,-0.00157628586478534,0.000658833219320645,0.00299684631329978,-0.200380803315064,-0.46648631780394,2.29521372992373,-0.21683351669651,-0.111820468070583,-0.0932724216501514,-0.303340986457439,-0.611366092180511,2.19770105653331,-0.127182576771103,0.0504207335193972,0.126482073662194
0.7,1.24747657240749,2.45363632208345,1.88859100765163,-0.109309688687213,-0.00635711293089644,-0.00597781051514432,-0.163275583617106,-0.434851184141144,2.2809365607784,-0.113579683274537,0.0582084215912769,0.0894587816641402,5.79907895093333,-0.00245390355847136,-0.00274703314479803,-0.00390775447044222,-0.163275583617106,-0.434851184141144,2.2809365607784,-0.113579683274537,0.0582084215912769,0.0894587816641402,0.065725458460871,-1.26568332053196,1.71870298918614,-0.197865470251355,-0.210879164678456,-0.164868291368625
0.8,1.21890704307312,2.41035090416365,1.9696749128024,-0.102272130357983,0.0351870549801174,0.0408361629582358,-0.204096679584885,-0.583200408574304,2.13660852794807,-0.182885576476108,-0.115297263884442,-0.0884652453570068,5.82871119363028,-0.000746312380579004,-0.00120245644685695,0.00233610187724712,-0.204096679584885,-0.583200408574304,2.13660852794807,-0.182885576476108,-0.115297263884442,-0.0884652453570068,-0.359034972725248,-1.20581493729651,1.77933134138275,-0.0602262438803837,-0.0928375611865838,0.0986030790134052
0.9,1.20582652981608,2.33246584343116,2.06433788498349,-0.13166295608956,-0.0294487545115486,-0.0240709729779787,-0.211145416157761,-0.676700875838862,2.25758253626206,-0.108462735153812,-0.0427397178384637,0.0575531808560076,5.60632855544553,-0.00160294342937107,-0.000863347617226054,-0.00152713886375782,-0.211145416157761,-0.676700875838862,2.25758253626206,-0.108462735153812,-0.0427397178384637,0.0575531808560076,0.291769000640568,-1.47948107006834,1.30079142545618,-0.129265563220027,-0.0658558793766164,-0.0644333567909159
1,1.13914125278576,2.20759511052439,2.20714533790583,-0.151696621166345,-0.0462514396952102,-0.00431230622460951,-0.27590210040524,-0.855723446849114,2.06916351904185,-0.182981910942202,-0.0767123078867923,-0.0637087864274907,5.59576153598423,0.0019156795082761,-0.0005305810415142,0.0032578091782957,-0.27590210040524,-0.855723446849114,2.06916351904185,-0.182981910942202,-0.0767123078867923,-0.0637087864274907,0.504199549101503,-1.69340245534121,1.24117005612223,0.154492053231725,-0.0408856666482163,0.13744882186891
1.1,1.11631712190787,2.10812080366354,2.2717710147822,-0.178598408616765,-0.0523157151647446,-0.0440327578577267,-0.215759055230543,-0.978044879504403,2.13843359903321,-0.0241336149545607,-0.0473388834040409,0.0557938418147621,5.44266122123242,-0.000619882206539978,-0.00165971655252967,-0.000533536165171201,-0.215759055230543,-0.978044879504403,2.13843359903321,-0.0241336149545607,-0.0473388834040409,0.0557938418147621,0.474494369386378,-1.9565654579855,0.88752080523648,-0.0500453154103403,-0.126902644882572,-0.0225548962843495
1.2,1.16300932702088,2.04417109299197,2.46896412794714,-0.0787321866160647,-0.00454288031709847,0.0452572702435098,-0.11674595170017,-1.05417680545312,2.06819268598769,-0.0955471496528092,-0.0720381723537368,0.0056105376105998,5.38171065869491,-0.00332450300573528,-0.00336170427338206,-0.00229258357001927,-0.11674595170017,-1.05417680545312,2.06819268598769,-0.0955471496528092,-0.0720381723537368,0.0056105376105998,0.0869949596352511,-0.84348032625457,0.91996790637611,-0.268107535597866,-0.258568200848859,-0.0967956493187548
1.3,1.14832793031493,1.90934862624785,2.53765941697193,-0.14952972009586,-0.0548174653440714,-0.010725303568722,-0.139517412840437,-1.2680327271994,1.97740633787083,-0.248573260952233,-0.179260709865086,-0.0662212199120141,5.28648477799736,0.00460809515214619,0.000807839824642173,0.00366121833641917,-0.139517412840437,-1.2680327271994,1.97740633787083,-0.248573260952233,-0.179260709865086,-0.0662212199120141,0.555903053735763,-1.58114128342276,0.629283944250895,0.371628119411418,0.0620868270845755,0.154385654876944
1.4,1.15644956039261,1.78260930838616,2.61822963414124,-0.201965526078044,-0.0882608446952182,-0.0244583235021379,-0.0940895685683141,-1.30101479240654,1.94830279308721,0.105174264578675,0.00955046900384413,0.0859852792992252,5.19394808505695,-0.00176848120521295,-0.00302721585710892,-0.00290815242432543,-0.0940895685683141,-1.30101479240654,1.94830279308721,0.105174264578675,0.00955046900384413,0.0859852792992252,0.845814604943315,-2.10507781994693,0.327141207810953,-0.142839692233315,-0.231830894770822,-0.122903752240939
1.5,1.14380148983656,1.66784650969215,2.72149961375513,-0.0714982626323823,-0.026627581908501,0.030210692794053,-0.0759498733927626,-1.46598177932765,1.88017612725403,-0.169773890100891,-0.169465413101015,-0.0731190603851144,5.17155953019697,5.71107181367255e-05,-0.00191502047587386,0.00204835532215245,-0.0759498733927626,-1.46598177932765,1.88017612725403,-0.169773890100891,-0.169465413101015,-0.0731190603851144,0.296869633858459,-0.730251083532734,0.503036103542755,0.0046869305575548,-0.147677384951254,0.0862468282050824
1.6,1.14803982109136,1.522511864661,2.82549013837671,-0.188792789734075,-0.106102989596781,-0.0378270875479396,0.01676356745013,-1.67261037030534,1.8371879871467,-0.0967994441287731,-0.126415866575494,0.0389586019069886,5.00422040304751,0.00456962895825506,0.00022340147441175,-7.59917741924619e-05,0.01676356745013,-1.67261037030534,1.8371879871467,-0.0967994441287731,-0.126415866575494,0.0389586019069886,0.969321613793585,-1.91634557909762,-0.034677877450104,0.368275251035872,0.0180317076567415,-0.00348960546973094
1.7,1.15561744057823,1.31373588978801,2.86077035033989,-0.188445312856502,-0.115975400169071,-0.0153176827253139,-0.0200320258038019,-1.72749820279009,1.67437303537956,0.0892601126389526,-0.0686705610081666,-0.0250837329180415,5.05650541386825,0.000724014665509853,-0.00161038940432667,0.0018803392039133,-0.0200320258038019,-1.72749820279009,1.67437303537956,0.0892601126389526,-0.0686705610081666,-0.0250837329180415,1.12036308064435,-1.91187510324843,0.0572442028675617,0.0583247434659242,-0.123686167113508,0.0789760302215018
1.8,1.13801368436739,1.19134573804348,2.92786557089214,-0.107234694005425,-0.0976919066009927,-0.037960740091275,0.0774969903958806,-1.92261826339485,1.71599820142745,-0.0633109628798644,-0.14357723423339,0.0216127721517481,4.90275367064949,0.00206121771344185,-0.00094888169116006,0.000734051355852978,0.0774969903958806,-1.92261826339485,1.71599820142745,-0.0633109628798644,-0.14357723423339,0.0216127721517481,0.910387699172606,-1.08480871886896,-0.107301483559876,0.165992072844687,-0.0723787562121555,0.0305908461541392
1.9,1.22062896050843,1.04818649166011,3.08993824302781,-0.12887765901435,-0.0926769871860006,0.0233346782338074,0.243140274874837,-2.03865944807865,1.56635396943041,0.0365122886338772,-0.0862516087039137,0.0344398725162576,4.81736479071861,0.00144438764086252,-0.00190189581674422,-0.00276024530123721,0.243140274874837,-2.03865944807865,1.56635396943041,0.0365122886338772,-0.0862516087039137,0.0344398725162576,0.91289667106099,-1.21729809925038,-0.296177471018883,0.116372761299518,-0.146050656696557,-0.116934132004549
2,1.26848893827928,0.848278457961689,3.08135237022154,-0.10656424334631,-0.0942932402169263,0.0124007506346605,0.291701547368404,-2.15764258962036,1.43701488372573,0.00122834702460256,-0.146166186045797,-0.0612756256142661,4.84738038966708,0.00259912843682557,-0.000563261442084864,0.00229186631546869,0.291701547368404,-2.15764258962036,1.43701488372573,0.00122834702460256,-0.146166186045797,-0.0612756256142661,0.920335483972638,-1.01982647987019,-0.213056574283017,0.209781880589855,-0.0436822307368626,0.0961998323055514
2.1,1.28679174838656,0.652515101211518,3.10595909428952,-0.134239137848735,-0.143980888773558,-0.0461975153246569,0.363030598297181,-2.31952500313819,1.43938972390495,0.0413775035075855,-0.107272974037045,0.0381263567860467,4.76211493013204,0.00448130335629539,0.000113650392554042,0.000372171221914996,0.363030598297181,-2.31952500313819,1.43938972390495,0.0413775035075855,-0.107272974037045,0.0381263567860467,1.29396818073366,-1.33587011167181,-0.469119322936576,0.360993150585848,0.00945319364939496,0.0151263531922456
2.2,1.3340590037086,0.443350095076795,3.18734048251521,-0.115980373954426,-0.13049913583776,-0.0042144352714381,0.420319627883265,-2.38648193670071,1.33280777320306,0.140728709523721,-0.0819936842288002,-0.00101798954349916,4.71998993537858,0.00225720262313712,-0.00115057748536872,0.000238976273807309,0.420319627883265,-2.38648193670071,1.33280777320306,0.140728709523721,-0.0819936842288002,-0.00101798954349916,1.21554822162922,-1.09753206869271,-0.513167967560905,0.182002650298119,-0.0884587965850527,0.00946507207737643
2.3,1.40694293526749,0.303811020106831,3.2633691746431,-0.0367829078695415,-0.0965622758342005,0.0138192777161097,0.595328911909388,-2.47519279243001,1.27857618494136,0.0850737011129661,-0.108648526791505,0.0224764766920051,4.59726722178459,0.00119334682785381,-0.00129867826378299,-0.00172052181816651,0.595328911909388,-2.47519279243001,1.27857618494136,0.0850737011129661,-0.108648526791505,0.0224764766920051,0.890454357725354,-0.325851524445306,-0.66448878111208,0.0961941917607018,-0.099838470683907,-0.0732074661988756
2.4,1.48492613780339,0.0877251278074009,3.29406957175142,-0.0712367205576902,-0.13078969870304,0.0072881325480426,0.703739921555104,-2.66249362982784,1.14541456900553,0.03320424386161,-0.133910370791614,-0.0370792685264263,4.6253701457153,0.00610845624639607,0.00118768980970162,0.00139409795862339,0.703739921555104,-2.66249362982784,1.14541456900553,0.03320424386161,-0.133910370791614,-0.0370792685264263,1.20816194000507,-0.649647268095916,-0.661530232149406,0.492849300282877,0.0910793336224414,0.0581920641795973
2.5,1.5825421695246,-0.1549648724851,3.29944827391657,-0.0784998090824554,-0.139992095497932,-0.0121319880434081,0.786963754724977,-2.65398837103694,1.12260179764954,0.261966305328395,-0.0246971588293949,0.0404901086734877,4.57528597471873,0.00187863680560567,-0.000985390525755218,-0.001392067643796,0.786963754724977,-2.65398837103694,1.12260179764954,0.261966305328395,-0.0246971588293949,0.0404901086734877,1.264096520058,-0.73297020737772,-0.776850955236842,0.15125352982441,-0.0755276182889046,-0.0594131865796101
2.6,1.65222047755145,-0.322585362676532,3.36253727260463,0.0255905410172011,-0.0974896911037592,0.0229420181316057,0.891541157309737,-2.71069919597758,1.01726598673062,0.100191411918441,-0.111801717916479,-0.0229674386262606,4.49599067128425,0.0024531770575027,-0.000278849792981022,-2.46117910389037e-05,0.891541157309737,-2.71069919597758,1.01726598673062,0.100191411918441,-0.111801717916479,-0.0229674386262606,0.869442573105465,0.250095384431799,-0.863645973031385,0.198141284034472,-0.0217260708350483,-0.00161937482744812
2.7,1.75058434751683,-0.51102531772448,3.38998309267199,-0.0256203095289517,-0.134430932268711,0.00290870071001561,1.06355393152703,-2.84658861065276,1.00782142642494,0.137236489335159,-0.0825334069061728,0.0114475687642127,4.45327511573579,0.0058344301848425,0.00157197252311612,-0.000774896186578002,1.06355393152703,-2.84658861065276,1.00782142642494,0.137236489335159,-0.0825334069061728,0.0114475687642127,1.19397971283287,-0.224691636509166,-0.986703385947365,0.470505755463858,0.120931061982307,-0.0332742963475558
2.8,1.87885342952766,-0.780807811852918,3.41775694652136,-0.00998895904615252,-0.132421862925947,0.00708549335101604,1.10259093011781,-2.79535392776841,0.84035266253442,0.292546122892741,-0.0107819896893723,-0.0116456039571842,4.49957693377064,0.00235100308573532,-8.39747038079902e-05,8.78980670367561e-05,1.10259093011781,-2.79535392776841,0.84035266253442,0.292546122892741,-0.0107819896893723,-0.0116456039571842,1.18875277552495,-0.0814699001918861,-0.890078485450235,0.189760492177723,-0.00656992440275487,0.00316480406534662
2.9,1.91789927876931,-0.971480588434019,3.37742003786225,0.0370473017497845,-0.138547018294211,-0.0350327993147754,1.18558873526505,-2.88572291083285,0.828119784089105,0.133585184512928,-0.105187339853021,-0.0207516535736407,4.4787164393558,0.00620201404736303,0.00251049661754817,0.00249121844215803,1.18558873526505,-2.88572291083285,0.828119784089105,0.133585184512928,-0.105187339853021,-0.0207516535736407,1.24707231653294,0.288270193621583,-0.944487340856703,0.500145837096455,0.193123538955037,0.104700879680599
3,2.05936656820561,-1.16172313046108,3.4511503017326,0.0146415039182764,-0.150547074305815,-0.00901487441509222,1.35744458633965,-2.86345034047815,0.837745211123926,0.339943166590588,0.0332099628747719,0.0622912123817586,4.37865010368196,0.00326629695533167,0.00104551816663849,-0.00266672365195067,1.35744458633965,-2.86345034047815,0.837745211123926,0.339943166590588,0.0332099628747719,0.0622912123817586,1.31437317949647,0.116371444126525,-1.15268010560379,0.263052055114156,0.0805712167388672,-0.112893485190797
3.1,2.21914725353321,-1.34116697433171,3.51371301289959,0.129939189737866,-0.0778195640278825,0.0433221573396498,1.47956550539586,-2.80051918430158,0.655167727670617,0.248339274981051,-0.00100657265703444,-0.0404142444070538,4.31054527235096,0.00123157205103942,-0.000380953563259598,-0.00027584297721296,1.47956550539586,-2.80051918430158,0.655167727670617,0.248339274981051,-0.00100657265703444,-0.0404142444070538,0.615560347523217,1.14480103206893,-1.28745822917367,0.0999746408076341,-0.0294567296397224,-0.0118446991181464
3.2,2.3448949986019,-1.50911325947451,3.47550703898328,0.102658801378231,-0.101409064699027,-0.0038456365130401,1.6627021281112,-2.84954296194338,0.733051045505781,0.164018551568002,-0.0710817344099063,0.003240557038045,4.27206824162526,0.00642754126682134,0.00401255724198826,1.57353407216607e-05,1.6627021281112,-2.84954296194338,0.733051045505781,0.164018551568002,-0.0710817344099063,0.003240557038045,0.863775538988982,0.872275657906355,-1.35451094026602,0.518351046695293,0.308658155252345,0.000575926936001192
3.3,2.47626130707302,-1.81765204472237,3.48699738567832,0.0189153895062653,-0.19000764562077,-0.0524679203846638,1.61275051391873,-2.81926182513708,0.504378062639123,0.350138275636337,0.0644903288087227,-0.0396241267512014,4.58561508979332,0.00730139687064402,0.00407164356448722,0.00476514847021543,1.61275051391873,-2.81926182513708,0.504378062639123,0.350138275636337,0.0644903288087227,-0.0396241267512014,1.73854145985722,0.082404636866529,-0.805437485633126,0.588877713946286,0.313202736389671,0.201050557652974
3.4,2.59943343838624,-1.94320014620882,3.46610545392413,0.155636855004818,-0.0937387533399673,-0.0331523337712953,1.76010073524649,-2.63387157173123,0.642812760847231,0.449491062044666,0.110763370007259,0.103718510492973,4.20049755699444,-0.000976414454253944,-4.80361490150405e-05,-0.00325562700944429,1.76010073524649,-2.63387157173123,0.642812760847231,0.449491062044666,0.110763370007259,0.103718510492973,0.819578740766911,1.27576731948207,-1.54698436770876,-0.0793327455857621,-0.0037988755954058,-0.137211688623574
3.5,2.73665801037332,-2.02547188439922,3.56335181194395,0.219500811114886,-0.0721319423478282,0.0321891304145129,1.93888056039748,-2.671564957584,0.425494766043594,0.110236953005436,-0.0317743099909638,-0.0732744657436347,4.22075208385095,0.00576137984173955,0.00422447264614981,0.00216683433189419,1.93888056039748,-2.671564957584,0.425494766043594,0.110236953005436,-0.0317743099909638,-0.0732744657436347,0.534313669894463,1.85623140152701,-1.5924634774479,0.465656948211466,0.325415302015164,0.0917763913466934
3.6,2.96734441266346,-2.2515742404791,3.51620253383064,0.106889364544747,-0.120625217123164,-0.0269908406928638,2.0672513506878,-2.50084228726861,0.530211010756039,0.4134078671426,0.14602324880932,0.056083788460814,4.26257675727729,0.00407834908038142,0.00381210654502351,-0.000251294422288588,2.0672513506878,-2.50084228726861,0.530211010756039,0.4134078671426,0.14602324880932,0.056083788460814,1.04417573778164,0.881655379933246,-1.39509517187596,0.328807663128755,0.293193547968502,-0.0101978033981796
3.7,3.14285451792215,-2.39790125501791,3.58699517702212,0.231646188446577,-0.0497094997140991,0.00369311255252348,2.06761267688419,-2.34570910410578,0.202758984681942,0.351380624655002,0.136680135073359,-0.00896151318626399,4.22753015654416,0.000200693591862936,0.00133611603727078,0.000770072316093099,2.06761267688419,-2.34570910410578,0.202758984681942,0.351380624655002,0.136680135073359,-0.00896151318626399,0.401730626398579,1.94261006944238,-1.59094144564747,0.016902400767185,0.103346248295021,0.0330383265573323
3.8,3.26811603899086,-2.45587867947726,3.46602838385293,0.24107729220882,-0.0399180406798005,-0.00815391235827971,2.22068701696552,-2.20930543588617,0.377785611544856,0.204492830448156,0.0499256490626234,0.0223417254988672,4.09095927512644,0.00404644768145814,0.00478445961642385,0.000109417611704737,2.22068701696552,-2.20930543588617,0.377785611544856,0.204492830448156,0.0499256490626234,0.0223417254988672,0.332994252128358,1.95077375294871,-1.8710209878204,0.326867152330736,0.368628001681366,0.00525271912972799
3.9,3.528611169161,-2.56275587230886,3.61310239765384,0.223728779418857,-0.0394656262653364,0.0378536033542912,2.30252640090896,-1.98784929148857,0.169426261110515,0.400311189325758,0.231116124281319,0.0343140900149233,4.07161599265727,-0.000467436226186224,0.00180595126809256,-0.0024755315473298,2.30252640090896,-1.98784929148857,0.169426261110515,0.400311189325758,0.231116124281319,0.0343140900149233,0.244687942990504,1.8172764188089,-1.87590513071303,-0.0368902057566501,0.139946051106125,-0.103761683847716
4,3.69500570634484,-2.63988506093079,3.53473094697207,0.31192781536193,0.0310942148642314,0.0240019528795828,2.31286538452273,-1.81079513041026,-0.00205059539498653,0.20447404010838,0.111419283475329,-0.0380800285758064,4.06290101484103,0.000649045077819305,0.00222172146318033,0.0012176700754661,2.31286538452273,-1.81079513041026,-0.00205059539498653,0.20447404010838,0.111419283475329,-0.0380800285758064,-0.300214093843828,2.48727120442643,-2.08005743364974,0.0533884929922871,0.172823115516446,0.0520864182763284
4.1,3.84323688423971,-2.70882550178883,3.45821680430265,0.236744700478623,-0.0199465358988783,-0.0112813096835362,2.30751017422602,-1.55533200112031,0.100887066991443,0.244066849221299,0.121794561676239,0.0338115488050483,3.96986418228931,0.00264321075121508,0.00514451364196517,-0.000198839213998197,2.30751017422602,-1.55533200112031,0.100887066991443,0.244066849221299,0.121794561676239,0.0338115488050483,0.174939967479092,1.86032380869173,-2.09327285451356,0.21374386354251,0.397012186182807,-0.00768726017765684
4.2,3.99083836381009,-2.76669383195459,3.52242678862706,0.241527832980092,-0.0296664137334594,-0.00703415309176983,2.2521600936029,-1.42086117452858,-0.359937952285606,0.315769866310456,0.239344650342211,-0.0153249677618067,4.16130086822157,0.000274680076076061,0.00242409040570924,0.00180451763688064,2.2521600936029,-1.42086117452858,-0.359937952285606,0.315769866310456,0.239344650342211,-0.0153249677618067,0.253696444691321,1.98891774985508,-1.7325286158533,0.0229637342824977,0.188671221916,0.0768287456844159
4.3,4.12077391929579,-2.78754550091119,3.30729276993601,0.30742892592135,0.0471212580427991,-0.0126312977331941,2.30871505072285,-1.15605609251779,-0.273937670735,0.237194367949994,0.152824573177489,0.0437906426039522,4.01962541524018,-0.00112566017956286,0.00221830206818536,-0.00104770755440578,2.30871505072285,-1.15605609251779,-0.273937670735,0.237194367949994,0.152824573177489,0.0437906426039522,-0.33016818714181,2.43711530420479,-2.15617664970053,-0.0902615785258233,0.172695735457699,-0.0436210862064796
4.4,4.29564487008531,-2.77053622222737,3.33448182749391,0.294208704597882,0.023678371551884,0.0204197198356774,2.30834561016716,-0.899923920927248,-0.35627665961735,0.176267276057105,0.164122597434992,-0.0147758982606171,3.92898403690296,0.000138072225731793,0.00379560322488647,8.38675310460275e-05,2.30834561016716,-0.899923920927248,-0.35627665961735,0.176267276057105,0.164122597434992,-0.0147758982606171,-0.224541976933551,2.27456379916023,-2.29178194828736,0.0117807062869438,0.295428749104406,0.00404457599771944
4.5,4.45601889110061,-2.76882578109904,3.30909152004485,0.26780480479378,0.0263538578750592,-0.0175693779664526,2.25924279572753,-0.705288630037332,-0.649061428573372,0.219006006566975,0.223166426755833,-0.00182476918659887,4.03574304326254,-0.000447794580443002,0.00246208828633405,0.00121026229453021,2.25924279572753,-0.705288630037332,-0.649061428573372,0.219006006566975,0.223166426755833,-0.00182476918659887,-0.16755358393344,2.13911114978952,-2.02893214717125,-0.0356967639926475,0.192596463959911,0.0514563796521661
4.6,4.59038353791837,-2.74561816070847,3.15557692531487,0.301065191538215,0.0688614293169427,-0.00946341377210252,2.24742923907894,-0.451990643251968,-0.726963594490594,0.197159789326155,0.185559767030716,0.0277644551025561,4.00162618251048,-0.00222162641409999,0.001971230379425,-0.000731218051754459,2.24742923907894,-0.451990643251968,-0.726963594490594,0.197159789326155,0.185559767030716,0.0277644551025561,-0.503428591566116,2.37813625956127,-2.18483928022712,-0.178957936539179,0.154984491268287,-0.0306442216736325
4.7,4.74965010500095,-2.66909189063686,3.08902387461912,0.319204711347586,0.0770072390755778,0.0186248758054978,2.22434043138166,-0.169031881472962,-0.800238868906173,0.126423043779875,0.189603731052969,-0.00275094709061383,3.92086723227857,-0.00246867503024116,0.00201887549972385,-0.000747792576405801,2.22434043138166,-0.169031881472962,-0.800238868906173,0.126423043779875,0.189603731052969,-0.00275094709061383,-0.618530065071089,2.44973230527827,-2.38645424317312,-0.199040504221918,0.159759913587606,-0.0315132557370225
4.8,4.9251959469703,-2.56373045289754,3.06311965159373,0.320407434534637,0.112783734070746,0.027271035925889,2.19796779805255,0.10923701531806,-0.985575621576728,0.125549099787234,0.215541165416586,0.0134276176931585,3.89812731134361,-0.00390668848424466,0.000292909151837769,-0.00198507659530068,2.19796779805255,0.10923701531806,-0.985575621576728,0.125549099787234,0.215541165416586,0.0134276176931585,-0.899417870994799,2.43183522666794,-2.45753027442861,-0.31522380679416,0.027044578258841,-0.0839090129169027
4.9,4.98072715236621,-2.54445784652615,2.87264362703683,0.251219414370046,0.0603823159905923,-0.041937569342005,1.97158385449836,0.27694791733215,-1.18876409156622,-0.00982144053830369,0.0868651238767747,-0.0801119984619376,4.0149582053244,0.00213098112620582,0.00469912654457591,0.0057633961370302,1.97158385449836,0.27694791733215,-1.18876409156622,-0.00982144053830369,0.0868651238767747,-0.0801119984619376,-0.38525917947491,2.01404197170394,-2.04631737750363,0.171400012684953,0.366605800022028,0.24280207432824
5,5.07249467295258,-2.43827819195468,2.76274199916515,0.223033096086847,0.0414871929584699,-0.0501237725337825,1.98170392207049,0.51151245641831,-1.33906533505171,0.263427093560862,0.294245827879595,0.117075497001338,4.06231311734429,-0.00496056810457729,0.00061717632611611,-0.0032600901312139,1.98170392207049,0.51151245641831,-1.33906533505171,0.263427093560862,0.294245827879595,0.117075497001338,-0.238173644048646,1.81128276034897,-1.8934300653166,-0.400294655176485,0.0497463744196769,-0.138024869691064
5.1,5.23947205468871,-2.27541207897265,2.61786974685484,0.389451845549434,0.176175919867594,0.0642796313162361,2.0275740690742,0.763251925195853,-1.4215083538478,-0.0165324577748606,0.188315604490575,-0.0459809417994791,4.04795614813331,-0.00637640277652004,-0.00207234532732698,-0.000913004285162624,2.0275740690742,0.763251925195853,-1.4215083538478,-0.0165324577748606,0.188315604490575,-0.0459809417994791,-1.50742411291339,2.98319805205387,-2.43626296679422,-0.515390651103611,-0.152559291028097,-0.0393464493387036
5.2,5.37294609332088,-2.14480891488429,2.47393733993416,0.267935149827124,0.141837054072018,-0.01286926580743,1.77974891195157,1.19235239303826,-1.32086081011724,-0.0966988020782699,0.0562310492633302,-0.00622016610792945,3.82282279970922,-0.00177672500825958,0.00297004528634642,0.00083420876181835,1.77974891195157,1.19235239303826,-1.32086081011724,-0.0966988020782699,0.0562310492633302,-0.00622016610792945,-1.01610548426278,2.03735941879041,-2.51119236618586,-0.144372108517833,0.233555898981024,0.0341717861369227
5.3,5.41292380384722,-1.93344485212136,2.5534183438595,0.210906796198874,0.0773538090427135,-0.00225892966471461,1.71278043877121,1.24202301811719,-1.85960579186152,0.0639457324675692,0.250025975646301,0.0190687875359566,4.06141676572709,-0.0041487388173105,9.71909130248846e-05,-0.000871737307325308,1.71278043877121,1.24202301811719,-1.85960579186152,0.0639457324675692,0.250025975646301,0.0190687875359566,-0.609953811452465,1.70187048665593,-1.89090802084858,-0.335675837992479,0.0122242188883426,-0.0378466065762521
5.4,5.51915511959341,-1.82299236122228,2.17085860616094,0.292457381434685,0.181653016551216,0.013114108752464,1.67547735712225,1.45936517521145,-1.82013481759791,-0.037517079563522,0.15150196504416,-0.00841415382179942,4.14786370772851,-0.00623852825792215,-0.00168384274077011,-0.000232346719413755,1.67547735712225,1.45936517521145,-1.82013481759791,-0.037517079563522,0.15150196504416,-0.00841415382179942,-1.46627467696395,2.37268475675636,-1.99722207097146,-0.50468905024798,-0.12399273505571,-0.0111568403977408
5.5,5.57753157400318,-1.67473166227714,2.00326089986805,0.224269316802225,0.125588071836006,-0.0233616818314849,1.40228819687502,1.76426855133111,-1.77781089127607,-0.167490744947692,0.0543457965634952,-0.017173762840958,4.02373007764459,-0.00196490627092233,0.00237889072305864,0.00189363787134267,1.40228819687502,1.76426855133111,-1.77781089127607,-0.167490744947692,0.0543457965634952,-0.017173762840958,-0.940691663611549,1.81217578309294,-2.02586658155514,-0.160134213139982,0.188164681021726,0.0783951308057176
5.6,5.5916023690028,-1.45212654429517,1.99711386671778,0.160281604632841,0.0897186725936489,-0.0213964778506696,1.36220724647644,1.8669354109347,-2.10024851117553,-0.00514614324508378,0.219977926728332,0.0310789379552408,4.14497763966919,-0.00430593280662965,-0.000594038564652554,-0.000475727242096773,1.36220724647644,1.8669354109347,-2.10024851117553,-0.00514614324508378,0.219977926728332,0.0310789379552408,-0.704771684647404,1.33843027002175,-1.65921722665613,-0.348777662945583,-0.0413375974481874,-0.0215755035670153
5.7,5.69115854615143,-1.26644798990172,1.71207053985136,0.250666343143939,0.193029239141476,0.0178776327577833,1.34173222818811,2.0291638271021,-2.07412201153303,-0.0972939074992687,0.125084055510696,0.000887672927219835,4.23534834714181,-0.00707612587137661,-0.00240815973282675,-0.000866585328918026,1.34173222818811,2.0291638271021,-2.07412201153303,-0.0972939074992687,0.125084055510696,0.000887672927219835,-1.61148290073443,2.07267560434028,-1.75643922315348,-0.572859166551199,-0.179783753142584,-0.0382937470224551
5.8,5.79356916337275,-1.04035046551645,1.57907008982793,0.231749076245712,0.186356331127808,0.0265405139689418,1.11502975986635,2.37813860857659,-2.02129554726558,-0.217304062491055,0.0645984419433942,0.0099018955417688,4.16548259291724,-0.00597226408294814,-0.00125596013809165,-0.00173267871206717,1.11502975986635,2.37813860857659,-2.02129554726558,-0.217304062491055,0.0645984419433942,0.0099018955417688,-1.55254137603197,1.87291686545329,-1.8421409011959,-0.484017195961402,-0.0912517557771798,-0.0749234167200101
5.9,5.78637819271877,-0.780255278749304,1.55541412116593,0.155306782521599,0.151553252513816,0.0178497332551631,0.94296980135266,2.51806550927386,-2.22879466057698,-0.209671359088054,0.0927096046299205,-0.024083316794189,4.18201253367248,-0.0044479141149478,-0.00117650384178369,0.000275069074471695,0.94296980135266,2.51806550927386,-2.22879466057698,-0.209671359088054,0.0927096046299205,-0.024083316794189,-1.27044361207696,1.27130078029302,-1.64135980216204,-0.361330268291028,-0.0851052453883937,0.00982836499733136
6,5.76438028003679,-0.589385432657729,1.30553019292211,0.120649906028096,0.146028614308975,-0.0194941768820648,0.795846302375476,2.55440242891586,-2.32217613081198,-0.184450171097875,0.0728668016402606,-0.00109427145815783,4.28101007321425,-0.00417527281051262,-0.00104957335530463,0.000952934667512895,0.795846302375476,2.55440242891586,-2.32217613081198,-0.184450171097875,0.0728668016402606,-0.00109427145815783,-1.21648187397614,1.05441576142362,-1.40068562603369,-0.339069295492635,-0.0763884847939046,0.0384449359940789
6.1,5.79685577482493,-0.370574843237081,1.1077044255614,0.146453828739764,0.167848167999241,0.016925055232958,0.71086673364118,2.69239773916932,-2.27155961660463,-0.169808902602828,0.094321906184327,0.0371275800645398,4.31239489821527,-0.00687703563168718,-0.00304924732078286,-0.00258996026563451,0.71086673364118,2.69239773916932,-2.27155961660463,-0.169808902602828,0.094321906184327,0.0371275800645398,-1.4465395720138,1.23431808654455,-1.3974509712906,-0.557022308237196,-0.230466200411649,-0.111015821372212
6.2,5.78972057796785,-0.162493010417172,0.9542916865896,0.122231109490095,0.159290966316561,0.0103394373224041,0.49066890294075,2.81469572584877,-2.35294877798715,-0.325583002880442,-0.0117926085558067,-0.0611054427096465,4.37076723786793,-0.00331671051929769,-0.000821714130379813,0.00235071275414215,0.49066890294075,2.81469572584877,-2.35294877798715,-0.325583002880442,-0.0117926085558067,-0.0611054427096465,-1.38716761350951,1.05154276107772,-1.24352763244204,-0.270690275827703,-0.0582834346231143,0.0974614285537175
6.3,5.73889383238066,0.0554991885945935,0.793636187462841,0.029104484803288,0.10950987635994,-0.0380566333543702,0.332750201214133,2.89139702990088,-2.36712526572749,-0.201501085815707,0.0685745172547868,0.0404658811247732,4.33006280523449,-0.00352114586327414,-0.00134239545003158,-0.00016978576127566,0.332750201214133,2.89139702990088,-2.36712526572749,-0.201501085815707,0.0685745172547868,0.0404658811247732,-0.935800575946813,0.287826140607986,-1.20539605885657,-0.286049545810535,-0.100371058661837,-0.0087056609879533
6.4,5.71252331974676,0.283516632803223,0.638493199070444,0.0731154343903613,0.148682153829502,0.0111509575721034,0.30622349707127,2.81667055129107,-2.38983433715513,-0.221498291068759,0.0417685520361069,-0.00868446240410512,4.38035979092786,-0.00494639921644261,-0.00251501410176249,-0.000155857386183415,0.30622349707127,2.81667055129107,-2.38983433715513,-0.221498291068759,0.0417685520361069,-0.00868446240410512,-1.30135719411948,0.62550107008931,-1.16908422350148,-0.401816034423318,-0.189826666012671,-0.00805736403085086
6.5,5.71464326192917,0.45736941437159,0.427760536302308,0.048328017763071,0.139413415017675,-0.0138716702927332,0.108606771313162,2.93145259546794,-2.44508367347909,-0.300101317440007,-0.0134172745791536,-0.0114378229437681,4.48238824986095,-0.00315026595826054,-0.00140444736531645,0.00115698360001466,0.108606771313162,2.93145259546794,-2.44508367347909,-0.300101317440007,-0.0134172745791536,-0.0114378229437681,-1.23818386390051,0.450299698935293,-0.942568094973545,-0.256856612238457,-0.104884098777314,0.0474324848784573
6.6,5.66720165555182,0.693399265923973,0.300760026145618,0.00606366433342714,0.123349773269892,-0.00744802225428555,-0.00540124391990982,2.96779005735807,-2.37112694847084,-0.234571713240164,0.0308842695983389,0.0249953942966878,4.40690388488261,-0.00400677212794093,-0.0023400455491212,-0.000873426672047322,-0.00540124391990982,2.96779005735807,-2.37112694847084,-0.234571713240164,0.0308842695983389,0.0249953942966878,-1.08397828683135,0.0615187703796549,-1.06331983453477,-0.325695456651937,-0.177451627177345,-0.0380632052068706
6.7,5.64266969053196,0.922907168106237,0.191404205906086,0.0336782423936332,0.157443269635605,0.0227890976813343,-0.065892085042607,2.9272373572969,-2.43768726378628,-0.273935359470716,-0.00432933596789073,-0.00750468560051635,4.48491649695108,-0.00458710170897623,-0.00317819057245327,-0.000726212397987027,-0.065892085042607,2.9272373572969,-2.43768726378628,-0.273935359470716,-0.00432933596789073,-0.00750468560051635,-1.41213245835917,0.269922756207929,-0.956134879939411,-0.373013698423804,-0.241779361901351,-0.0317360534716092
6.8,5.58091548423403,1.07740452125307,-0.0308336833553233,-0.0299861820384955,0.113020441796712,-0.0220355584083069,-0.326924144630737,2.94602452477584,-2.47393146167839,-0.340986720395152,-0.0713657483748086,-0.0317438196868289,4.52684472402706,-0.000930648151662325,-0.000686241165486214,0.00255174142166597,-0.326924144630737,2.94602452477584,-2.47393146167839,-0.340986720395152,-0.0713657483748086,-0.0317438196868289,-1.02634908509721,-0.24889097545591,-0.818117357323704,-0.0779881604998293,-0.0505809163361573,0.106730852786025
6.9,5.50244253040159,1.30596899931291,-0.140059092524639,-0.0509904442176806,0.107568455418859,-0.00538850308328799,-0.322838453455731,2.86455695469428,-2.37795310164713,-0.175363933109407,0.0452318896551281,0.0650384252712236,4.42856194206214,-0.00451666147541419,-0.00331711082903066,-0.00282925948480192,-0.322838453455731,2.86455695469428,-2.37795310164713,-0.175363933109407,0.0452318896551281,0.0650384252712236,-0.952093650553519,-0.44630914385791,-1.01551483443121,-0.366498058459276,-0.253772785376088,-0.120099412603804
7,5.49450767629298,1.49390847900099,-0.265204544530171,0.0220558479659849,0.171555516296337,0.0523643372385008,-0.378333796923618,2.80195328967555,-2.48573899489627,-0.327891423509862,-0.0618750719348405,-0.0420150125245366,4.59926477486763,-0.00387554891924084,-0.00359811343286827,-0.000391333451018697,-0.378333796923618,2.80195328967555,-2.48573899489627,-0.327891423509862,-0.0618750719348405,-0.0420150125245366,-1.57841332407549,0.120415173385918,-0.748705531671961,-0.316078242334785,-0.274924895642802,-0.0171507237292389
7.1,5.42770740898204,1.64190151602386,-0.48166616353092,-0.0799908987320076,0.10810397680721,-0.0153136566575389,-0.699496087771242,2.90414648731079,-2.47450966839994,-0.331460170454426,-0.0945044831700995,-0.00707781915389756,4.61701645912091,-0.000967369702960546,-0.00133320593151884,0.00115159175354194,-0.699496087771242,2.90414648731079,-2.47450966839994,-0.331460170454426,-0.0945044831700995,-0.00707781915389756,-1.00428911016236,-0.722557125670946,-0.65922525036677,-0.0806725786566149,-0.101530212613292,0.0481471787689892
7.2,5.28563476031071,1.87176123883161,-0.567252707720517,-0.0903747533370068,0.0982365329520454,0.0113457021718755,-0.678461031912961,2.66231494028721,-2.35315916825387,-0.209567394247889,-0.007680219276334,0.0365467141916296,4.45122844144146,-0.00318873921096686,-0.00303567777190441,-0.00220517784252657,-0.678461031912961,2.66231494028721,-2.35315916825387,-0.209567394247889,-0.007680219276334,0.0365467141916296,-0.860405632079443,-0.8132766160511,-0.98662072414089,-0.259572935119276,-0.232934426602312,-0.0932974709754795
7.3,5.22833614607631,1.96137293267865,-0.719897060551181,-0.0675697341904277,0.119357581816547,0.0190292248638414,-0.751614807924065,2.53585727323399,-2.56927524008283,-0.324360384417446,-0.0996868155293244,-0.050746298315357,4.63946570350947,-0.000737312960413817,-0.00170198113042699,0.00158914765426393,-0.751614807924065,2.53585727323399,-2.56927524008283,-0.324360384417446,-0.0996868155293244,-0.050746298315357,-1.0902411051056,-0.647360340136362,-0.618108628855582,-0.0625107653956438,-0.130503776075745,0.0669097002808375
7.4,5.19531855782813,2.13310847801218,-0.926114179416267,-0.0952005743076694,0.114827923810732,0.0170667959354645,-0.85325754371602,2.57424784132995,-2.4167890931656,-0.195479222312124,-0.0166503446566002,0.0652742059259183,4.62201168550615,-0.00385538317662214,-0.00390909640888286,-0.00378182680661579,-0.85325754371602,2.57424784132995,-2.4167890931656,-0.195479222312124,-0.0166503446566002,0.0652742059259183,-1.03919538752878,-0.896573065662213,-0.668435704525756,-0.312970241122847,-0.300750130598515,-0.15954756987684
7.5,5.08075394654529,2.28862845663245,-1.01764534347755,-0.0736028821081617,0.126694998719119,0.0492344774291384,-0.985470416008306,2.38796380080892,-2.46090511094136,-0.354960281257134,-0.141209894268308,-0.0732067032576072,4.64377560831035,-0.000525878321032387,-0.00190647951371785,0.0013058689744716,-0.985470416008306,2.38796380080892,-2.46090511094136,-0.354960281257134,-0.141209894268308,-0.0732067032576072,-1.13533306139852,-0.739744844279955,-0.62183347961034,-0.0455262862692986,-0.147048932560114,0.0552180172129315
7.6,4.91085410102685,2.3276860313099,-1.23691531200645,-0.21269166904538,0.01466842458534,-0.0636208997458765,-1.20895280274456,2.26508639965451,-2.55848192385069,-0.268614741677833,-0.100720449860861,-0.00681760934159573,4.67748743812703,0.00362131178950505,0.000547228505875381,0.00337038749288372,-1.20895280274456,2.26508639965451,-2.55848192385069,-0.268614741677833,-0.100720449860861,-0.00681760934159573,-0.259405540706266,-1.96223470245476,-0.666811350886512,0.290278048716336,0.0414981050635244,0.142479783607132
7.7,4.79341404664253,2.47369245321333,-1.38552492948647,-0.158680509136657,0.0600314851805258,-7.85007540202842e-05,-0.972593778883424,1.78575389731578,-2.34599284221093,-0.0546256608903707,0.0151936744440038,0.0733078925856895,4.46078098988769,-0.00219962460398087,-0.0024212375844148,-0.0034500195591199,-0.972593778883424,1.78575389731578,-2.34599284221093,-0.0546256608903707,0.0151936744440038,0.0733078925856895,-0.528639081484477,-1.40970296649822,-1.01639172883241,-0.178953743381344,-0.187062135030896,-0.145202147014255
7.8,4.76555016360628,2.40116277972223,-1.51986094863337,-0.110987495242502,0.0758321905745505,0.00590296053174305,-1.14391995501273,1.75387898207924,-2.73159702577159,-0.328179967055865,-0.140567111023799,-0.106829441016065,4.80366358957854,0.00314364900331259,0.000266849162136011,0.00481239633493089,-1.14391995501273,1.75387898207924,-2.73159702577159,-0.328179967055865,-0.140567111023799,-0.106829441016065,-0.717074386957291,-1.06835683837119,-0.289225161950014,0.250869371156242,0.019075667544768,0.203449761947103
7.9,4.69150904122959,2.56268377813147,-1.76725530361877,-0.186574961115232,0.0520189974835375,-0.0249712054479228,-1.18078442296968,1.82238145303544,-2.41653244029443,-0.0570381199502593,0.0210344679183671,0.122205357889273,4.6897846455572,-0.00204821860693287,-0.00259152342171384,-0.00458135326054676,-1.18078442296968,1.82238145303544,-2.41653244029443,-0.0570381199502593,0.0210344679183671,0.122205357889273,-0.522524386844427,-1.72734931276068,-0.605677498931595,-0.166177282940565,-0.200156370760141,-0.19281464830676
8,4.58771366122866,2.68688235452304,-1.79424173388821,-0.0917936260064909,0.1119017250132,0.0678777875148862,-1.20529812920399,1.44731589837178,-2.50725858213715,-0.284586568791684,-0.122600062534094,-0.0953278662566786,4.70684844287559,0.000986977308323051,-0.00140171309092692,0.00135926035229557,-1.20529812920399,1.44731589837178,-2.50725858213715,-0.284586568791684,-0.122600062534094,-0.0953278662566786,-0.985848524994391,-0.931916234918378,-0.494565287993087,0.0769222577393004,-0.11005686629439,0.0578735480252453
8.1,4.50270125580258,2.66077882593236,-1.9746746298354,-0.197765217013466,0.0482398740077507,-0.0259307828019321,-1.40636238191069,1.58599662498893,-2.62326037937481,-0.153920707958413,-0.066423694065872,0.0365213349125632,4.86589960471326,0.00109029462184899,-0.000802958299498299,-0.000479280365463925,-1.40636238191069,1.58599662498893,-2.62326037937481,-0.153920707958413,-0.066423694065872,0.0365213349125632,-0.50955333487244,-1.8995172390527,-0.278992418948731,0.0866570372725499,-0.063167174700963,-0.0196379119731438
8.2,4.3442408331997,2.81532915962342,-2.15694627902421,-0.149367611826427,0.073955980915376,0.0366375376669281,-1.3402194690166,1.12223134618287,-2.38299437204334,-0.139420839654368,-0.0539681090770289,0.000636133651079299,4.68966307840789,0.000126227861622024,-0.00163012664053273,-0.00174127634718898,-1.3402194690166,1.12223134618287,-2.38299437204334,-0.139420839654368,-0.0539681090770289,0.000636133651079299,-0.633722734510076,-1.41992966518235,-0.560461935986815,0.00853103255311493,-0.127484934403971,-0.0728594317362674
8.3,4.29717145129437,2.74677724619172,-2.1986545893047,-0.135845764130456,0.0924694488504275,0.0390278454454785,-1.39886545396507,1.15962916020316,-2.62241519420383,-0.163944992438993,-0.0767096010658079,-0.0157172163484911,4.88679645889115,-9.00194598013423e-05,-0.00170031332228881,-0.0010698513027571,-1.39886545396507,1.15962916020316,-2.62241519420383,-0.163944992438993,-0.0767096010658079,-0.0157172163484911,-0.841831147830942,-1.35750162178507,-0.167820361146726,-0.00885138112428827,-0.133061392315834,-0.0445060845709643
8.4,4.13877285192922,2.79360041726366,-2.49027580290391,-0.194675328303227,0.0383298350713904,-0.00789936651995808,-1.60984241018494,0.968749585152384,-2.50955561805346,-0.206396619827492,-0.116945194411142,-0.0366299669600438,4.91167591042966,0.00378419774990717,0.000473421049702215,0.00212011680129681,-1.60984241018494,0.968749585152384,-2.50955561805346,-0.206396619827492,-0.116945194411142,-0.0366299669600438,-0.38432415015823,-1.89733113602429,-0.179285047087212,0.303847404340342,0.0342313848627032,0.0901072359213823
8.5,3.96221198278125,2.7941641512323,-2.58186838163935,-0.220081040145189,0.0169239684518304,-0.0163001236414434,-1.52131140555949,0.626070188612447,-2.44503662783804,-0.0329563102124555,-0.0267091732756925,0.0379491502219397,4.82759633062271,0.00190413216964569,-0.000174158986541271,-0.00102880064386505,-1.52131140555949,0.626070188612447,-2.44503662783804,-0.0329563102124555,-0.0267091732756925,0.0379491502219397,-0.193790118713087,-2.10493361223157,-0.389042235326905,0.152712903035219,-0.0150849228852322,-0.0427596344897804
8.6,3.91054234804409,2.73078326277923,-2.70060905016171,-0.138964800408493,0.0694043862116226,0.0334476387841516,-1.46264562702292,0.385906309682068,-2.529979994881,-0.0881898243622927,-0.0449419285736967,-0.0185181221771092,4.91583721395115,0.000954064154772123,-0.000977553890392625,-0.00070483065468631,-1.46264562702292,0.385906309682068,-2.529979994881,-0.0881898243622927,-0.0449419285736967,-0.0185181221771092,-0.629320600701505,-1.38368285749272,-0.0965454452248888,0.0757503603004643,-0.0776637347108453,-0.0290959841989428
8.7,3.84170541803089,2.67917136668317,-2.88171248111379,-0.159526476768893,0.0643569086711392,0.01596400321109,-1.63074918854487,0.472211712928967,-2.51316503099745,-0.11670965685091,-0.0723405374706981,-0.00742749882774318,5.01701883425726,0.00160237990080993,-0.000619544045454989,-0.000400787898708762,-1.63074918854487,0.472211712928967,-2.51316503099745,-0.11670965685091,-0.0723405374706981,-0.00742749882774318,-0.611594816876894,-1.60388150180803,0.0761229934335574,0.12825245645043,-0.0498372586496546,-0.0162693863040849
8.8,3.6273162764354,2.69993195762601,-3.06014265953095,-0.217280292179669,0.00925221074781431,-0.0203166711914676,-1.75637921348689,0.179646908391722,-2.45553350681229,-0.117740175793293,-0.0938422039855718,-0.0349982576004243,5.03358070288959,0.00511062602316457,0.00132803260380991,0.00261893078439416,-1.75637921348689,0.179646908391722,-2.45553350681229,-0.117740175793293,-0.0938422039855718,-0.0349982576004243,-0.135022094501687,-2.16792932951721,0.0200351080871055,0.411305161224836,0.100030133360207,0.111130776626645
8.9,3.47977174102931,2.61961980126354,-3.16889687405458,-0.213596219991964,0.0040673436848222,-0.0241309544139006,-1.62048928135448,-0.183841908124744,-2.4013516754068,0.0525597141188973,-0.00348064855687769,0.0431681743412797,5.00759039068859,0.00243863992399258,0.000423790061044727,-0.000901529927691576,-1.62048928135448,-0.183841908124744,-2.4013516754068,0.0525597141188973,-0.00348064855687769,0.0431681743412797,-0.0910222268200849,-2.12139692158375,-0.0224959188265679,0.196173831058152,0.031166574953831,-0.0374442387806354
9,3.43722289943427,2.48737147980718,-3.28898991053844,-0.132065749713934,0.0549549385062455,0.0237446694176011,-1.59798375682871,-0.35322477864397,-2.43450951896728,-0.0353556279192081,-0.0301261945609041,-0.0235307765000159,5.07079552147279,0.00190034342921329,-0.000236823534707139,-1.18143223144256e-05,-1.59798375682871,-0.35322477864397,-2.43450951896728,-0.0353556279192081,-0.0301261945609041,-0.0235307765000159,-0.520336328688635,-1.34820094974919,0.228101074730038,0.152430591253124,-0.0205806415882659,8.22685831979921e-05
9.1,3.28590687573647,2.35120797207045,-3.49925226039714,-0.216850510910621,-0.00804372446422909,-0.0523372599161594,-1.84636926395015,-0.344146955413085,-2.45270928195217,-0.089346051791437,-0.094936496745751,-0.0446630044073181,5.23407284794404,0.00693830397065176,0.00228062857138932,0.00460398996655316,-1.84636926395015,-0.344146955413085,-2.45270928195217,-0.089346051791437,-0.094936496745751,-0.0446630044073181,-0.0357066597136555,-2.25349127536669,0.412650166010692,0.558921384892058,0.173567171961085,0.194830196931004
9.2,3.14875243409027,2.42101854059572,-3.58073890109675,-0.1737180304209,0.02748064601627,0.00225030123172491,-1.60475352377815,-0.71391176842871,-2.18990495055788,0.19894060226792,0.0689304968495799,0.119969869023778,5.03845837768489,-0.00124262462507453,-0.00123470006505836,-0.00577937443153526,-1.60475352377815,-0.71391176842871,-2.18990495055788,0.19894060226792,0.0689304968495799,0.119969869023778,-0.268797757929531,-1.74236006413216,0.111500918051748,-0.100465601841996,-0.0958657376535159,-0.243331300949761
9.3,3.08674239404122,2.18104015175533,-3.65210612333586,-0.0890823886378264,0.0599051580566221,0.0382840785818682,-1.75973969796356,-0.790813812120958,-2.44492589619376,-0.172483005441195,-0.104553418036014,-0.145790912035615,5.26621589228288,0.00505932408570018,0.00121321850414085,0.00509463174734617,-1.75973969796356,-0.790813812120958,-2.44492589619376,-0.172483005441195,-0.104553418036014,-0.145790912035615,-0.591745183117355,-0.960366317521383,0.661850527531353,0.406862915312685,0.0899120802349654,0.215491981218817
9.4,2.95760858080235,2.15821420667407,-3.85699676808684,-0.205407719428407,0.0175200463846975,-0.038223184585051,-1.83940422322461,-0.606852843188052,-2.15860906805596,0.135902487905221,0.0347404774437911,0.128768946661893,5.20291026981287,0.000631432520279054,-0.000654969243158096,-0.00428719518993794,-1.83940422322461,-0.606852843188052,-2.15860906805596,0.135902487905221,0.0347404774437911,0.128768946661893,-0.259444970862116,-2.11406672754857,0.375504959571884,0.0508438143426792,-0.0506662346033564,-0.180399272309367
9.5,2.76094738214829,2.15496756076323,-3.91801016450173,-0.111469999609268,0.0479076721616544,0.0450757758523816,-1.83515003759508,-1.18613751180153,-2.26165420411828,-0.0695027934870498,-0.0781617649757242,-0.108715917560777,5.28679084185031,0.00427769086379398,0.00111020808749451,0.00301758651631228,-1.83515003759508,-1.18613751180153,-2.26165420411828,-0.0695027934870498,-0.0781617649757242,-0.108715917560777,-0.44970806167497,-1.19767839768124,0.685901997297876,0.344036469815432,0.0823107628483065,0.127816193740732
9.6,2.67697305289621,1.87921785788762,-4.05261197613569,-0.170744141346766,0.0179645265156775,-0.0316524380506923,-1.88541672647006,-1.00859865799756,-2.10676878510156,0.117459691021811,0.0191858162058687,0.0742145826013384,5.27683364408725,0.00148226499968,-1.83829502218633e-05,-0.00201298984100236,-1.88541672647006,-1.00859865799756,-2.10676878510156,0.117459691021811,0.0191858162058687,0.0742145826013384,-0.243481827566711,-1.78642324599194,0.588524020999754,0.119344050830493,-0.00214229111794683,-0.0844820815143823
9.7,2.53409138135549,1.89961805380617,-4.12919517532015,-0.0852924711627895,0.0673842792974604,0.051485748702844,-1.84812343407858,-1.3290514296394,-2.10262992971008,0.0142527219401041,-0.0243819916500644,-0.0331653413439975,5.30861554307223,0.00133063595078007,-0.000475525291562137,-0.000865310868496879,-1.84812343407858,-1.3290514296394,-2.10262992971008,0.0142527219401041,-0.0243819916500644,-0.0331653413439975,-0.66480366439934,-0.939930596563963,0.744627539522014,0.106654535477194,-0.0388686260634249,-0.0360654063124792
9.8,2.4074833675636,1.66358621867275,-4.26785772234525,-0.145564720754164,0.0273028185126509,-0.0127469675627442,-2.05310387801335,-1.22795590711348,-2.05532958270803,-0.00119950408343664,-0.0602679693184553,-0.026486885404151,5.39053694871137,0.00396427489269611,0.00109010369422977,0.0018596678893737,-2.05310387801335,-1.22795590711348,-2.05532958270803,-0.00119950408343664,-0.0602679693184553,-0.026486885404151,-0.311114089414343,-1.55996879902036,0.853079280917914,0.31926400013442,0.0822860571296082,0.0788948611574245
9.9,2.20564738273506,1.65469132575627,-4.36223335032497,-0.136754405047682,0.0233985005264,0.000959224608488938,-1.96993665567054,-1.51823026743892,-1.92568329529006,0.132469783632912,0.0156631379449461,0.0466035324399229,5.36494730495935,0.00119056857890359,-5.77861835255747e-05,-0.00224676504294882,-1.96993665567054,-1.51823026743892,-1.92568329529006,0.132469783632912,0.0156631379449461,0.0466035324399229,-0.247293482273406,-1.46302880623781,0.816807186813261,0.0957595821218344,-0.00544783782990846,-0.0944096578081028
10,2.09791669059778,1.42160979952617,-4.43991538140384,-0.0891506200607122,0.0431394358714282,0.0212097595600531,-1.99794519118527,-1.65278289937743,-1.92182172724641,0.0142724698010684,-0.039575020724002,-0.0556540493834066,5.42564920180371,0.00300714857683921,0.000610818395473881,0.00163457127909115,-1.99794519118527,-1.65278289937743,-1.92182172724641,0.0142724698010684,-0.039575020724002,-0.0556540493834066,-0.445520798226823,-0.975787187857017,0.98814926857813,0.241993016114779,0.0450949347805726,0.069347990349963
10.1,1.97166207403426,1.28276003433969,-4.54518252396227,-0.122450854605212,0.0293748653893415,-0.0105284770935545,-2.0702029791584,-1.60145667789914,-1.79155006705319,0.110632956675063,-0.00059630180912415,0.0404842850644768,5.42477976727758,0.0016256604801875,3.34249475638413e-05,-0.00141503500987911,-2.0702029791584,-1.60145667789914,-1.79155006705319,0.110632956675063,-0.00059630180912415,0.0404842850644768,-0.33020725007734,-1.32181700736124,0.953675258242583,0.130904451779257,0.00181013596300217,-0.0593528684903121
10.2,1.76851456846035,1.17296970215405,-4.6377119697867,-0.108531814358294,0.0160165284172125,-0.000948431560437488,-2.1242000911508,-1.86551396332638,-1.79395564265652,0.0354708514357896,-0.0497636791023194,-0.0529244714068456,5.52698174844368,0.00418880723771671,0.00145754064425834,0.00256119031160392,-2.1242000911508,-1.86551396332638,-1.79395564265652,0.0354708514357896,-0.0497636791023194,-0.0529244714068456,-0.17713241973488,-1.19718538625072,1.17751474389658,0.337399408927742,0.110619231513389,0.108403116229608
10.3,1.62014602853055,0.955075274756624,-4.73640543019588,-0.129181817739326,-0.00250677474369528,-0.0356515282913095,-2.09348289248196,-1.94236164536689,-1.60801327743929,0.160802872188575,0.0168983823541581,0.0421613087418451,5.50309703265143,0.0026448325786799,0.000868852319594015,-0.000291320428077217,-2.09348289248196,-1.94236164536689,-1.60801327743929,0.160802872188575,0.0168983823541581,0.0421613087418451,-0.0231950310476653,-1.41792322155578,1.10445204906848,0.213171584139491,0.0663560819760636,-0.0119886882221502
10.4,1.54153845441916,0.849312321998526,-4.72642291431888,-0.0291645882524459,0.0683261267041717,0.0466999103605285,-1.99062763644102,-2.05732086070151,-1.54848921686208,0.143133793288106,0.0326626521267018,0.0151147988343571,5.44778044929365,-0.000895558346351388,-0.00156603441993992,-0.0029175607657622,-1.99062763644102,-2.05732086070151,-1.54848921686208,0.143133793288106,0.0326626521267018,0.0151147988343571,-0.727913296623832,-0.352084490918087,1.05551545204725,-0.072554910094862,-0.121642198660194,-0.122814457130527
10.5,1.40613767777639,0.621453132589018,-4.83652972489012,-0.0665972390581488,0.0370432153628056,-0.000530347735372581,-2.28965738270117,-1.89917499285758,-1.57118257325335,-0.0347799500128979,-0.100709402595714,-0.0784223637126254,5.58629417695467,0.00455332801676865,0.00151493861088575,0.00374361868860875,-2.28965738270117,-1.89917499285758,-1.57118257325335,-0.0347799500128979,-0.100709402595714,-0.0784223637126254,-0.413250969589645,-0.743294586482199,1.33017357673344,0.366773750975935,0.115195182774244,0.158242707624051
10.6,1.14586806861542,0.603781812936107,-4.92397912145864,-0.122292809712781,-0.00780545144240201,-0.0287315710870373,-2.2312308227494,-2.03763491743554,-1.35388444739904,0.21507451024871,0.0388905725129717,0.0835399320413837,5.55022074254685,0.00114466025973815,8.23881457114257e-05,-0.00258073991456914,-2.2312308227494,-2.03763491743554,-1.35388444739904,0.21507451024871,0.0388905725129717,0.0835399320413837,0.0470597662634889,-1.35603459017094,1.20720276352616,0.0922927687140448,0.00626697370480147,-0.10865091996287
10.7,0.989971718503588,0.368588407097086,-4.95615943879751,-0.0451386487331205,0.019017347108859,0.00675379388461453,-2.17605137703233,-2.36422744682068,-1.37545785892651,0.0545580816441096,-0.0447222197919967,-0.0841406425238324,5.64571338773433,0.00389600026721264,0.00138761401229412,0.00367900490446051,-2.17605137703233,-2.36422744682068,-1.37545785892651,0.0545580816441096,-0.0447222197919967,-0.0841406425238324,-0.2110553614982,-0.510943752555511,1.46788591633546,0.313783679843787,0.105455784671465,0.155462558122357
10.8,0.90594454314635,0.102864607677368,-5.02737966322028,-0.0831574016829645,0.0018913157256263,-0.042727537990052,-2.21968714237103,-2.18562750659267,-1.13720114583612,0.199699818071127,0.0274798812944691,0.0744834091623586,5.57012716853033,0.00156547735073084,0.000392926344603695,-0.0014853890716234,-2.21968714237103,-2.18562750659267,-1.13720114583612,0.199699818071127,0.0274798812944691,0.0744834091623586,-0.0605026814811286,-0.92358587684041,1.29173838856029,0.126232418209413,0.0301730562850958,-0.0624702543102608
10.9,0.726070869206178,0.0418522468267071,-5.01565196677472,-0.0201767844151802,0.02868326677029,0.0182691773145007,-2.20148084339253,-2.37159562471336,-1.18073594941839,0.106492925946451,-0.0128118616841869,-0.0434776421697921,5.64164828739763,0.00183792561724106,0.000411830837739132,0.00120426771595713,-2.20148084339253,-2.37159562471336,-1.18073594941839,0.106492925946451,-0.0128118616841869,-0.0434776421697921,-0.31931891377783,-0.23351753392539,1.46635963365125,0.147866621045263,0.0307094570301653,0.0510022198055949
11,0.602093030345762,-0.184753564041888,-5.09207958447184,-0.0421627211226176,0.01974381077585,-0.021039251617655,-2.27386345247832,-2.22976847358277,-0.98806795798943,0.13357259873378,-0.00552028656737091,0.0238933290173097,5.60543924552204,0.00185854049428235,0.000306866278564323,-0.000125595336204692,-2.27386345247832,-2.22976847358277,-0.98806795798943,0.13357259873378,-0.00552028656737091,0.0238933290173097,-0.231026619713734,-0.467784368634172,1.38873211691395,0.149729402809741,0.0232068315546648,-0.0051285474812352
11.1,0.442275499718783,-0.231869100656759,-5.05623711522866,0.00110460662854431,0.046988378052995,0.0312804759037327,-2.23607249248374,-2.28248334280593,-0.948889719052284,0.161383023580526,0.013008893411059,0.0151526990255685,5.60225592101107,-0.000604836954983964,-0.00112939021226413,-0.00219030597019762,-2.23607249248374,-2.28248334280593,-0.948889719052284,0.161383023580526,0.013008893411059,0.0151526990255685,-0.526417426530104,-0.00408932736040334,1.38213802579568,-0.0490326008398196,-0.087480771063277,-0.0922660734136173
11.2,0.30949485465734,-0.41140706470793,-5.09666671180953,0.0214041549790387,0.0543461827841518,0.0298199217489683,-2.34617329270032,-2.18758554320937,-0.867856627151164,0.0595413762804678,-0.046445372186087,-0.0330203496136807,5.6307473373124,0.000840016207933283,-0.000516279306592743,0.000153749867788418,-2.34617329270032,-2.18758554320937,-0.867856627151164,0.0595413762804678,-0.046445372186087,-0.0330203496136807,-0.618492271921804,0.222682715206019,1.43229256088473,0.0674134671956652,-0.0403713564622285,0.00662196981283726
