time,x,y,z,roll,pitch,yaw,xdot,ydot,zdot,p,q,r,thrust,roll angle,pitch angle,yaw angle,_xdot,_ydot,_zdot,_p,_q,_r,_xddot,_yddot,_zddot,_phiddot,_thetaddtot,_yawddot
0,5.01841953230695,3.01841953230695,0.0184195323069548,0.0184195323069548,0.0184195323069548,0.0184195323069548,0.0184195323069548,0.0184195323069548,0.0184195323069548,0.0184195323069548,0.0184195323069548,0.0184195323069548,9.2119627290767,-0.00710946705396525,0.00852864033278154,-0.00173837305415974,-0.0883350507834795,0.123857785367394,4.74710563946346,-0.305543138928601,0.37085320966329,-0.0304345660415288,-0.215642742064681,0.207145355676647,1.04195410765088,-0.053808477304931,-0.0882523275027149,0.0227921138981195
0.1,3.02036642022637,1.82036642022637,0.0203664202263731,0.0194484364875902,0.0195103852004776,0.0186004075888995,-0.0883350507834795,0.123857785367394,4.74710563946346,-0.305543138928601,0.37085320966329,-0.0304345660415288,5.42803645310955,-0.000667188815709911,-0.00114731859608155,0.000540175135060454,-0.0883350507834795,0.123857785367394,4.74710563946346,-0.305543138928601,0.37085320966329,-0.0304345660415288,-0.215642742064681,0.207145355676647,1.04195410765088,-0.0538134095380443,-0.0882603368913396,0.0227975489262715
0.2,3.29217966063843,2.05562337378864,2.18884744530995,-0.138348424139762,0.173044523153342,-0.0147393382969458,-0.0567165026864361,0.0591841642175263,1.00758060634556,-0.053036186139535,-0.0112102448300794,0.0109755946231109,6.69559620469031,0.000361276315027299,0.000407328068733025,0.000179544618532657,-0.0567165026864361,0.0591841642175263,1.00758060634556,-0.053036186139535,-0.0112102448300794,0.0109755946231109,-2.31066474034972,-1.81288646083248,3.25515615225812,0.0291755457593434,0.0313629150855873,0.00760401834997725
0.3,3.30504648031539,2.03658224883661,0.758914784403291,-0.0349738916157638,0.0248904308995059,0.01061220715108,-0.505583896843609,-0.296833474979357,2.51034717204801,-0.00978033482988193,0.050976488625023,0.00720160810220721,6.448303975955,-0.0040217660421967,0.0028041819756029,-0.000874787913564275,-0.505583896843609,-0.296833474979357,2.51034717204801,-0.00978033482988193,0.050976488625023,0.00720160810220721,-0.31596912931986,-0.454331273243998,3.074729072384,-0.324332580168667,0.215709379201714,-0.0368783250464223
0.4,3.06795102779844,1.84964998701003,1.5707528198312,-0.038225632671502,0.0327993855340765,-0.010755517208245,-0.358627123932762,-0.223315432115542,2.32815477932801,-0.219275964627561,0.137552888487458,-0.0334473584374717,6.06833192275083,0.000241345650648996,0.000333150324921445,0.00204790184351463,-0.358627123932762,-0.223315432115542,2.32815477932801,-0.219275964627561,0.137552888487458,-0.0334473584374717,-0.402678509508351,-0.459514325706201,2.31127492886611,0.0194405453951991,0.0256082040637325,0.0864473700953229
0.5,3.17533458564695,1.93314806082809,1.61601079213067,-0.0899778621857026,0.121023540515006,0.0157660764228984,-0.313663359286045,-0.17645240052776,2.10348540780225,-0.0075249778312465,0.0828851188483725,0.0706471036969552,6.14972813322176,-0.00355956809648936,-0.00283492950837083,-0.00410198639009186,-0.313663359286045,-0.17645240052776,2.10348540780225,-0.0075249778312465,0.0828851188483725,0.0706471036969552,-1.46127841556822,-1.1283640118888,2.35010215824791,-0.286928542166142,-0.217936498944903,-0.172997945604076
0.6,3.13422473537183,1.90277921758201,1.62426621733739,-0.0349436155225633,0.0720550334423735,0.0305136979702551,-0.540912442362254,-0.359225994872414,2.29538152030891,-0.20388393242016,-0.0773620547157018,-0.0939087638865371,5.98096824993372,-0.00109866682259696,0.00193144069847858,0.00296588885537506,-0.540912442362254,-0.359225994872414,2.29538152030891,-0.20388393242016,-0.0773620547157018,-0.0939087638865371,-0.847495792002183,-0.44397113895829,2.11361377004352,-0.0888451788004006,0.148354979002881,0.12523782007219
0.7,3.04828990185888,1.84709158927706,1.91318594674711,-0.0939798217187683,0.0376387753777054,-0.00597045050446625,-0.529975093784184,-0.316989975470901,2.23674395064718,-0.0803756579702563,0.145380451930038,0.0888674000842848,5.7978425828819,-0.00247410497316111,-0.00293396373367591,-0.00395137694611266,-0.529975093784184,-0.316989975470901,2.23674395064718,-0.0803756579702563,0.145380451930038,0.0888674000842848,-0.440907827856897,-1.0855439129498,1.72633863770939,-0.199275055010502,-0.225346535727969,-0.166611700538461
0.8,2.99253868346127,1.81532419223891,1.96657452650934,-0.0765124630484992,0.105398582304699,0.0399771304042606,-0.610954149522332,-0.452443016467282,2.11931772770644,-0.173176018824184,-0.0835716290767472,-0.0894476762899903,5.82228495757048,-0.000758849296417737,-0.0015631752324812,0.00236477851449231,-0.610954149522332,-0.452443016467282,2.11931772770644,-0.173176018824184,-0.0835716290767472,-0.0894476762899903,-1.18491647707972,-0.938192221649895,1.73607192105551,-0.0614347775787032,-0.120531042819676,0.0999360801064076
0.9,2.94008076791814,1.75073984962943,2.0595298799354,-0.115888443683548,0.0208335046827494,-0.0254931256694711,-0.689289580550521,-0.522825538769191,2.23793321622642,-0.0951006949227819,-0.020223839744292,0.0581953116836283,5.60505673917046,-0.00137978392383355,-0.000356630057031068,-0.00154919215028612,-0.689289580550521,-0.522825538769191,2.23793321622642,-0.0951006949227819,-0.020223839744292,0.0581953116836283,-0.264928311695593,-1.28988266380101,1.32250465531313,-0.110993224108277,-0.0269734800502152,-0.0652007854541894
1,2.8148366384881,1.64291292687563,2.21566800419656,-0.132908382769103,0.00156872820276299,-0.00409616061893091,-0.802271658717352,-0.685399945605046,2.0481656905575,-0.160891962722892,-0.0185120659820358,-0.0642143880977151,5.59382889047359,0.00163428353475599,-0.0012736765491125,0.00323935133891682,-0.802271658717352,-0.685399945605046,2.0481656905575,-0.160891962722892,-0.0185120659820358,-0.0642143880977151,-0.0234682441623605,-1.48247598457456,1.27897654521207,0.131759628712154,-0.0980445006613669,0.13685694360895
1.1,2.74453695647292,1.56137828942417,2.25873592999766,-0.155847325442138,0.0135258812065553,-0.044255101521577,-0.791786174691399,-0.789560208043876,2.12072852430313,-0.0213650511158474,-0.040833085961621,0.0554299056685177,5.46394915967034,-0.000737837395203148,-0.00226103631345929,-0.000520339204024474,-0.791786174691399,-0.789560208043876,2.12072852430313,-0.0213650511158474,-0.040833085961621,0.0554299056685177,-0.22091155410397,-1.68807741959759,0.984468694130205,-0.0592095188360484,-0.173285001389214,-0.0217608373543956
1.2,2.7367027076798,1.51681570255552,2.44931931021388,-0.0623318438905194,0.040653543612105,0.0450940632932634,-0.737909590913032,-0.850675677711998,2.07302892847561,-0.0886944435855397,-0.0616807120271589,0.00582159336100032,5.38498473522918,-0.00335748483029097,-0.00352027047099173,-0.00232663142551432,-0.737909590913032,-0.850675677711998,2.07302892847561,-0.0886944435855397,-0.0616807120271589,0.00582159336100032,-0.406180343006557,-0.689888868639205,0.93017286976742,-0.270756695686342,-0.270770470002026,-0.0979860376984694
1.3,2.66569577851578,1.40024476310255,2.52925208638712,-0.131596727619333,-0.00733523914014254,-0.0110185554088934,-0.818162530446281,-1.04033013588279,1.97581141651768,-0.238017235406626,-0.152655199416512,-0.0670397962150644,5.3060078868131,0.00417033068584329,-0.000332973714769705,0.00370315629818336,-0.818162530446281,-1.04033013588279,1.97581141651768,-0.238017235406626,-0.152655199416512,-0.0670397962150644,0.0618204497519065,-1.39324505802147,0.70997743438561,0.336299537944265,-0.0256633291441468,0.156425967793374
1.4,2.61117583708462,1.29493553399956,2.61818713394092,-0.18275856783932,-0.0323865527831799,-0.0260227970526735,-0.81378492330259,-1.06366916632716,1.97062676851242,0.0984955183374948,-0.00605089394828094,0.0869658192219775,5.19970753528665,-0.00193734885220948,-0.00390827616255121,-0.00288506898328626,-0.81378492330259,-1.06366916632716,1.97062676851242,0.0984955183374948,-0.00605089394828094,0.0869658192219775,0.281844089700588,-1.89799588793268,0.410861476830535,-0.156053158720117,-0.299740431875518,-0.121591847086254
1.5,2.53680621921767,1.20058031418904,2.71718842941907,-0.0578277714962373,0.0109624502842878,0.0315042844191647,-0.838641911754994,-1.21057181801865,1.89267686798697,-0.167262528436061,-0.178259387601643,-0.0726133534924646,5.20213191758267,-0.000254251732000429,-0.00262207274729331,0.00196290292838491,-0.838641911754994,-1.21057181801865,1.89267686798697,-0.167262528436061,-0.178259387601643,-0.0726133534924646,-0.0948657650051941,-0.604608321745734,0.576248370592499,-0.0205734258815596,-0.202019538474359,0.0829530925114449
1.6,2.4757419137329,1.0801475093176,2.81021962034848,-0.173017984254162,-0.0658010564940756,-0.0385129783235961,-0.800442098647947,-1.39739695129546,1.88390747461172,-0.100947805265146,-0.131500510808829,0.0370521632216146,5.02303868631299,0.00409689035763684,-0.00117167147870591,3.38623161867841e-05,-0.800442098647947,-1.39739695129546,1.88390747461172,-0.100947805265146,-0.131500510808829,0.0370521632216146,0.583629150063722,-1.75326487702229,0.0646701141346302,0.330459659197065,-0.0894077207577523,0.00149607998502941
1.7,2.41228331860617,0.893010189564796,2.87830992298064,-0.174243428548933,-0.0750593560267421,-0.0169560169600295,-0.865622168728073,-1.44857645336878,1.72985152851573,0.076160250220383,-0.105267204894422,-0.0226321349953719,5.0640629589133,0.000427804824088417,-0.00269633893937484,0.00182839957335954,-0.865622168728073,-1.44857645336878,1.72985152851573,0.076160250220383,-0.105267204894422,-0.0226321349953719,0.718118465629408,-1.76827305552443,0.136680394874421,0.0345027975391732,-0.207229491667656,0.0771587416360764
1.8,2.32707973175989,0.793970509866567,2.92950943422604,-0.0983054998276376,-0.0711764745916375,-0.0365598032067229,-0.807491119521537,-1.6247128840687,1.77275238329877,-0.0702630465362453,-0.172584430797581,0.0205233772260889,4.93681878191771,0.00164692509616199,-0.00204165606178233,0.000700631301603017,-0.807491119521537,-1.6247128840687,1.77275238329877,-0.0702630465362453,-0.172584430797581,0.0205233772260889,0.662899219552111,-0.99396453819802,-0.00891241425199318,0.132792644990893,-0.156536213872126,0.0295269633752119
1.9,2.33796873773208,0.677267123331027,3.09385142209935,-0.11732610492886,-0.0651736798260617,0.0222624107759484,-0.677556267887801,-1.72851303172063,1.66209425077331,0.0231967359064881,-0.119777750914063,0.0336941206594032,4.83102631936188,0.00100645233088248,-0.00352467141605324,-0.00269463219601647,-0.677556267887801,-1.72851303172063,1.66209425077331,0.0231967359064881,-0.119777750914063,0.0336941206594032,0.649961854546457,-1.11682024258063,-0.234744216112784,0.0811356597091821,-0.270914933738141,-0.113813277941133
2,2.31269909820608,0.499812166710465,3.11238734850794,-0.0983364898420693,-0.0705499186580441,0.0120754940684333,-0.650981014000632,-1.83824399409797,1.5187134052417,-0.0146584024056025,-0.206422017810961,-0.059781864731348,4.86868349392657,0.00214816132919683,-0.00171884179523512,0.00221788799925474,-0.650981014000632,-1.83824399409797,1.5187134052417,-0.0146584024056025,-0.206422017810961,-0.059781864731348,0.694578660241536,-0.947677909147723,-0.143781353529047,0.173303440974378,-0.132528706858622,0.0934136032993373
2.1,2.26113619872866,0.328629853495898,3.13558708906702,-0.128885745940304,-0.134172311124759,-0.0464377933983304,-0.608610284450058,-1.98809955673608,1.53564270856974,0.0220330621464578,-0.153731024798516,0.0364998343023183,4.76748723378292,0.00398561980422966,-0.00122951388261312,0.000461803229308033,-0.608610284450058,-1.98809955673608,1.53564270856974,0.0220330621464578,-0.153731024798516,0.0364998343023183,1.20666150049534,-1.28292034083998,-0.43909708088842,0.321222181571492,-0.0939586618249769,0.0192220863697535
2.2,2.23404402249977,0.145365629501099,3.22992863809373,-0.112128444266181,-0.118493986705938,-0.00571933698004484,-0.575355917844866,-2.05124394580618,1.44913192390709,0.118483348940362,-0.14108229366839,0.00103143057167126,4.72120671918512,0.0017961662487722,-0.00282066182159716,0.000234125978207048,-0.575355917844866,-2.05124394580618,1.44913192390709,0.118483348940362,-0.14108229366839,0.00103143057167126,1.10318203543431,-1.06287274159817,-0.492679437038916,0.144831692731856,-0.216924302895484,0.00954974051744694
2.3,2.22786102839415,0.0318576865197597,3.30932063590017,-0.0361211459358844,-0.0927887557668965,0.0152104124160548,-0.408451112073482,-2.13081247084478,1.38443868984936,0.062721145950728,-0.186664656703577,0.022570820322251,4.61660669572239,0.000743245245301111,-0.00252528203136566,-0.00177186380309986,-0.408451112073482,-2.13081247084478,1.38443868984936,0.062721145950728,-0.186664656703577,0.022570820322251,0.859924173440279,-0.320399493941482,-0.622502837433354,0.0599225652426248,-0.194220923632512,-0.075128214966709
2.4,2.23763265982186,-0.158918805923004,3.34670072109446,-0.0716177913058798,-0.139423303786723,0.00736077009966744,-0.317254026911749,-2.30939659342996,1.25124620577072,0.00956354416458683,-0.199736721902038,-0.0380867447258318,4.61861625987871,0.00548692508065439,-0.000225237414767602,0.00149476271196586,-0.317254026911749,-2.30939659342996,1.25124620577072,0.00956354416458683,-0.199736721902038,-0.0380867447258318,1.28525689692549,-0.651542064184448,-0.685852244096019,0.442680562478839,-0.0176076139782623,0.0626428638825987
2.5,2.2613503914295,-0.376730038025707,3.36793787593031,-0.0813897995149509,-0.147526745134196,-0.0139408599968841,-0.243324551395914,-2.30106242648217,1.23497073077544,0.227551979700878,-0.102755231127848,0.0428836843716374,4.5542970301925,0.00150018123207375,-0.00263854276213309,-0.00133043951351155,-0.243324551395914,-2.30106242648217,1.23497073077544,0.227551979700878,-0.102755231127848,0.0428836843716374,1.32400712926576,-0.759059391433143,-0.830171509499118,0.120789631104468,-0.202721475772409,-0.056641342766778
2.6,2.25458199949693,-0.519558033107049,3.4319165474525,0.017126203145566,-0.114782785396837,0.02500222827365,-0.131478630211137,-2.35534218646904,1.11456953460974,0.0760153261867359,-0.205759333689462,-0.0211301226812203,4.50086252912165,0.00194053609148156,-0.00133482284299465,-0.00010913339162252,-0.131478630211137,-2.35534218646904,1.11456953460974,0.0760153261867359,-0.205759333689462,-0.0211301226812203,1.02664847141269,0.179879880624583,-0.868820538156175,0.156791087645914,-0.102974765743981,-0.00507199313674851
2.7,2.28712402682159,-0.682447586078129,3.45963240282756,-0.0321801979575075,-0.163424136840396,0.00356383391092194,0.0377949565647304,-2.48829967035044,1.08646249482958,0.104268935662191,-0.157447171046956,0.00994440380667119,4.43143318512135,0.00527062898123541,7.45829125973684e-05,-0.000648213142976149,0.0377949565647304,-2.48829967035044,1.08646249482958,0.104268935662191,-0.157447171046956,0.00994440380667119,1.44222822987939,-0.280021498702793,-1.06975023297491,0.425105475883022,0.00569226921617338,-0.0278582568015252
2.8,2.34515677107273,-0.928451029444217,3.49551788663995,-0.02162765700429,-0.158671243047021,0.00565259338023822,0.0865394885640742,-2.44575124789837,0.933648841132823,0.255410373452967,-0.108660140342807,-0.00841540255188817,4.46022894381106,0.00207227711915221,-0.00142672098807184,8.96355813348354e-05,0.0865394885640742,-2.44575124789837,0.933648841132823,0.255410373452967,-0.108660140342807,-0.00841540255188817,1.41022668620149,-0.18494512237291,-1.00365995886627,0.167327562921133,-0.109890366547966,0.00326928171789989
2.9,2.31437030423758,-1.0980894855939,3.45872759124233,0.0211672486849085,-0.17959593100832,-0.0335298226079398,0.19398946817955,-2.53766836412834,0.881381615823706,0.106184170529684,-0.20163401068951,-0.0200247363992468,4.45548742744179,0.00570080580141645,0.00166904443966375,0.00244599138163019,0.19398946817955,-2.53766836412834,0.881381615823706,0.106184170529684,-0.20163401068951,-0.0200247363992468,1.59685710133868,0.135150396574292,-1.04431379568163,0.459830657178969,0.128343600871862,0.102780008865442
3,2.39878352422003,-1.26442960217341,3.52280557432813,0.00122964367427707,-0.196904451727558,-0.0104198858159818,0.384052871018484,-2.52320251876961,0.898017979878966,0.301166960827969,-0.0476400324335246,0.0618269354026232,4.31957925179132,0.00296884883171961,-0.000354907489913083,-0.00266547422836814,0.384052871018484,-2.52320251876961,0.898017979878966,0.301166960827969,-0.0476400324335246,0.0618269354026232,1.69013546408268,-0.00698799529382327,-1.33778347001235,0.2391692048438,-0.0271986519644942,-0.112885712452226
3.1,2.49495589635779,-1.42296745725497,3.59267826046446,0.109650483468203,-0.122772057176473,0.0438434655767566,0.530208104346423,-2.47538212551768,0.687154844925409,0.219215600120948,-0.109435428322789,-0.0397366915981286,4.27859694543714,0.000948029036108214,-0.0011888654833272,-0.000315416891937221,0.530208104346423,-2.47538212551768,0.687154844925409,0.219215600120948,-0.109435428322789,-0.0397366915981286,0.999609699581841,0.981176539745748,-1.36822054704278,0.0773062616952245,-0.0916612545048656,-0.0135779929742699
3.2,2.56205972346056,-1.57471016709216,3.54418138759045,0.0840852114927333,-0.163561183073248,-0.00298313213683561,0.753671182233688,-2.54444822602083,0.687206544988217,0.131898391350388,-0.158832369767044,0.00296038003881622,4.25586742872354,0.00611611167809298,0.00339090151651928,-0.000267498455406568,0.753671182233688,-2.54444822602083,0.687206544988217,0.131898391350388,-0.158832369767044,0.00296038003881622,1.38321993575504,0.71074477985703,-1.44153689434462,0.493379423561642,0.260819266513599,-0.0114484677686358
3.3,2.64983198214102,-1.87070261716844,3.53246242441381,-0.00220875911929055,-0.249670113292065,-0.0544663791289078,0.74032688915404,-2.52474837704196,0.505395517199132,0.315271326493478,-0.0187524583006938,-0.045787243374908,4.51614101030941,0.00730395646499298,0.00340748507412648,0.00436650771657764,0.74032688915404,-2.52474837704196,0.505395517199132,0.315271326493478,-0.0187524583006938,-0.045787243374908,2.2273342023254,-0.141414682835815,-1.0577944072009,0.589243938637448,0.262099588871658,0.184146099850062
3.4,2.71957035907235,-1.97934736413698,3.52594103024429,0.131368811978889,-0.156727369683127,-0.038519231540932,0.951748686834365,-2.3551757623688,0.649846744234007,0.426726591744326,0.0226028783230753,0.0944818914317968,4.12647064115621,-0.00106050084628668,-0.000559705939838038,-0.00298952505564384,0.951748686834365,-2.3551757623688,0.649846744234007,0.426726591744326,0.0226028783230753,0.0944818914317968,1.31775757824643,1.0310817347899,-1.72845155737754,-0.0862445215717965,-0.0431020996351229,-0.126046464316077
3.5,2.82313618836424,-2.04422807266929,3.62160344232685,0.19809050879881,-0.141285304215704,0.0278437757569306,1.15586674167774,-2.42253799338362,0.30262238303116,0.0877605864566851,-0.117311186021806,-0.0678129202768851,4.21825156809134,0.00543840965232941,0.0041020084549011,0.00169263285738507,1.15586674167774,-2.42253799338362,0.30262238303116,0.0877605864566851,-0.117311186021806,-0.0678129202768851,1.11808607495338,1.69206665614927,-1.62089875951193,0.43978343984288,0.315839573785884,0.0717658545431928
3.6,3.01008095047262,-2.26647633504494,3.52131215538108,0.0840366635348288,-0.193888103885747,-0.0262641459169229,1.35728756217039,-2.28112265039965,0.447463434409985,0.375925582430904,0.077561375757382,0.0446388357659552,4.22639600703619,0.00441642206246791,0.00376302428742315,-0.000629424915254193,1.35728756217039,-2.28112265039965,0.447463434409985,0.375925582430904,0.077561375757382,0.0446388357659552,1.64097199524991,0.66664478036581,-1.54486306944754,0.355981702475557,0.289413727330817,-0.0261391481298711
3.7,3.16327965448331,-2.41195533027669,3.6050870221357,0.201489374263555,-0.121030823868999,-0.00398657579563996,1.40396451951477,-2.13087540347764,0.137307727767696,0.344633544818543,0.0678967470500894,-0.0189356937794539,4.18421447450172,0.000277295722671171,0.00138839907638642,0.00109968219080785,1.40396451951477,-2.13087540347764,0.137307727767696,0.344633544818543,0.0678967470500894,-0.0189356937794539,0.996595467422773,1.67080389268392,-1.6708467945969,0.0231071594981094,0.107128530044342,0.0470331621111186
3.8,3.2547192889779,-2.45246220325665,3.48387578109288,0.222111452417693,-0.1145238808795,-0.015116155238836,1.62779850210658,-2.0436967440166,0.20140101438777,0.18624375274783,-0.0140382344722418,0.0279715821502611,4.11234537913618,0.00394172854205552,0.00510889287095031,-0.0003375490298432,1.62779850210658,-2.0436967440166,0.20140101438777,0.18624375274783,-0.0140382344722418,0.0279715821502611,0.944059461609978,1.79775000926552,-1.83990685711006,0.318225493900029,0.393199555923314,-0.0134249722126074
3.9,3.50308593327058,-2.56727342247574,3.57597328499943,0.198816209759643,-0.116616844646362,0.0376141652626127,1.77312060138401,-1.83287453512398,0.0714249579315975,0.375517708040561,0.180258181948706,0.0225146629047957,4.06238184922761,3.90127020310516e-05,0.00231384983124034,-0.00230106345155995,1.77312060138401,-1.83287453512398,0.0714249579315975,0.375517708040561,0.180258181948706,0.0225146629047957,0.865714831123082,1.63842831316442,-1.89938209432851,0.00405608384546128,0.178607622822948,-0.0961586289406742
4,3.65543493363956,-2.64044408771008,3.52400389609672,0.283035138791805,-0.0435473997120218,0.0157495500374683,1.84118343426383,-1.67843315766542,-0.139482017538401,0.206727808824016,0.0674076966023279,-0.036243343680625,4.07857838509392,0.000803375544914803,0.00281595027535451,0.00129555596179587,1.84118343426383,-1.67843315766542,-0.139482017538401,0.206727808824016,0.0674076966023279,-0.036243343680625,0.305062419857586,2.28314739615621,-1.98482387029933,0.0660466875717285,0.217760345036002,0.0557303445102924
4.1,3.79026230672198,-2.70771306877653,3.42152259980197,0.219263080968264,-0.0946719453991642,-0.0136497424537122,1.92539136505465,-1.46439568071707,-0.0663980864743237,0.230993889730397,0.0854649951901457,0.0336357441128596,4.03598172699791,0.00286865233768954,0.00603951250746118,-0.000265850329172924,1.92539136505465,-1.46439568071707,-0.0663980864743237,0.230993889730397,0.0854649951901457,0.0336357441128596,0.76867379225245,1.74540677416104,-1.96657665324248,0.231909021931131,0.465167849049542,-0.0100758502354642
4.2,3.94839684909134,-2.77568893886441,3.46036345777156,0.216927691614759,-0.103966026826825,-0.0110976511126232,1.91757605312822,-1.31363642895191,-0.407606600695323,0.307701203400817,0.217444689929335,-0.0186683458160352,4.17217835782683,0.000873669868013379,0.00352543963115745,0.00207821522686682,1.91757605312822,-1.31363642895191,-0.407606600695323,0.307701203400817,0.217444689929335,-0.0186683458160352,0.865550639199758,1.78646335800284,-1.70520760539984,0.0715812700090373,0.272539725609682,0.0889002221842824
4.3,4.06800805395957,-2.78226661350952,3.29200315783968,0.28468275225765,-0.0225803269895911,-0.0186141486625169,2.0411787239507,-1.08035225347368,-0.382798023422108,0.24646286130988,0.142656924385109,0.0482605146220284,4.05065910162657,-0.000994444914939679,0.00320026119926693,-0.00100988843275681,2.0411787239507,-1.08035225347368,-0.382798023422108,0.24646286130988,0.142656924385109,0.0482605146220284,0.217872223417796,2.27161767259446,-2.03673546866053,-0.0794827190324177,0.247262127631279,-0.0413920960763995
4.4,4.2474736242859,-2.76971260116143,3.28517083548246,0.278181214869307,-0.0419770299729972,0.0177807940903783,2.11215470801733,-0.854344335498039,-0.469911984958782,0.167650211406018,0.153770693675862,-0.0152493170319565,4.00309671825259,0.000500984886081793,0.00511484703829818,0.000222401801258506,2.11215470801733,-0.854344335498039,-0.469911984958782,0.167650211406018,0.153770693675862,-0.0152493170319565,0.283920246294031,2.20395512505405,-2.11837439527697,0.0417431591588914,0.395872743183551,0.010608270228827
4.5,4.42532387276649,-2.77862811142158,3.24877889337892,0.244952411966706,-0.0402356215821799,-0.0210057961695174,2.11415589214411,-0.652732122928392,-0.682961825155929,0.220502670311782,0.230983709913449,0.000147761737018737,4.08324347452273,0.000116761765794845,0.00394581013769997,0.00129273539608995,2.11415589214411,-0.652732122928392,-0.682961825155929,0.220502670311782,0.230983709913449,0.000147761737018737,0.360216768570434,1.97332529581261,-1.89370413353084,0.0104359938103705,0.305672181682391,0.0557185467142696
4.6,4.56767039238257,-2.75008374468554,3.12783917581586,0.282333416910103,0.0100951300396869,-0.0128191049223683,2.15741007714497,-0.421432445547334,-0.784767475665874,0.209604623196097,0.205140975874919,0.0287347859378464,4.05598655211306,-0.00206008077864523,0.00324433696876737,-0.000625103262989607,2.15741007714497,-0.421432445547334,-0.784767475665874,0.209604623196097,0.205140975874919,0.0287347859378464,-0.0496713156449647,2.26079739697528,-2.01959336530371,-0.165272486128202,0.251869179571793,-0.0253147455243464
4.7,4.7382091412841,-2.67639216151252,3.04321644523553,0.30526334450815,0.0241579310793084,0.0142038248978282,2.19124603145416,-0.155421174836053,-0.839110290739266,0.123575074509769,0.205690574593378,-0.00106510137784213,3.98996237309221,-0.00210475707831403,0.00359195126069869,-0.000654048828887644,2.19124603145416,-0.155421174836053,-0.839110290739266,0.123575074509769,0.205690574593378,-0.00106510137784213,-0.217893668651737,2.39546815469916,-2.2012252219066,-0.168755352745699,0.27963854757416,-0.026653349355305
4.8,4.93614604199542,-2.57821096533612,3.02319596076069,0.30059421523205,0.0593253492825647,0.024586291501644,2.20714345628355,0.120613688819398,-0.986705781780616,0.131923536426945,0.249677110627969,0.0151114433472524,3.95298665380266,-0.00350901024260843,0.00188504293516792,-0.00199640117539029,2.20714345628355,0.120613688819398,-0.986705781780616,0.131923536426945,0.249677110627969,0.0151114433472524,-0.50514317338617,2.32914806710054,-2.27180966037133,-0.282201553728011,0.148420280033496,-0.08345068953397
4.9,5.00965227534647,-2.56025223596526,2.85047321492996,0.235311235839266,0.0163204778579075,-0.0450982265542402,2.03055213525745,0.269026228424249,-1.19609853322788,0.000201615564274615,0.127589989356541,-0.0806608563536489,4.09148117533117,0.00260818092681895,0.00613445137904262,0.00588151312281039,2.03055213525745,0.269026228424249,-1.19609853322788,0.000201615564274615,0.127589989356541,-0.0806608563536489,-0.0437214290690514,1.91173697585182,-1.85360489894082,0.210967126364857,0.475919712641043,0.248738945038756
5,5.12356289802485,-2.46113917896755,2.73222423609496,0.210453692977873,0.00216266218183289,-0.0518559825840491,2.06929280200768,0.507937902109223,-1.28688361551418,0.278031347222537,0.334589049061882,0.119532772507263,4.11806942684377,-0.00483076328314264,0.00222889985514544,-0.00340361572701477,2.06929280200768,0.507937902109223,-1.28688361551418,0.278031347222537,0.334589049061882,0.119532772507263,0.0717857428983618,1.71914915358967,-1.75560019541804,-0.389408973922522,0.172829711335768,-0.143161306544831
5.1,5.30481785333415,-2.2932712205689,2.61822528833914,0.377242403283681,0.139421521811208,0.058906155378441,2.14543966758294,0.748509483360923,-1.37030821141708,-0.014400530972801,0.240622685461694,-0.0493296261569016,4.06970276130641,-0.00597161004959826,-0.000539824521275413,-0.000571892488690429,2.14543966758294,0.748509483360923,-1.37030821141708,-0.014400530972801,0.240622685461694,-0.0493296261569016,-1.2262857657838,2.93110649588987,-2.31635201040718,-0.481394238317353,-0.0358128907568864,-0.0239915884863462
5.2,5.45702376204409,-2.16723498184151,2.47972533009037,0.252801522032685,0.112889834999499,-0.01817339838094,1.95054651598872,1.14883897649066,-1.29278502917661,-0.0815790167649833,0.112383437674776,0.00144205957275443,3.88801193075228,-0.00125106614977845,0.00444462095393997,0.000653215026363338,1.95054651598872,1.14883897649066,-1.29278502917661,-0.0815790167649833,0.112383437674776,0.00144205957275443,-0.812644527696459,1.96001034153573,-2.32905651489291,-0.100994794384307,0.345844057787383,0.0274527731627295
5.3,5.53495053956042,-1.97487755480626,2.55002177337633,0.201381739271691,0.0531836035783329,-0.0008719128225236,1.88368865439615,1.21415209504765,-1.76762640356931,0.0845440546670391,0.309748534211964,0.0153864944667769,4.09940693532063,-0.00402776343890123,0.00147054816987053,-0.000846631860132598,1.88368865439615,1.21415209504765,-1.76762640356931,0.0845440546670391,0.309748534211964,0.0153864944667769,-0.425599108585911,1.6403258202217,-1.78823301960818,-0.325033204923414,0.117039790991676,-0.0359429657917513
5.4,5.65033106037642,-1.85574256241612,2.19921998637112,0.286179610176199,0.162928554602005,0.0076524870512557,1.86657886467647,1.42249586348196,-1.7371239666571,-0.0313149941722282,0.211913662962615,-0.00772842551382178,4.15461066990854,-0.00580195242312321,-0.000308924761389129,-4.75839720207889e-05,1.86657886467647,1.42249586348196,-1.7371239666571,-0.0313149941722282,0.211913662962615,-0.00772842551382178,-1.31092234031766,2.33564079614699,-1.94428808288141,-0.468485963845498,-0.0192157966941575,-0.00255130694663934
5.5,5.72763070173545,-1.71230612255906,2.03828717517405,0.213017182227776,0.110426977881354,-0.0265950794155744,1.61973487120118,1.71479274534818,-1.70705986815469,-0.147020887124958,0.120612583875759,-0.0126249250428254,4.04342928960014,-0.00147336357654751,0.0036753405467879,0.00180785060014855,1.61973487120118,1.71479274534818,-1.70705986815469,-0.147020887124958,0.120612583875759,-0.0126249250428254,-0.825279633447095,1.73219985582242,-1.95406728223239,-0.119592211584518,0.286960142351521,0.0755248552491826
5.6,5.76879219597095,-1.49950824855308,2.03310318093224,0.155906897610269,0.080904778012535,-0.020875792111017,1.58132064783482,1.81466694115372,-2.01000827856024,0.0188071086889278,0.288048066291116,0.0298048963102431,4.1602428217568,-0.00416226390377556,0.000489766425084235,-0.000464033910441748,1.58132064783482,1.81466694115372,-2.01000827856024,0.0188071086889278,0.288048066291116,0.0298048963102431,-0.637163320959149,1.30555702878354,-1.61731880939248,-0.336471154758077,0.041334856792938,-0.020426383355934
5.7,5.88284970927674,-1.31560698148624,1.76127256410143,0.248787759347597,0.189243208021411,0.0142427802120476,1.5643377938919,1.97880360994537,-1.98282530737282,-0.0863978265904647,0.18910883846874,0.00163017171153781,4.22003345598725,-0.0067198049709843,-0.00123939402264331,-0.000722896545303541,1.5643377938919,1.97880360994537,-1.98282530737282,-0.0863978265904647,0.18910883846874,0.00163017171153781,-1.56826798787851,2.05606391419422,-1.77583133251793,-0.543289220921392,-0.0906479675886883,-0.0316377567143905
5.8,6.00195908406059,-1.09240979516312,1.64045669410379,0.225795247583526,0.184529405646943,0.0231420936176915,1.34693968285445,2.32101005525154,-1.94279421320334,-0.196337947055422,0.136631092031329,0.0138231703809703,4.14014696477832,-0.00561063138711155,-0.000162967535032837,-0.00172312530983253,1.34693968285445,2.32101005525154,-1.94279421320334,-0.196337947055422,0.136631092031329,0.0138231703809703,-1.52323625822741,1.81904392598778,-1.87689858524418,-0.454084002685905,-0.00789556787051399,-0.0739992167209011
5.9,6.01471659239211,-0.83919515603457,1.61931158327882,0.154574433651197,0.157276502666746,0.0166477219595275,1.17622460251618,2.45266809417655,-2.15759073730197,-0.187425741410164,0.16606633651342,-0.0228987025599955,4.15809098950512,-0.00421828541427318,-0.000398252434140292,0.00031439276641214,1.17622460251618,2.45266809417655,-2.15759073730197,-0.187425741410164,0.16606633651342,-0.0228987025599955,-1.30816001589114,1.25875377190067,-1.69438917748243,-0.34213872004079,-0.0257976765224389,0.0119131978628462
6,6.00913068652982,-0.65482718328567,1.37047434171133,0.121668825590036,0.156851282261505,-0.0212194848162712,1.01611926220959,2.49638615198324,-2.25471991170637,-0.165740449987775,0.136802462013037,0.000829929013599783,4.24756536197718,-0.00393543008032458,-0.00030640009383899,0.000967438961606976,1.01611926220959,2.49638615198324,-2.25471991170637,-0.165740449987775,0.136802462013037,0.000829929013599783,-1.29503209428905,1.05876057284938,-1.48118472162972,-0.319223763899132,-0.0196661389462285,0.0393934251835329
6.1,6.05258160366579,-0.43719252235183,1.18188511583987,0.14714883427341,0.178723731627718,0.0157389059562848,0.918104477115851,2.63765550799179,-2.21862862893105,-0.150532909750889,0.159921674678908,0.0385613689585157,4.27189139124241,-0.00670009699097545,-0.00233422752441257,-0.00259046244012179,0.918104477115851,2.63765550799179,-2.21862862893105,-0.150532909750889,0.159921674678908,0.0385613689585157,-1.52197527392733,1.22887454368663,-1.49316870101859,-0.542347800542576,-0.17581758682125,-0.110773397059705
6.2,6.05547871940094,-0.231857253056324,1.02975135214112,0.124370881449192,0.17474301418075,0.00828509452084086,0.690824934923228,2.75749571311151,-2.30856243135869,-0.308207291404126,0.0556158357560179,-0.059977872058641,4.31869264504274,-0.00311873310210884,-0.00036770254053348,0.00237852053148103,0.690824934923228,2.75749571311151,-2.30856243135869,-0.308207291404126,0.0556158357560179,-0.059977872058641,-1.49888032740643,1.05909007964795,-1.36985126809424,-0.254354274539686,-0.0236730876670931,0.0988297866745531
6.3,6.01508026851207,-0.0182032282231277,0.868843926711805,0.0313117176850843,0.129804087839614,-0.0395938854727936,0.516081071243976,2.83726473286573,-2.34356655215184,-0.181150390077698,0.127414811983809,0.042363513287378,4.29181353838232,-0.00338376425301712,-0.00100722363675585,-0.00018844636436078,0.516081071243976,2.83726473286573,-2.34356655215184,-0.181150390077698,0.127414811983809,0.042363513287378,-1.09901164783711,0.312471860276476,-1.30275670223187,-0.27477796703333,-0.0747881421940743,-0.00936946946732443
6.4,5.99565141053554,0.207109750470468,0.710379864656213,0.0778296194289113,0.169129903514577,0.0104849517454223,0.461591022806083,2.77250752669075,-2.3678816903988,-0.204804830654349,0.0975374068368319,-0.0078796128114704,4.33820190867687,-0.00490946880044056,-0.00225581458126743,-0.000190310874218492,0.461591022806083,2.77250752669075,-2.3678816903988,-0.204804830654349,0.0975374068368319,-0.0078796128114704,-1.46302524443029,0.659296437836722,-1.28328500869144,-0.398714822408601,-0.170038654627809,-0.00944157076463891
6.5,6.00062050690098,0.380454280139213,0.502935987174296,0.0525861349723547,0.161942682161897,-0.0154827752300377,0.248272857248881,2.89084146011668,-2.43115932797957,-0.28641351289051,0.0403079372688429,-0.0110163304647385,4.43202683752195,-0.00306248390428652,-0.00130724273475805,0.0011633575464664,0.248272857248881,2.89084146011668,-2.43115932797957,-0.28641351289051,0.0403079372688429,-0.0110163304647385,-1.41984254230753,0.487952231243256,-1.07401709427395,-0.249741969949984,-0.0975091352035646,0.0477252988684412
6.6,5.95568145313658,0.615336629037277,0.375448513367862,0.00976692845899074,0.148347149425369,-0.00931195712701831,0.111083501120634,2.93253983370125,-2.37674879901972,-0.218596704186954,0.0789503706049852,0.026338805842974,4.3673189455778,-0.0039752761615463,-0.00235391335512638,-0.00089866861872681,0.111083501120634,2.93253983370125,-2.37674879901972,-0.218596704186954,0.0789503706049852,0.026338805842974,-1.29009932817989,0.0973266227728216,-1.17170906130498,-0.323189885663849,-0.178587046527209,-0.0391410316444004
6.7,5.93135561177538,0.84407972089344,0.259321724124033,0.0394801502749564,0.183036527009213,0.0215139234007693,0.0233694796266339,2.89745348498373,-2.44193285233892,-0.260720816953832,0.0394047950021396,-0.00692483879280687,4.44309026885659,-0.00462317689798703,-0.00331054104817604,-0.000766796451342371,0.0233694796266339,2.89745348498373,-2.44193285233892,-0.260720816953832,0.0394047950021396,-0.00692483879280687,-1.6233396822613,0.31588800180622,-1.07906719787954,-0.376062127599644,-0.251988084602267,-0.0334902104509813
6.8,5.86696459741703,0.998007498460674,0.0384734801677413,-0.0246775016308674,0.139525823705672,-0.0239204344225746,-0.260783432623676,2.92241509375935,-2.48914765490994,-0.330028911191508,-0.0327311474816667,-0.0315453609462177,4.48496532538122,-0.000957903941671428,-0.000941709197287163,0.00257084905025903,-0.260783432623676,2.92241509375935,-2.48914765490994,-0.330028911191508,-0.0327311474816667,-0.0315453609462177,-1.25203748779964,-0.191441355066712,-0.929943231251162,-0.080387971842385,-0.0702325615084234,0.10747642293426
6.9,5.78356953376137,1.22739664105901,-0.0738361027291603,-0.0462713304129738,0.134461414442804,-0.00737811597438163,-0.28486542803523,2.8510593145678,-2.40744300224121,-0.164237292341628,0.0782943271206045,0.0665577644103831,4.40281002974767,-0.00454849551632234,-0.00366542794158954,-0.00285385843067222,-0.28486542803523,2.8510593145678,-2.40744300224121,-0.164237292341628,0.0782943271206045,0.0665577644103831,-1.18216107451621,-0.398591183990906,-1.093202142178,-0.369270605680598,-0.280552761741992,-0.12120461386105
7,5.77009035885042,1.4168481552926,-0.207325149015823,0.0283446581258852,0.197996358884072,0.0514797997204541,-0.365823556738233,2.79188931460442,-2.50469798209364,-0.318162977895147,-0.0337604837677199,-0.0415501068390603,4.56738298756468,-0.00397530132679552,-0.004029957110705,-0.000438294328992214,-0.365823556738233,2.79188931460442,-2.50469798209364,-0.318162977895147,-0.0337604837677199,-0.0415501068390603,-1.80707655816889,0.166120369754605,-0.857300532462279,-0.32451838903012,-0.308092930690868,-0.0192077156555704
7.1,5.69557550263954,1.56514933346733,-0.42086431522273,-0.0745317186752509,0.134415216944205,-0.0176063734243609,-0.709863192808032,2.89715209898555,-2.50580884910286,-0.323761825469401,-0.0711732858106015,-0.00712828841189067,4.58706415990386,-0.00105488225194548,-0.00185295548093595,0.00121463821623804,-0.709863192808032,2.89715209898555,-2.50580884910286,-0.323761825469401,-0.0711732858106015,-0.00712828841189067,-1.23785617103423,-0.66144016172828,-0.743863036519723,-0.0880896522293041,-0.141457047909482,0.0507386020221733
7.2,5.54218542970776,1.79677675767369,-0.510664987215371,-0.0851594080773882,0.124053077789216,0.00907411576817531,-0.716977694948944,2.66738695909931,-2.39469364959868,-0.202270668610952,0.0103993604510945,0.0389432598898131,4.43678653191213,-0.0032771285723879,-0.00364595011775152,-0.00223664919209706,-0.716977694948944,2.66738695909931,-2.39469364959868,-0.202270668610952,0.0103993604510945,0.0389432598898131,-1.08710024376748,-0.764651012461686,-1.03652743731597,-0.267070584200819,-0.279824308217739,-0.0946801588355792
7.3,5.47485431032134,1.88937689809513,-0.67279937882619,-0.0615702705612742,0.144063322475195,0.0185575128176741,-0.8117920606515,2.54268864303306,-2.59906090266242,-0.31772214769326,-0.0878103296650085,-0.0504537036185697,4.6243254566708,-0.000892866802379709,-0.00233540963644909,0.00158337835608518,-0.8117920606515,2.54268864303306,-2.59906090266242,-0.31772214769326,-0.0878103296650085,-0.0504537036185697,-1.31448306822875,-0.593576566206189,-0.674500843399667,-0.075586062717319,-0.179149932316672,0.0666202489894999
7.4,5.43086290815186,2.06203486367508,-0.876838345545597,-0.0899367553609725,0.137948365222035,0.0149992499179062,-0.936199581977717,2.58748855009926,-2.45240107859291,-0.191826109970501,-0.00779505110140391,0.0661117266287629,4.61092074751447,-0.00392476193872644,-0.00460813846532802,-0.00372717660978795,-0.936199581977717,2.58748855009926,-2.45240107859291,-0.191826109970501,-0.00779505110140391,0.0661117266287629,-1.25041693458074,-0.847114763259971,-0.712680909904373,-0.318983547773604,-0.354468895253339,-0.157266517018137
7.5,5.30186597937848,2.22103220912805,-0.97280541240611,-0.0682634493040013,0.148875475425115,0.0482172932269315,-1.08807466484517,2.40568972017844,-2.49645349888129,-0.348604667308054,-0.137756163042534,-0.0710084389723288,4.63863834173414,-0.000705496640924437,-0.00264133015254744,0.00125633969750785,-1.08807466484517,2.40568972017844,-2.49645349888129,-0.348604667308054,-0.137756163042534,-0.0710084389723288,-1.34076173513604,-0.698241540494314,-0.656712099887418,-0.06063004996197,-0.203497622017065,0.05311682880143
7.6,5.11832498097216,2.26266674407669,-1.19574375897828,-0.207168783663446,0.035256820914888,-0.0650561035684964,-1.33150038109766,2.28487912221718,-2.59222526724941,-0.267061662287372,-0.101410588450765,-0.00690165798955866,4.67206003473042,0.00343163041896962,-0.000203447522106491,0.00344634008236374,-1.33150038109766,2.28487912221718,-2.59222526724941,-0.267061662287372,-0.101410588450765,-0.00690165798955866,-0.446600042661321,-1.89697182261637,-0.671366284909148,0.274522935170862,-0.016224123154929,0.145700141380581
7.7,4.98555974172993,2.41094933083684,-1.34559226359723,-0.154489513927293,0.0787704736735529,-0.00185086726663041,-1.11456393911343,1.82113770631504,-2.37750744891685,-0.0544853010364841,0.011082509514156,0.0760095025780016,4.45949036539943,-0.00230743798209974,-0.00322007212077189,-0.00348140809822894,-1.11456393911343,1.82113770631504,-2.37750744891685,-0.0544853010364841,0.011082509514156,0.0760095025780016,-0.6960063987438,-1.37112865364096,-1.02456895852949,-0.1880789093291,-0.248509275560529,-0.146488975563366
7.8,4.94324225608159,2.34561510690612,-1.48759963528268,-0.106549522406356,0.0927683508969849,0.00701095766548637,-1.29446943300061,1.78390687467785,-2.75874160770569,-0.325203599353788,-0.150057056171519,-0.106478863648201,4.80703876181422,0.00291619276154092,-0.00042949743037653,0.00475543284283543,-1.29446943300061,1.78390687467785,-2.75874160770569,-0.325203599353788,-0.150057056171519,-0.106478863648201,-0.878362799438365,-1.02862160758892,-0.291549337665217,0.231856241836195,-0.0344721841220369,0.201086953451724
7.9,4.85584610222372,2.50755365566028,-1.73380679484729,-0.182349357002033,0.0665902457842251,-0.0267844897827246,-1.34704527152128,1.85638353889804,-2.43977653687421,-0.0599407420075704,0.0133752883673564,0.121901633344131,4.68826246066999,-0.00212877369573983,-0.00341152295409155,-0.00446098995892794,-1.34704527152128,1.85638353889804,-2.43977653687421,-0.0599407420075704,0.0133752883673564,0.121901633344131,-0.658896638441166,-1.68330117591649,-0.609371109999111,-0.173043955209015,-0.263305565924551,-0.187671656795577
8,4.73504510883177,2.6358290366865,-1.7611070657205,-0.0882839266363991,0.126291059863318,0.0677103135543607,-1.37950849560942,1.48756533223273,-2.53293668201324,-0.281655202394631,-0.13867393190649,-0.0916365533099067,4.71470562331603,0.000785349200347249,-0.00214058251001618,0.0012180103944326,-1.37950849560942,1.48756533223273,-2.53293668201324,-0.281655202394631,-0.13867393190649,-0.0916365533099067,-1.12410060872789,-0.909523695169498,-0.492116070292896,0.0599920280973281,-0.166903812424673,0.0519809551228328
8.1,4.63583173122653,2.61458522002203,-1.94690183939002,-0.193400045882638,0.0587800442720434,-0.0258710236976901,-1.59328234575175,1.62179700191382,-2.64320417144071,-0.157045637193642,-0.0821966133784416,0.0343826793817198,4.8706956096695,0.000943755693363707,-0.00150178899253471,-0.000363416184323865,-1.59328234575175,1.62179700191382,-2.64320417144071,-0.157045637193642,-0.0821966133784416,0.0343826793817198,-0.609844604056887,-1.85710873237761,-0.266733284496098,0.0743817729348555,-0.117058405245578,-0.0146663338816953
8.2,4.45988018930956,2.77012655666015,-2.12566214944105,-0.146751940021428,0.0832652889433327,0.0350660777024757,-1.52971996054318,1.16821863443801,-2.39885586811631,-0.140599125776861,-0.0707391194186437,0.00417403847841367,4.6908799930838,-2.19622891557263e-05,-0.00237306594601715,-0.00181607294007125,-1.52971996054318,1.16821863443801,-2.39885586811631,-0.140599125776861,-0.0707391194186437,0.00417403847841367,-0.723315414097838,-1.39807310851995,-0.561236470045456,-0.0039049934243894,-0.184740768654037,-0.0759261651080338
8.3,4.39998176879157,2.70852914555059,-2.17207227542041,-0.132693954803262,0.100510305230259,0.0401455789101602,-1.59271244591403,1.20161696291523,-2.64179742967204,-0.165802834277752,-0.098368215426366,-0.0163555095050147,4.89605285763596,-0.000234550310955392,-0.00233045155839572,-0.0010692236416857,-1.59271244591403,1.20161696291523,-2.64179742967204,-0.165802834277752,-0.098368215426366,-0.0163555095050147,-0.921132618351306,-1.33358746365398,-0.15296145211922,-0.0210142481150771,-0.181712471707713,-0.0443875929174568
8.4,4.22707653254938,2.75671531405083,-2.46570169942457,-0.192048505291944,0.0430717120006579,-0.00863553255568217,-1.80987556592737,1.01375433864383,-2.52177935154481,-0.208925751962152,-0.136433474426869,-0.0356866309199378,4.9173010507073,0.00359842222734115,-0.000148041499586364,0.00211880802775038,-1.80987556592737,1.01375433864383,-2.52177935154481,-0.208925751962152,-0.136433474426869,-0.0356866309199378,-0.431871294591869,-1.87347232402852,-0.165157485518229,0.288435961598941,-0.0137744647110766,0.0901451064015328
8.5,4.03504591544951,2.76140544585835,-2.55561530741815,-0.217953219305562,0.0214396839503231,-0.0167238579705842,-1.71799015573484,0.672769048968976,-2.45215083012005,-0.038039996892122,-0.0482454514289261,0.0388514901040766,4.82238775132877,0.0017700397523857,-0.000781709962272464,-0.00104977485593241,-1.71799015573484,0.672769048968976,-2.45215083012005,-0.038039996892122,-0.0482454514289261,0.0388514901040766,-0.236721320635007,-2.08183880528629,-0.395564026356977,0.141561130964715,-0.0620869803366381,-0.0435481675317754
8.6,3.97187126252842,2.70221760450233,-2.67622264878904,-0.137848462554423,0.0717224784999061,0.0338853599454793,-1.66189488943828,0.434677413853284,-2.54502070804059,-0.0912447828017873,-0.0685787779488425,-0.0180535919585862,4.91895420273076,0.000820551601335357,-0.00149211950732517,-0.000741342649121297,-1.66189488943828,0.434677413853284,-2.54502070804059,-0.0912447828017873,-0.0685787779488425,-0.0180535919585862,-0.652106747823957,-1.37473149864775,-0.0904675065969105,0.0645987986335707,-0.117522901525775,-0.0305485517970105
8.7,3.88882471977293,2.65479597957482,-2.862159932445,-0.158003767584599,0.0644126100435741,0.0162259496316162,-1.8268189651528,0.518062453941421,-2.52307421366699,-0.120534950587312,-0.0943079014403553,-0.00737376785304552,5.02236225175639,0.00146237286616542,-0.00110668445273244,-0.000408244949022691,-1.8268189651528,0.518062453941421,-2.52307421366699,-0.120534950587312,-0.0943079014403553,-0.00737376785304552,-0.612777463537581,-1.59066067831273,0.0890298887375884,0.116632799902096,-0.0876207903454845,-0.0165043486504139
8.8,3.66276374078088,2.67721797030042,-3.03862398157803,-0.216220469471534,0.00862319575314763,-0.0203220853538079,-1.94698648640967,0.22763096383782,-2.4599811199565,-0.122522368170974,-0.116578669042483,-0.0343511974356416,5.0314619937324,0.00495938908268178,0.000896218213134333,0.00258560456221158,-1.94698648640967,0.22763096383782,-2.4599811199565,-0.122522368170974,-0.116578669042483,-0.0343511974356416,-0.128605742094568,-2.15672805746772,0.018246223346587,0.39882232050915,0.0664765354927381,0.109797316649933
8.9,3.50476151681084,2.60112588051284,-3.14697092885066,-0.213294570598992,0.00185177161174511,-0.0241653884333523,-1.80802726155992,-0.136404210990357,-2.4068328424081,0.0465321931326618,-0.0257325330361786,0.0431997759043708,4.99841119291438,0.00234220064846609,2.34362978003446e-05,-0.00090605754697678,-1.80802726155992,-0.136404210990357,-2.4068328424081,0.0465321931326618,-0.0257325330361786,0.0431997759043708,-0.069219332627063,-2.11508189406122,-0.0397341346710558,0.188175473674598,-1.62872033204729e-05,-0.0375710251984582
9,3.45072558503121,2.47227618035441,-3.26929353552841,-0.132468992227374,0.051497396148797,0.0241244561445247,-1.77894658121834,-0.306611819775471,-2.44602054283399,-0.0389981514899012,-0.0529553425932492,-0.0228693227396993,5.06870457011974,0.00178941978863074,-0.000565905523261511,-6.22561307608355e-05,-1.77894658121834,-0.306611819775471,-2.44602054283399,-0.0389981514899012,-0.0529553425932492,-0.0228693227396993,-0.484798441086996,-1.35105579234925,0.225271934237266,0.14324640961123,-0.0462651189659674,-0.0019959665397441
9.1,3.28980467138784,2.33897269358178,-3.48322801112589,-0.216629351560225,-0.0130703745768477,-0.0518226300166093,-2.02060481398061,-0.299393533758479,-2.46132998648232,-0.094544100815234,-0.116188037424559,-0.0450945340188702,5.23351101418811,0.00681419905557746,0.00201976245386223,0.00459418939224546,-2.02060481398061,-0.299393533758479,-2.46132998648232,-0.094544100815234,-0.116188037424559,-0.0450945340188702,0.0168903078106971,-2.25367150809029,0.411508185861678,0.548711871023861,0.153099666306059,0.194453915156024
9.2,3.1438162978473,2.41050863493724,-3.56351048182674,-0.174360877672341,0.0217763792277512,0.00206239287218426,-1.76859568591644,-0.670911049438383,-2.19017823580494,0.192670152731508,0.0493872722777977,0.120374778413319,5.02313279965621,-0.00128013604249371,-0.001523961596487,-0.00579293805851417,-1.76859568591644,-0.670911049438383,-2.19017823580494,0.192670152731508,0.0493872722777977,0.120374778413319,-0.211842344978557,-1.74325412079461,0.0815944307849001,-0.103636716493231,-0.11853641500136,-0.243877311503237
9.3,3.07467564761857,2.17350730667482,-3.63333474038886,-0.0905001122566896,0.0537277870159628,0.0393982313221681,-1.91723294377881,-0.746144408907318,-2.46334725213969,-0.174543997546713,-0.126629797126347,-0.145447758975421,5.27026342282015,0.00493889461362251,0.00106572878011304,0.00502416683612209,-1.91723294377881,-0.746144408907318,-2.46334725213969,-0.174543997546713,-0.126629797126347,-0.145447758975421,-0.525771114702081,-0.974082244700957,0.672243781708531,0.396972733341014,0.0781863334651257,0.212531527359065
9.4,2.93733605145767,2.15391344595999,-3.84618245095893,-0.205250356049396,0.00911475096726452,-0.0376517670255188,-1.98886562025744,-0.566526159117101,-2.16076680262912,0.128627845085349,0.0178014164282915,0.127704593376862,5.19736340901809,0.000574327309800795,-0.000834622135975841,-0.00426684912013102,-1.98886562025744,-0.566526159117101,-2.16076680262912,0.128627845085349,0.0178014164282915,0.127704593376862,-0.172438781486737,-2.1135797375682,0.36611866976703,0.0461148398286694,-0.0649261383112811,-0.179540741517366
9.5,2.73396606640763,2.15109393579876,-3.90019324951945,-0.113879033563596,0.0404151827895576,0.0453393917539263,-1.96986591590183,-1.14420867528906,-2.26680675558286,-0.0730511883050299,-0.0974297377241947,-0.107771769499644,5.27930022905337,0.0042349280010017,0.00102566172366331,0.00295809539101541,-1.96986591590183,-1.14420867528906,-2.26680675558286,-0.0730511883050299,-0.0974297377241947,-0.107771769499644,-0.369032945176287,-1.21778347708243,0.671644037184793,0.340483637416272,0.075420834762283,0.125296425870826
9.6,2.64651283187764,1.87985462042516,-4.03817460283914,-0.171804841239082,0.00843142403225271,-0.0307041791141216,-2.01440850145637,-0.972032115224374,-2.11892417039955,0.113161646351013,0.00357667743965724,0.0733155389581764,5.27538663506999,0.00141347984744804,-8.46559556834745e-05,-0.00201811753820191,-2.01440850145637,-0.972032115224374,-2.11892417039955,0.113161646351013,0.00357667743965724,0.0733155389581764,-0.142980601657465,-1.80022875876887,0.58507333122529,0.113696385256019,-0.00766885913580836,-0.0847200648785562
9.7,2.4968835190229,1.89964446381823,-4.1169434592559,-0.0870250878411909,0.0582955805810641,0.051769334445625,-1.96218091405595,-1.29417752892155,-2.10465160510184,0.00958652988824102,-0.0397799430552154,-0.0328973884434358,5.30101343286247,0.00131151606761865,-0.000504429478866865,-0.00089275972462841,-1.96218091405595,-1.29417752892155,-2.10465160510184,0.00958652988824102,-0.0397799430552154,-0.0328973884434358,-0.566856316866758,-0.952086384763559,0.733964107181382,0.105051286763508,-0.0414829779708897,-0.0372533206699777
9.8,2.36835300770057,1.66595134635516,-4.25289254422954,-0.147640920317691,0.0173907346601128,-0.0118290123730008,-2.15886326110402,-1.19143201032511,-2.06772243204483,-0.0044883950145687,-0.0741860469880441,-0.0267665095736392,5.39147137190938,0.0039153689834478,0.00111833886317264,0.0018276034152185,-2.15886326110402,-1.19143201032511,-2.06772243204483,-0.0044883950145687,-0.0741860469880441,-0.0267665095736392,-0.204223930512867,-1.58392128698693,0.854020825153569,0.315259717943653,0.0840595157191881,0.0775035352721935
9.9,2.16245238102288,1.65951632337129,-4.35138547616268,-0.138413156561633,0.0132238648590855,0.00153829983933945,-2.06280561629253,-1.48912221422391,-1.92642360981891,0.127809512821592,0.00402342432340654,0.0461564172453732,5.35660830862113,0.00118411729363775,-2.18248450204327e-05,-0.00225494286243001,-2.06280561629253,-1.48912221422391,-1.92642360981891,0.127809512821592,0.00402342432340654,0.0461564172453732,-0.138037175348807,-1.47833396361483,0.799829627199495,0.095183573557904,-0.00307532390517266,-0.0948013977027763
10,2.05314461036333,1.42585781297769,-4.42485462039466,-0.0918206423820641,0.0332092106538396,0.0216585577271509,-2.07962145978478,-1.62226571982856,-1.93177439498564,0.0116017463805772,-0.0509272549793868,-0.0555991429657753,5.42231514512538,0.00299559163879409,0.00069724610917759,0.00160966968975754,-2.07962145978478,-1.62226571982856,-1.93177439498564,0.0116017463805772,-0.0509272549793868,-0.0555991429657753,-0.336939716237448,-1.00189433372613,0.982992425823966,0.241046933587548,0.0513722919557921,0.0682469788501238
10.1,1.9252940963082,1.28970725310066,-4.53454875832998,-0.124253073940766,0.0188375034131972,-0.00972217980074571,-2.14208248053715,-1.57531871418318,-1.79904410197059,0.107324039626721,-0.00955746528759093,0.0401174637793047,5.42273963508409,0.00160789131268923,0.000137680379089923,-0.00143690501247428,-2.14208248053715,-1.57531871418318,-1.79904410197059,0.107324039626721,-0.00955746528759093,0.0401174637793047,-0.215772684967285,-1.34208497299482,0.949956815588589,0.129426336926703,0.00946419996473688,-0.060332098015717
10.2,1.72085986057885,1.17951372509989,-4.62591786673347,-0.110991733760039,0.00592089577352698,-0.000464274386942271,-2.18359996434738,-1.84082885280011,-1.79824951429197,0.0321459781155018,-0.0577500785521265,-0.0532663861280039,5.52196200451024,0.0042164869575545,0.00159268897120722,0.00255397072388951,-2.18359996434738,-1.84082885280011,-1.79824951429197,0.0321459781155018,-0.0577500785521265,-0.0532663861280039,-0.0655551074344583,-1.22323874621467,1.16577546302162,0.339630385752639,0.12066617746992,0.108040220590122
10.3,1.57301591625122,0.963130487095395,-4.72395540129496,-0.131632686952366,-0.0127397350914687,-0.0350767611255213,-2.14228661640153,-1.92126072045093,-1.61648100728654,0.159114042510704,0.0107232575976748,0.0421024481649258,5.50057463357203,0.00264928242862948,0.00102608581641567,-0.000316279869748227,-2.14228661640153,-1.92126072045093,-1.61648100728654,0.159114042510704,0.0107232575976748,0.0421024481649258,0.0882119519127717,-1.44791672383287,1.09509243474667,0.213491400219479,0.0781205543700029,-0.013103393323472
10.4,1.49455143906009,0.857252300162755,-4.71583315703741,-0.031294603415045,0.0585081948712749,0.0471789539200893,-2.02920017093902,-2.04062733057254,-1.5550287917088,0.14086967954911,0.0277764452231904,0.0146397906204977,5.44385792246957,-0.000885036612968889,-0.00140020792955803,-0.00291828824311813,-2.02920017093902,-2.04062733057254,-1.5550287917088,0.14086967954911,0.0277764452231904,0.0146397906204977,-0.619570869097709,-0.370303043509648,1.05376380055603,-0.0717008147426614,-0.109200578706565,-0.122904862569165
10.5,1.36012575464405,0.628923983542068,-4.82540170433822,-0.0690481803574466,0.0274297703082844,-9.45657448357395e-05,-2.31988475438774,-1.87897148965118,-1.58101528422974,-0.0368529432854111,-0.104600122714742,-0.0783931242794989,5.587087219293,0.00457836684684026,0.00170633187312038,0.0037224256987247,-2.31988475438774,-1.87897148965118,-1.58101528422974,-0.0368529432854111,-0.104600122714742,-0.0783931242794989,-0.305809235090218,-0.770914557172001,1.3333543352629,0.368815914695605,0.12962760941752,0.157291349096185
10.6,1.10092718537381,0.61368566385438,-4.91442961548952,-0.124498634024994,-0.0173077478095617,-0.0277455006992995,-2.25083532554733,-2.02324044472544,-1.35845668909953,0.213482982048984,0.036792081393031,0.0830759844445549,5.5481672237527,0.00116433283489444,0.000290002371755253,-0.00260478947664382,-2.25083532554733,-2.02324044472544,-1.35845668909953,0.213482982048984,0.036792081393031,0.0830759844445549,0.152257259338811,-1.3826685232618,1.19880028216766,0.0938309171460096,0.021958122191944,-0.109726259856094
10.7,0.947238825632162,0.377288459946415,-4.94458142822102,-0.0477011739954449,0.0102084656360715,0.00694856334878755,-2.18540649717852,-2.35347695010999,-1.38213387641336,0.0531382778425148,-0.0456133900700844,-0.0847026547646244,5.64360631971031,0.00395932087408105,0.00160108755676039,0.00369787948843589,-2.18540649717852,-2.35347695010999,-1.38213387641336,0.0531382778425148,-0.0456133900700844,-0.0847026547646244,-0.111349527823445,-0.53899585782964,1.46378613933193,0.318934499343728,0.121614758752866,0.156205038953563
10.8,0.865814303803844,0.111303177745018,-5.01711053162115,-0.0852891222546679,-0.00662594024998554,-0.0422009805607236,-2.22100390614984,-2.1760501716853,-1.14604999049453,0.200015271364995,0.0278219295683833,0.0748552818485936,5.5714773760128,0.00157446140359401,0.00061757743811495,-0.00152629982070972,-2.22100390614984,-2.1760501716853,-1.14604999049453,0.200015271364995,0.0278219295683833,0.0748552818485936,0.0334519735495019,-0.951479460416019,1.29220736644573,0.126912471977228,0.0472281110860698,-0.0642490820182631
10.9,0.688479797709295,0.0501186494432795,-5.00630928396226,-0.0219987092580606,0.0207960320970575,0.018844244449369,-2.19560139084646,-2.36541832398702,-1.18619117581516,0.10487231305804,-0.0113029753630183,-0.0444506627638463,5.64023105364013,0.00189266214397163,0.000633167446817308,0.00122465715218264,-2.19560139084646,-2.36541832398702,-1.18619117581516,0.10487231305804,-0.0113029753630183,-0.0444506627638463,-0.229797897401274,-0.252510535229124,1.46529408528815,0.152317542980961,0.0475129108384147,0.0518169949675562
11,0.567143666310482,-0.177099585960627,-5.08157599214549,-0.0445787621783372,0.0123370449966575,-0.0207922083614325,-2.26059246678563,-2.22203532623019,-0.996637781163051,0.133897947702809,-0.00321777895499832,0.0242508031341743,5.60643060674829,0.00189188413894999,0.000537632420420964,-0.000152131632433641,-2.26059246678563,-2.22203532623019,-0.996637781163051,0.133897947702809,-0.00321777895499832,0.0242508031341743,-0.148551675913946,-0.496708801033136,1.39086913412059,0.15240908140648,0.0407722902134829,-0.00628957134316594
11.1,0.410618988540286,-0.223082946098476,-5.04733336992552,-0.000653161013982329,0.0400969667119288,0.0320082510267492,-2.21695058191353,-2.27989969062201,-0.956363088296628,0.161019347237797,0.0165330210715134,0.0144617763746753,5.60268014178116,-0.000576333054921257,-0.000903891228516467,-0.00219092046421744,-2.21695058191353,-2.27989969062201,-0.956363088296628,0.161019347237797,0.0165330210715134,0.0144617763746753,-0.448716172270349,-0.0216901816392352,1.38635129929386,-0.0467177998705497,-0.0703130859618216,-0.0923282321806931
11.2,0.28085249625758,-0.404535453710308,-5.08742550091429,0.0193418760861321,0.0481556788603757,0.029997215497307,-2.32121590120429,-2.18348501671488,-0.87519144175595,0.0590947077783571,-0.0423202179579537,-0.0331680623265682,5.63023535229203,0.000888883803517457,-0.000294036804693874,0.000153423791919081,-2.32121590120429,-2.18348501671488,-0.87519144175595,0.0590947077783571,-0.0423202179579537,-0.0331680623265682,-0.548232821359488,0.20143267850111,1.43531307427284,0.0713854319215826,-0.02343059788658,0.00657838221879227
