time,x,y,z,roll,pitch,yaw,xdot,ydot,zdot,p,q,r,thrust,roll angle,pitch angle,yaw angle,_xdot,_ydot,_zdot,_p,_q,_r,_xddot,_yddot,_zddot,_phiddot,_thetaddtot,_yawddot
0,4.01841953230695,1.01841953230695,0.0184195323069548,0.0184195323069548,0.0184195323069548,0.0184195323069548,0.0184195323069548,0.0184195323069548,0.0184195323069548,0.0184195323069548,0.0184195323069548,0.0184195323069548,8.98851535782129,-0.00345973146263658,0.00651056448244339,-0.00174770530115085,0.0184195323069548,0.0184195323069548,0.0184195323069548,0.0184195323069548,0.0184195323069548,0.0184195323069548,-0.337095990573141,0.324956098670782,8.16093217332459,-0.279010710098936,0.500812761563003,-0.073742842887607
0.1,2.42036642022637,0.620366420226373,0.0203664202263731,0.0196720674135937,0.0199313547165462,0.019245041138636,-0.0837798656724817,0.119455460480439,4.50139517163755,-0.143676642441318,0.285486979167053,-0.030651437762939,5.48803732234056,-0.000685737933533927,-0.00151571755179552,0.000541249984903907,-0.0837798656724817,0.119455460480439,4.50139517163755,-0.143676642441318,0.285486979167053,-0.030651437762939,-0.222825630308854,0.211659325369202,1.16177121863529,-0.055304373903642,-0.116590708711481,0.0228374662121892
0.2,2.62810864209855,0.721547964534408,2.07696726536715,-0.0639369189219607,0.133875873075747,-0.0139518092575915,-0.0581892990466129,0.0602983758176909,1.05125213610045,-0.0402682232095048,-0.0364300807915731,0.0103943601025202,6.76372833410915,0.000613152844908008,0.000474219388569375,0.000168908660298192,-0.0581892990466129,0.0602983758176909,1.05125213610045,-0.0402682232095048,-0.0364300807915731,0.0103943601025202,-1.81378891114547,-0.839091591496588,3.56902010602455,0.0494798872556129,0.0364917322779181,0.00713658476820513
0.3,2.63963082460541,0.706616779866432,0.765557166720074,-0.0194287354413008,0.00816253915095563,0.0104026014763249,-0.405617934547259,-0.102811030571194,2.53841446794628,0.0161293844368179,0.0446922177917618,0.00692680129291255,6.47118780551123,-0.0025126288451044,0.00212145219078241,-0.000829221235745401,-0.405617934547259,-0.102811030571194,2.53841446794628,0.0161293844368179,0.0446922177917618,0.00692680129291255,-0.103000257856437,-0.25252328687487,3.12950189896258,-0.202627117306182,0.163191273915163,-0.0349770291558354
0.4,2.45622777988068,0.613279264334409,1.52831580482007,-0.0158136310331136,0.0233202481960253,-0.0108238379585742,-0.274118190936868,-0.0940952753640676,2.35548496006852,-0.136678401272192,0.0997428404704328,-0.0324455670255367,6.07824956843614,0.000414446858540352,1.30012927940181e-05,0.00203794202066241,-0.274118190936868,-0.0940952753640676,2.35548496006852,-0.136678401272192,0.0997428404704328,-0.0324455670255367,-0.285495466855033,-0.189151363516302,2.34167417950554,0.0334094247566515,0.000993490560547971,0.0860009215633398
0.5,2.55219707362254,0.66821515858743,1.60592206224553,-0.0399494573443802,0.0967117880402969,0.0164857479325708,-0.22850775243212,-0.0260920704670111,2.11762801366565,0.021584411480166,0.0571817410963182,0.0703068100787062,6.18395460311897,-0.00329439776096469,-0.00276821560671261,-0.0040988747634054,-0.22850775243212,-0.0260920704670111,2.11762801366565,0.021584411480166,0.0571817410963182,0.0703068100787062,-1.1850009450291,-0.513564375495985,2.49029278213517,-0.265580003583042,-0.212871636585766,-0.172918470022625
0.6,2.51638924152569,0.655308497032728,1.61046666228204,-0.00471872968778723,0.0508680361380064,0.0312957605963278,-0.424422711741257,-0.138064710024818,2.33139924402617,-0.169155416852454,-0.0866053395671154,-0.0938326322057597,5.99308626834014,-0.000400740467451684,0.00162843836072936,0.0029573592665402,-0.424422711741257,-0.138064710024818,2.33139924402617,-0.169155416852454,-0.0866053395671154,-0.0938326322057597,-0.607375157196229,-0.0756014830542898,2.16053515567493,-0.032491635548407,0.125165744890139,0.124814501653086
0.7,2.45303742440508,0.642883318747083,1.89117463411165,-0.059307957100648,0.0225012784680952,-0.0060020930314174,-0.396300451756888,-0.0758851363055161,2.26478318565805,-0.0262496368071594,0.119083308789836,0.0886977002917843,5.8158790935024,-0.00251489686046626,-0.00293078376722805,-0.00391263258300906,-0.396300451756888,-0.0758851363055161,2.26478318565805,-0.0262496368071594,0.119083308789836,0.0886977002917843,-0.26538063171774,-0.687871026927076,1.79836789094732,-0.202646326442592,-0.225253111134114,-0.165047991494747
0.8,2.40879252044919,0.629370581154309,1.95596106421103,-0.0310123128808391,0.0815497670213636,0.0409205257318742,-0.463753917949805,-0.180408466908392,2.15724060126964,-0.148000661572151,-0.0956791239630961,-0.0886312235951182,5.84457336566901,-0.000788138311962212,-0.00138967745021632,0.00228335270289962,-0.463753917949805,-0.180408466908392,2.15724060126964,-0.148000661572151,-0.0956791239630961,-0.0886312235951182,-0.936108913504528,-0.401080505727828,1.83469775634957,-0.063723209862143,-0.107049434975285,0.0964023933922675
0.9,2.36978186315326,0.594002513563374,2.05037622073069,-0.0800224562084938,0.0026207662428937,-0.0238756791837913,-0.520663234567514,-0.203205619797604,2.28487511022418,-0.0705625969434039,-0.0277164044932251,0.0563889387861643,5.61205242533762,-0.00118535185074859,-0.000372959134669592,-0.0015342920566224,-0.520663234567514,-0.203205619797604,2.28487511022418,-0.0705625969434039,-0.0277164044932251,0.0563889387861643,-0.0507329845485833,-0.896266424646547,1.37814829894928,-0.0954149115979436,-0.0284206534597744,-0.0646755956308504
1,2.26510818549806,0.524292570377303,2.20797554816212,-0.0961513878838904,-0.0157678763014133,-0.00467137943848449,-0.616053244014384,-0.33225134603294,2.0906040379267,-0.12602817648274,-0.0316892286765589,-0.0639659007925404,5.61229023135596,0.00124955784011879,-0.000990808668465172,0.00325285345271705,-0.616053244014384,-0.33225134603294,2.0906040379267,-0.12602817648274,-0.0316892286765589,-0.0639659007925404,0.171127225150973,-1.07840794781161,1.36134541292154,0.10075260632132,-0.0762489191162022,0.137316156588265
1.1,2.21024728785124,0.476463176027402,2.25328882260259,-0.112520869971618,-0.00624185381807542,-0.0435818997423833,-0.586897717799072,-0.400778206403521,2.18037088094678,-0.0119760332763463,-0.0430365091097367,0.0556598606163425,5.46644587128758,-0.00105329565083563,-0.00198129466350364,-0.000567071774763081,-0.586897717799072,-0.400778206403521,2.18037088094678,-0.0119760332763463,-0.0430365091097367,0.0556598606163425,0.0142616188319023,-1.22937295372012,1.05354272793908,-0.0847686129046203,-0.151998951361533,-0.0238565110938117
1.2,2.22153919803307,0.469536976585562,2.45353771946189,-0.0290703630529643,0.0243301203220084,0.0456160252166017,-0.516688763362811,-0.426847852913786,2.11967052682649,-0.0772253481056597,-0.0614603292985035,0.00469784348833762,5.3857565050521,-0.00362766787367348,-0.00340654228259651,-0.00231418099640783,-0.516688763362811,-0.426847852913786,2.11967052682649,-0.0772253481056597,-0.0614603292985035,0.00469784348833762,-0.247386297475089,-0.324706327622181,0.95377528321116,-0.292546705110216,-0.262022319818989,-0.097582044874847
1.3,2.1710354666088,0.394074600788372,2.52558272333173,-0.0966329698493056,-0.0222958383165622,-0.0108052042331083,-0.577687613963458,-0.579337780149325,2.02970879210938,-0.22597102857956,-0.158776775655468,-0.0668913040369837,5.30858626797458,0.00351851108546605,0.000137022661647271,0.00368457370006521,-0.577687613963458,-0.579337780149325,2.02970879210938,-0.22597102857956,-0.158776775655468,-0.0668913040369837,0.224512773714805,-1.02685872381493,0.755013385409276,0.283746790623061,0.0105249395457808,0.155521994895246
1.4,2.13891859252072,0.327855257519455,2.63417648304311,-0.146500154315543,-0.0497300690132683,-0.0240268130609651,-0.559914942235024,-0.570992423718184,2.02997555940064,0.0925180838165227,0.00234599235876733,0.0864175437243057,5.17784896696006,-0.00254139439985087,-0.00359625241197687,-0.00294940148038477,-0.559914942235024,-0.570992423718184,2.02997555940064,0.0925180838165227,0.00234599235876733,0.0864175437243057,0.472798455961485,-1.52348885575616,0.422102571076218,-0.204904541255303,-0.276002911751131,-0.124423732511174
1.5,2.08490959521645,0.278283223662351,2.73265916805082,-0.0296999748313363,-0.00140198864460592,0.0306912331871757,-0.571876473198708,-0.682761663015029,1.93492925259213,-0.173732944029479,-0.173564146202957,-0.0742742415977765,5.20100093563107,-0.000890246527221469,-0.00232922156754601,0.00208795969983437,-0.571876473198708,-0.682761663015029,1.93492925259213,-0.173732944029479,-0.173564146202957,-0.0742742415977765,0.0240490300160176,-0.308300989575562,0.587404246912929,-0.0718099416026199,-0.17936276916596,0.0881218137359518
1.6,2.04459000657609,0.206690777780601,2.81491336890755,-0.144961767681914,-0.0779374702430609,-0.0376925109856794,-0.513906672379106,-0.837235139540037,1.94295096343341,-0.111153290855823,-0.126947272420893,0.0396559256338101,5.00079951272147,0.00323828736498981,-0.000638111500187913,-0.000118080468829224,-0.513906672379106,-0.837235139540037,1.94295096343341,-0.111153290855823,-0.126947272420893,0.0396559256338101,0.715551183247801,-1.4727875959951,0.0566542590169199,0.261112123465394,-0.0485345327378026,-0.0050090535238411
1.7,2.00838071487914,0.0631320488427919,2.91064673966904,-0.148655459368895,-0.0880112260974693,-0.0142943857665119,-0.571395317003301,-0.861378323114196,1.77876992444876,0.0537117647848299,-0.0891933126528621,-0.0262089054857412,5.0237640591462,-0.000387908480951611,-0.00230584553733028,0.00188146290833895,-0.571395317003301,-0.861378323114196,1.77876992444876,0.0537117647848299,-0.0891933126528621,-0.0262089054857412,0.852053542723944,-1.50045732847876,0.0882550913594002,-0.0313072903864954,-0.177223026320354,0.0793152222227256
1.8,1.94318069603403,0.0154086834534356,2.94925320029377,-0.0787171289283266,-0.0779932319009669,-0.0376807586667021,-0.501434408282462,-1.00596664670056,1.80547733685111,-0.0945703550552869,-0.160203627379979,0.0213722279305051,4.91919677946918,0.000765295987444285,-0.00166961811778652,0.000723507527562139,-0.501434408282462,-1.00596664670056,1.80547733685111,-0.0945703550552869,-0.160203627379979,0.0213722279305051,0.734489434648555,-0.801889323377088,-0.0318873700492013,0.0616141818776756,-0.128001920126595,0.0304308548094185
1.9,1.97770154073232,-0.0497753461072284,3.11015723762692,-0.100099224044886,-0.0730011032677877,0.0238016546913973,-0.357153168808511,-1.08915961262894,1.70196447333064,-0.00718374331428673,-0.107032787676905,0.033951260254912,4.79862432555665,4.29582416303323e-06,-0.00302750602479236,-0.00277258594128393,-0.357153168808511,-1.08915961262894,1.70196447333064,-0.00718374331428673,-0.107032787676905,0.033951260254912,0.719111776757705,-0.942226086573355,-0.286226067067467,0.000274459041125076,-0.232673831521579,-0.117145789537819
2,1.98040720906255,-0.180210830698095,3.14604488255583,-0.085328650491788,-0.0775244127440368,0.0126049158111095,-0.325268959758743,-1.18003952509304,1.54589903471673,-0.0541180083778039,-0.186878059496761,-0.061825875940056,4.8237323603517,0.00127308860775684,-0.00124535084883096,0.00228480142878799,-0.325268959758743,-1.18003952509304,1.54589903471673,-0.0541180083778039,-0.186878059496761,-0.061825875940056,0.754751131025507,-0.812757796052874,-0.226506324289256,0.102747262556445,-0.0959852267082455,0.0962083844452524
2.1,1.95201026972926,-0.30069825559904,3.16433706644446,-0.121599979836451,-0.13663940697907,-0.0457699275164483,-0.276406339688785,-1.30842669362241,1.54250538099172,-0.0153347846404239,-0.132521757867258,0.0376289599701708,4.7220315557787,0.00298575766337103,-0.000765269946972208,0.00035702772845264,-0.276406339688785,-1.30842669362241,1.54250538099172,-0.0153347846404239,-0.132521757867258,0.0376289599701708,1.22316871378204,-1.20279427146314,-0.523048277651093,0.240486986000229,-0.0583034495360442,0.0147929871338299
2.2,1.94926491185094,-0.431500110549206,3.2544178326066,-0.106494495148533,-0.119792269774333,-0.00369151025106745,-0.237574727393762,-1.35456186138201,1.45208751004459,0.0717780196727453,-0.119119070705635,-0.00167375709474821,4.66585648263182,0.000759614533039958,-0.00231731810294345,0.000228582554471427,-0.237574727393762,-1.35456186138201,1.45208751004459,0.0717780196727453,-0.119119070705635,-0.00167375709474821,1.10520845839314,-0.995985376110799,-0.597649905689689,0.0611961348456408,-0.178153230891976,0.0093224556046732
2.3,1.96739411253445,-0.491450064299875,3.33297419890216,-0.0368921383105846,-0.0919414356569462,0.0142371695665749,-0.0695400083479265,-1.42566935150565,1.36633409021225,0.0100098263321437,-0.161284483978129,0.0219254949221656,4.57914046785911,-0.000170609387721107,-0.00211721428169603,-0.00173862340688846,-0.0695400083479265,-1.42566935150565,1.36633409021225,0.0100098263321437,-0.161284483978129,0.0219254949221656,0.844991434195104,-0.325795069013332,-0.696605640778873,-0.0138449474053257,-0.162745997628185,-0.073706773474652
2.4,2.00070793436438,-0.63268688221674,3.36353213689511,-0.0780642309088641,-0.135804267734027,0.00752770080773035,0.0243468822497171,-1.59811186473914,1.22191955102243,-0.0418144235711131,-0.17655606312626,-0.037862897393627,4.56444967025826,0.00454984004858379,0.000321949207445167,0.00144087332117006,0.0243468822497171,-1.59811186473914,1.22191955102243,-0.0418144235711131,-0.17655606312626,-0.037862897393627,1.23749641438748,-0.702621411097022,-0.79269835558723,0.367044287596164,0.0246242477231411,0.0603967358045225
2.5,2.04978375177122,-0.800583976798153,3.38709405382351,-0.0901395058817736,-0.143094557984287,-0.0120312055653456,0.094401589676085,-1.5828976137997,1.18496250037225,0.172142008390447,-0.0713333262565445,0.0411580051973595,4.49316466346899,0.000470262857499403,-0.00220771227636523,-0.00136977130545222,0.094401589676085,-1.5828976137997,1.18496250037225,0.172142008390447,-0.0713333262565445,0.0411580051973595,1.26648377253827,-0.824223418041729,-0.951626030515843,0.0376241393304146,-0.169512151523331,-0.0582703722474392
2.6,2.06445191296474,-0.891722210267781,3.43926717244329,0.00324854422920301,-0.105751667717023,0.0241975682222579,0.20185301859398,-1.63971956215487,1.05440566269362,0.0116652105820824,-0.17834957231687,-0.0226457031369047,4.45678894860406,0.00115586620813615,-0.000957306605588098,-5.8174118672458e-05,0.20185301859398,-1.63971956215487,1.05440566269362,0.0116652105820824,-0.17834957231687,-0.0226457031369047,0.939888749058343,0.0517120424160229,-0.946264560939344,0.0934028284911476,-0.0738012724419785,-0.00289196909925796
2.7,2.11779084572352,-1.00703134120527,3.45864120157409,-0.0533934059964896,-0.153685481351241,0.00334508364927726,0.368056366425569,-1.7833243849802,0.99650985548114,0.047207849691674,-0.129683181195499,0.0104121808356775,4.3839876793018,0.00440410511224987,0.000573665742599378,-0.000642841385978964,0.368056366425569,-1.7833243849802,0.99650985548114,0.047207849691674,-0.129683181195499,0.0104121808356775,1.34185723816808,-0.463443637319715,-1.15771527072279,0.355069029470558,0.0442047287274156,-0.0276117245973585
2.8,2.1992134593831,-1.20836445775778,3.48595574721102,-0.0433844240972399,-0.147467565869485,0.00727264795384282,0.406455314821812,-1.74292225396293,0.8442694206294,0.191631469450088,-0.0744547204165741,-0.00887434452108009,4.39867882936231,0.00122809366481175,-0.00111549168632783,7.57136892079016e-05,0.406455314821812,-1.74292225396293,0.8442694206294,0.191631469450088,-0.0744547204165741,-0.00887434452108009,1.29415232966049,-0.372146587310049,-1.11631387496026,0.0990860714167214,-0.0858383110946413,0.00268811030268439
2.9,2.18642360408398,-1.32962516960268,3.44155610185792,-0.00704254103672472,-0.163584800934343,-0.0329145006733671,0.501982075041566,-1.85465093505112,0.76708750913737,0.0400159519155845,-0.172791171923146,-0.0209593947115481,4.40294004120046,0.00510433777129701,0.00194103189703583,0.00254366680610773,0.501982075041566,-1.85465093505112,0.76708750913737,0.0400159519155845,-0.172791171923146,-0.0209593947115481,1.4312389389105,-0.109174401229547,-1.12189548431375,0.411550438552623,0.149358643432407,0.106886717205764
3,2.28776180764965,-1.45689414119223,3.48927193285019,-0.0320070185427867,-0.181329253892866,-0.00901143541959773,0.679358137936143,-1.85937670137301,0.760734354276649,0.242805350864755,-0.0192384392926687,0.0634379108054499,4.27874781181676,0.00219818648491829,-6.74293809384908e-05,-0.00263704478342648,0.679358137936143,-1.85937670137301,0.760734354276649,0.242805350864755,-0.0192384392926687,0.0634379108054499,1.53991391990901,-0.287741487518843,-1.3971169445821,0.17681771540459,-0.00497151982141472,-0.11173100383256
3.1,2.4018267297596,-1.57557108169974,3.54470718581828,0.076216408019638,-0.105625897309029,0.0452561193521483,0.811913258705033,-1.82781292580458,0.562276749594396,0.149615863170682,-0.0808023590062095,-0.0394900169356652,4.244542849636,0.000429422692121712,-0.000969296855443349,-0.000294855493599444,0.811913258705033,-1.82781292580458,0.562276749594396,0.149615863170682,-0.0808023590062095,-0.0394900169356652,0.862246205791814,0.686092473469965,-1.39273294898933,0.035262344532436,-0.0747795722127727,-0.012786420379188
3.2,2.48312343671748,-1.68737735909536,3.49214467468679,0.0418537987539339,-0.144379044900015,-0.00300021625172865,1.02170467446148,-1.94189592178805,0.529293151001398,0.071169077727739,-0.130575714203344,0.00304542860994897,4.23608783550928,0.0057933100117842,0.00345704742855443,-7.18326414731896e-05,1.02170467446148,-1.94189592178805,0.529293151001398,0.071169077727739,-0.130575714203344,0.00304542860994897,1.21894994605826,0.350833689895326,-1.43331584983427,0.46715262521361,0.265939648990317,-0.00331159447129036
3.3,2.58391537933958,-1.95788393988857,3.46012232602758,-0.0446853763807985,-0.229295695229348,-0.0517048137816866,0.992572251097967,-1.94410229382883,0.358593381026925,0.261557024155807,0.00418866942375357,-0.0416052602352469,4.46711891759303,0.00692693933520081,0.00333945942223635,0.00432730961621287,0.992572251097967,-1.94410229382883,0.358593381026925,0.261557024155807,0.00418866942375357,-0.0416052602352469,2.00531399237127,-0.503407878038069,-1.11828543979961,0.558629155058484,0.256880432541848,0.18232828244826
3.4,2.66693069326103,-2.03167614623134,3.4475934507309,0.0884420533161737,-0.137009825573447,-0.0335475500714032,1.1785899056134,-1.80626588847768,0.508281478611756,0.369200899303429,0.0415370034521344,0.0936563260883496,4.09349000861715,-0.00143634688662526,-0.000474577507849484,-0.00295737317905173,1.1785899056134,-1.80626588847768,0.508281478611756,0.369200899303429,0.0415370034521344,0.0936563260883496,1.13744821903176,0.685363929639155,-1.73144012613852,-0.116619530232815,-0.0364334663489137,-0.124896079257422
3.5,2.77793721731366,-2.07180073714421,3.5334501252134,0.150398754710521,-0.121582965715488,0.0287795904374049,1.36872241348511,-1.91856081637099,0.131634799426599,0.027443353973268,-0.0956098884088288,-0.0670797889925422,4.22941767422585,0.00554597623098403,0.00405331158396625,0.00177223415684829,1.36872241348511,-1.91856081637099,0.131634799426599,0.027443353973268,-0.0956098884088288,-0.0670797889925422,0.977446681803234,1.29607092208722,-1.5083921074669,0.448230884186063,0.31186934960854,0.0748693546624761
3.6,2.9743082336737,-2.27408414259297,3.41234304259924,0.0314464072701278,-0.17200338767347,-0.0243725160480679,1.5506407980593,-1.82893932641251,0.294805317025818,0.336938487061524,0.0964239932832298,0.0465116949041765,4.23441310089545,0.00442313628083838,0.00352049697566272,-0.00078964674086373,1.5506407980593,-1.82893932641251,0.294805317025818,0.336938487061524,0.0964239932832298,0.0465116949041765,1.45483691975282,0.230884313726555,-1.47026623885755,0.356417250309562,0.270782444898709,-0.0332071663059252
3.7,3.13219304678163,-2.40531191026716,3.49207778017498,0.155175012538114,-0.0994271219762859,0.000354088554793845,1.58854468759686,-1.69478977044968,0.0333501708428381,0.300414271727501,0.0779391857378419,-0.0224179775550374,4.16525580923691,0.000273259708561782,0.00134739355132938,0.00111065265691244,1.58854468759686,-1.69478977044968,0.0333501708428381,0.300414271727501,0.0779391857378419,-0.0224179775550374,0.816523036962972,1.28779485875564,-1.62023209380152,0.0226283581205813,0.103792420541486,0.0471536010456086
3.8,3.23578278084214,-2.4195327576697,3.38144247002169,0.171009862231035,-0.0954477689543143,-0.0148061339924666,1.78832674745191,-1.6786341370856,0.0507689765754833,0.141989154056872,0.00330155111114301,0.028123501515583,4.14436908080061,0.00436244786909071,0.00488710351258096,-0.000395328669562734,1.78832674745191,-1.6786341370856,0.0507689765754833,0.141989154056872,0.00330155111114301,0.028123501515583,0.799217134095011,1.39887774334854,-1.67934360931926,0.351977784477845,0.375998524627462,-0.0162421786884125
3.9,3.48525315019582,-2.53703848002676,3.44505606715818,0.14493647174779,-0.0934644721920913,0.0393906078359142,1.92123803440523,-1.49987082889893,-0.0261345618557747,0.349852758843186,0.188749645440514,0.0210533642992514,4.09013763855128,0.000372943091187092,0.00210511872509214,-0.00244341745938906,1.92123803440523,-1.49987082889893,-0.0261345618557747,0.349852758843186,0.188749645440514,0.0210533642992514,0.708334767113152,1.21030699203025,-1.75082371132652,0.030747351931277,0.162249370941999,-0.102585454882774
4,3.64244287266728,-2.5971283501025,3.40485755264175,0.235293721439806,-0.0233975491676068,0.0180201457777485,1.97610451404807,-1.3821264598017,-0.22082648838693,0.178554009651127,0.0765436791601071,-0.039752419989183,4.09873279400694,0.00115246426862699,0.00258299390572277,0.00127275451943625,1.97610451404807,-1.3821264598017,-0.22082648838693,0.178554009651127,0.0765436791601071,-0.039752419989183,0.152032629924065,1.91411414545051,-1.84059003537298,0.0938940370241198,0.1993652064132,0.0543357561592974
4.1,3.78238690052367,-2.65539198385083,3.30143149362109,0.168411804455157,-0.0742101855905788,-0.0140202971157891,2.04464273080276,-1.23367593201581,-0.142998097168883,0.205480551445798,0.0925842713513813,0.0325665775717627,4.07829790777864,0.00363639792436035,0.00575345399298613,-0.000339608215283139,2.04464273080276,-1.23367593201581,-0.142998097168883,0.205480551445798,0.0925842713513813,0.0325665775717627,0.61530031624893,1.35868990029457,-1.79093380910046,0.293551098994785,0.442818327268891,-0.0136401812010296
4.2,3.94182369930231,-2.73451850713179,3.33630862089142,0.165801727193876,-0.0835730172985278,-0.00937558421882105,2.02178963893494,-1.10235253550474,-0.436189704631542,0.301726996911943,0.221064897061089,-0.0209866290309683,4.1951605229458,0.00145615352295017,0.0032088252868412,0.00199225573747098,2.02178963893494,-1.10235253550474,-0.436189704631542,0.301726996911943,0.221064897061089,-0.0209866290309683,0.703736023882623,1.37822746821022,-1.56362310419345,0.118193113304266,0.247594688886122,0.0848049213815514
4.3,4.0647387431496,-2.73041134530065,3.18384554763593,0.240934044846427,-0.00360771299333801,-0.0170204503249063,2.1245325835723,-0.918070000572982,-0.41200481096497,0.235223402372612,0.144400408823009,0.0455057821185646,4.0761604593973,-0.000341048246856621,0.00284667904464773,-0.00102818630349157,2.1245325835723,-0.918070000572982,-0.41200481096497,0.235223402372612,0.144400408823009,0.0455057821185646,0.0616644907534979,1.9444557667474,-1.89320610191481,-0.0271117333704792,0.219505238307526,-0.0426210416024256
4.4,4.24247211126612,-2.72394465943868,3.1732703413066,0.231704304506406,-0.0231454652054505,0.0181324728863045,2.18411238276698,-0.73804169866275,-0.476238479900372,0.161914804771671,0.151756817714347,-0.0166427949472047,4.03685678904928,0.00148204270682194,0.00482149833165109,0.000240118885790843,2.18411238276698,-0.73804169866275,-0.476238479900372,0.161914804771671,0.151756817714347,-0.0166427949472047,0.148213764374548,1.85701286875545,-1.9541495160295,0.120405550869495,0.372364478015702,0.0109010925330204
4.5,4.42025240600328,-2.74463359027361,3.14561727308001,0.200233117796478,-0.0235404498765138,-0.0202054034958558,2.17086348754528,-0.568563958404438,-0.669969520120382,0.232052810479489,0.230610292876029,-0.000454087171071519,4.11361510225835,0.000897066878762375,0.00353511672079744,0.00128784006733287,2.17086348754528,-0.568563958404438,-0.669969520120382,0.232052810479489,0.230610292876029,-0.000454087171071519,0.222808323996311,1.63220950224848,-1.74938182087504,0.0729581353129852,0.273170575953327,0.05507175737816
4.6,4.56069477670389,-2.72022628875265,3.03027976243483,0.245141683754222,0.027249369761196,-0.011304390917191,2.19920953237479,-0.370453360131696,-0.748018395775136,0.215913820405377,0.198612707125739,0.0276104539592174,4.07122371345947,-0.00118289942004991,0.00289098807644192,-0.000620434926324443,2.19920953237479,-0.370453360131696,-0.748018395775136,0.215913820405377,0.198612707125739,0.0276104539592174,-0.192864346501044,1.97842788129806,-1.91392017755076,-0.0949026855358731,0.223731204835862,-0.025529629104579
4.7,4.72921269806076,-2.65426328219962,2.95785876721504,0.266445929934371,0.0387515769610637,0.0154119097563493,2.22001072219928,-0.142603418553439,-0.794784031825605,0.137331749341411,0.199803597955769,-0.00198012346473707,4.00410275861497,-0.00103891879770796,0.00329280299862728,-0.00062218976216048,2.22001072219928,-0.142603418553439,-0.794784031825605,0.137331749341411,0.199803597955769,-0.00198012346473707,-0.331765629413035,2.10373305148096,-2.09018171059456,-0.0832078822029013,0.255435478959839,-0.0256941226119522
4.8,4.9241354508862,-2.57119412464243,2.94506848627227,0.265471751969454,0.0736182066196165,0.0255554667924494,2.22483164242315,0.101316618877589,-0.936060465827106,0.157666573837992,0.244594688630581,0.0148102182108767,3.96611780915855,-0.00258923137956929,0.0015119800306944,-0.00197990110484875,2.22483164242315,0.101316618877589,-0.936060465827106,0.157666573837992,0.244594688630581,0.0148102182108767,-0.615986227016045,2.0660717346352,-2.17637239184629,-0.208391763147187,0.11850067519199,-0.083106010345102
4.9,4.99367901280073,-2.56644445599771,2.77477222589501,0.206574820856281,0.0305633060284271,-0.043814220215968,2.03743398412482,0.220225304539354,-1.12833509483703,0.0235280068926846,0.117919283192154,-0.0812847790735641,4.10028767753827,0.00355068001111663,0.00563896776007428,0.00592675928927226,2.03743398412482,0.220225304539354,-1.12833509483703,0.0235280068926846,0.117919283192154,-0.0812847790735641,-0.1713620123721,1.69113843945572,-1.78752394870514,0.286626281586909,0.436482411342462,0.250336172097793
5,5.10409539941827,-2.48120326505087,2.66888242413074,0.181819520073577,0.0131708351769803,-0.0529060025692042,2.05929492422076,0.441730969944715,-1.20406670988579,0.306559814696036,0.318199138099354,0.119607262759215,4.1093771011176,-0.00377423650845311,0.0020444679995068,-0.00328238944947239,2.05929492422076,0.441730969944715,-1.20406670988579,0.306559814696036,0.318199138099354,0.119607262759215,-0.0277240200770313,1.48966060923443,-1.72742223762959,-0.304341394859417,0.157760475177583,-0.13832828635833
5.1,5.28022338101252,-2.32365272458741,2.57015861636153,0.352906923106127,0.148210543222395,0.0618459486660934,2.12432409370322,0.65804795979616,-1.30006693306932,0.0219360290281995,0.236553617725961,-0.04741065405473,4.04319664547179,-0.00503231380180529,-0.000994685756563517,-0.000791680927943245,2.12432409370322,0.65804795979616,-1.30006693306932,0.0219360290281995,0.236553617725961,-0.04741065405473,-1.29111476658253,2.72027761207161,-2.30514365036932,-0.405959488261662,-0.0723548085616952,-0.0334991007410777
5.2,5.42625453762736,-2.21206471717318,2.42991665969075,0.233304908926719,0.125174493992179,-0.0157923200188882,1.93216434452078,1.01385215768092,-1.23075834052875,-0.0457182734887093,0.0945896022589099,-0.00434642457089266,3.87809129629284,-0.00017735708780911,0.00406962895370849,0.000821946284334158,1.93216434452078,1.01385215768092,-1.23075834052875,-0.0457182734887093,0.0945896022589099,-0.00434642457089266,-0.913673294760345,1.80783790427568,-2.32299181035342,-0.0145705836218065,0.315790882670761,0.0343761142542473
5.3,5.50127900407436,-2.04865347904817,2.49803748606049,0.184151638520426,0.0592451849227244,-0.00390239919699241,1.85063490355057,1.0859975830927,-1.68096208692372,0.130903310602808,0.293808456532166,0.0181643571147879,4.07251083166387,-0.00321870383819255,0.00130516510886893,-0.000835742542218942,1.85063490355057,1.0859975830927,-1.68096208692372,0.130903310602808,0.293808456532166,0.0181643571147879,-0.468292955963842,1.49329478058176,-1.8167434482709,-0.259897562159498,0.102973434989366,-0.0356473444665614
5.4,5.61078635481451,-1.93372619379612,2.16886217189914,0.275943557888407,0.168632008470742,0.0102636712250169,1.82720186619887,1.27560512240191,-1.67604413844759,0.00651976738353899,0.203697560896906,-0.00831246685949998,4.11615256792411,-0.00491087209084613,-0.000792858644678837,-0.00016324541781891,1.82720186619887,1.27560512240191,-1.67604413844759,0.00651976738353899,0.203697560896906,-0.00831246685949998,-1.35234012652134,2.22916971766928,-2.00149012924108,-0.396694967340385,-0.0577490597732538,-0.00755330075283578
5.5,5.68190218457558,-1.80748768815849,1.99995209291097,0.201510112211086,0.118662237642459,-0.0260074790880021,1.58183168999223,1.54951957934257,-1.65020012870384,-0.101682070503989,0.097548631979457,-0.0161078949432362,4.00969919652755,-0.000529478638465439,0.0033799952608006,0.00192071909286258,1.58183168999223,1.54951957934257,-1.65020012870384,-0.101682070503989,0.097548631979457,-0.0161078949432362,-0.888104269683712,1.62872102782154,-2.00812271269047,-0.0434722741118608,0.262985930488402,0.0801911588607347
5.6,5.71986709177566,-1.61393640815989,1.99862271475003,0.150202738389356,0.081918275466984,-0.0231154681791514,1.53246746437196,1.64701078918494,-1.95304850626007,0.0704224402375753,0.271190861341726,0.0313794618668193,4.1241378109152,-0.00353595891720166,0.00031325358853384,-0.000466879141155958,1.53246746437196,1.64701078918494,-1.95304850626007,0.0704224402375753,0.271190861341726,0.0313794618668193,-0.638623629218805,1.24935487976816,-1.68194223825369,-0.285867131988995,0.0265092957481168,-0.0206135183843749
5.7,5.82816183996367,-1.44126582286033,1.73225525092838,0.24876303053629,0.191690899600511,0.0157285470191372,1.51746292022868,1.80904636403555,-1.94373976245384,-0.0456504300597612,0.176538827659488,0.000705443535043981,4.17334735489949,-0.00596060884462405,-0.00161161114638061,-0.000776543391589713,1.51746292022868,1.80904636403555,-1.94373976245384,-0.0456504300597612,0.176538827659488,0.000705443535043981,-1.5733847736089,2.03050522041329,-1.86841190424509,-0.481942807417237,-0.120536873497768,-0.0339425345767715
5.8,5.94313468293503,-1.23219833799423,1.60613671657635,0.223704983749799,0.187836201362438,0.0237712465443173,1.30595401670623,2.1445103773015,-1.91021414238737,-0.14686799254336,0.114539465960605,0.0117406173203779,4.07991058908348,-0.00484326345355476,-0.000301322137847397,-0.00166536999188465,1.30595401670623,2.1445103773015,-1.91021414238737,-0.14686799254336,0.114539465960605,0.0117406173203779,-1.52835223655357,1.77437963355524,-1.99345357483829,-0.39201222372724,-0.0197678411912327,-0.0715878611490605
5.9,5.95436206496422,-0.993534887267301,1.58653295817918,0.158969020725056,0.155571679143911,0.016766965685904,1.13557353452877,2.2703499890115,-2.14516549724014,-0.134366681507768,0.152262434585671,-0.0225219576659383,4.11370034897944,-0.00373550455786849,-0.000583669091187535,0.000284935771788761,1.13557353452877,2.2703499890115,-2.14516549724014,-0.134366681507768,0.152262434585671,-0.0225219576659383,-1.2803792623537,1.28111309819618,-1.78444703344755,-0.302948810265291,-0.0412853687117893,0.0106608903911394
6,5.94644147913334,-0.82326182143724,1.33033508248537,0.130752995231074,0.157515881399999,-0.0210485474310807,0.979347836513035,2.32792303594459,-2.24736379300882,-0.122363588346203,0.119995754914395,-0.000713312248581902,4.21575965554858,-0.00347168010274785,-0.000528130560656434,0.00103461524843968,0.979347836513035,2.32792303594459,-2.24736379300882,-0.122363588346203,0.119995754914395,-0.000713312248581902,-1.28789561690381,1.1266636880249,-1.55394333186537,-0.281494883682816,-0.0377906195535111,0.0422225085759236
6.1,5.98809056043245,-0.614080216047824,1.14051073408286,0.154969380138742,0.177264402082407,0.014976878768411,0.878649337651982,2.48444355861509,-2.20825608744598,-0.105766194267052,0.141419292899392,0.0392177608551093,4.22302941953325,-0.00626303236470109,-0.00238516729058213,-0.00255758286536812,0.878649337651982,2.48444355861509,-2.20825608744598,-0.105766194267052,0.141419292899392,0.0392177608551093,-1.4908676967763,1.28146389274268,-1.59592222368944,-0.506696805158887,-0.180766109737377,-0.109387445014573
6.2,5.98761365060894,-0.414601448696814,0.993114612027549,0.135429670818176,0.171335841951107,0.00916435292886966,0.66003515810587,2.60560915622342,-2.31955221848976,-0.262903020455008,0.0435246256065295,-0.0599831857623273,4.28104628039315,-0.00282016759336803,-0.000493912760556685,0.00238161648424434,0.66003515810587,2.60560915622342,-2.31955221848976,-0.262903020455008,0.0435246256065295,-0.0599831857623273,-1.45699261883006,1.14271578022837,-1.45052620234001,-0.22984868880897,-0.0343517951460585,0.0989599462391255
6.3,5.9478255903504,-0.210286675640051,0.821410952455331,0.0453499287367998,0.128489862225321,-0.0400846519367657,0.49006234911113,2.70068302853178,-2.35445876152021,-0.140193300970413,0.110858392313118,0.0417513193796925,4.2672162682156,-0.00317860092683333,-0.00109124855752645,-0.000102100665717549,0.49006234911113,2.70068302853178,-2.35445876152021,-0.140193300970413,0.110858392313118,0.0417513193796925,-1.07606655928736,0.430371169736749,-1.35462300455276,-0.257744129041453,-0.0820500047784029,-0.00573471993465606
6.4,5.92811836494905,0.0103850845037092,0.662170571713575,0.0925865676756909,0.164896187393249,0.00959154188287684,0.43277896736455,2.6591577878932,-2.37951899868598,-0.166446391157159,0.0836141010680255,-0.00656499612328985,4.31459033055,-0.00480083133739231,-0.00226367951031296,-0.000167917805205943,0.43277896736455,2.6591577878932,-2.37951899868598,-0.166446391157159,0.0836141010680255,-0.00656499612328985,-1.4179996798251,0.784240723398454,-1.33432880075674,-0.389424732170237,-0.171388508130082,-0.00851202948330784
6.5,5.93067457982052,0.182448775541982,0.454730946429371,0.0686463564564374,0.157906476184327,-0.0151772725848897,0.2292390056859,2.78943003798865,-2.44384847554966,-0.25178819252218,0.0285396895292421,-0.0109990855267813,4.40908430144575,-0.00301025896683813,-0.00131986032191864,0.00119420072685274,0.2292390056859,2.78943003798865,-2.44384847554966,-0.25178819252218,0.0285396895292421,-0.0109990855267813,-1.37406146690178,0.625785612985484,-1.12205174044081,-0.244983749749063,-0.0991013109504467,0.0490009158346185
6.6,5.88735514562684,0.415236293573297,0.324918952266004,0.0264246474234006,0.144614673587756,-0.00969870022494313,0.0968702596066862,2.84946518788907,-2.39461244429174,-0.185859801418309,0.0669507910140095,0.0266101878981819,4.35158972250751,-0.00400111203409999,-0.00233499778657108,-0.000848000339515925,0.0968702596066862,2.84946518788907,-2.39461244429174,-0.185859801418309,0.0669507910140095,0.0266101878981819,-1.25149804963941,0.242100785644896,-1.20067527076188,-0.32470340390046,-0.177648418042475,-0.0370404176725104
6.7,5.8638706319079,0.644386986537506,0.205363560551552,0.0573120225731598,0.178287596987291,0.0212338160482966,0.0111180241994364,2.83331325207006,-2.45813980499419,-0.231109604172357,0.0291516575130259,-0.006137464326196,4.43145210435762,-0.00476132732826347,-0.00326047548777784,-0.000747454925279983,0.0111180241994364,2.83331325207006,-2.45813980499419,-0.231109604172357,0.0291516575130259,-0.006137464326196,-1.57963256351609,0.47424073749263,-1.10190447341989,-0.386608949999345,-0.24854356554307,-0.0327247896700725
6.8,5.79954922072362,0.800027712042325,-0.0162811639419314,-0.00626471574811907,0.135009112144414,-0.0238463629282517,-0.266130250293448,2.87654550194758,-2.5023030608574,-0.305602569185504,-0.0421476007896218,-0.0313690367883672,4.48028919223186,-0.00112447487548076,-0.000866589672558786,0.00258508139276923,-0.266130250293448,2.87654550194758,-2.5023030608574,-0.305602569185504,-0.0421476007896218,-0.0313690367883672,-1.20705986525149,-0.0273616288401727,-0.931136175890249,-0.0932214826559995,-0.0647542660735633,0.108012603207306
6.9,5.71807400324106,1.0330592784867,-0.128501862599672,-0.0284047124440874,0.12994469290945,-0.00762907075498231,-0.287300645752183,2.82736718320813,-2.41698048412644,-0.141514030675752,0.0700823096872665,0.0666675870415774,4.4001259650446,-0.00480678712458126,-0.00360827468647807,-0.00282059085732748,-0.287300645752183,2.82736718320813,-2.41698048412644,-0.141514030675752,0.0700823096872665,0.0666675870415774,-1.14174409028316,-0.24123167144621,-1.08746242507185,-0.389506286379775,-0.276381499634028,-0.119875667569072
7,5.70570092538598,1.22774607711892,-0.262580997573025,0.0467107923825675,0.192842674969984,0.0507221436388218,-0.365450694698464,2.78406136901524,-2.51148124480251,-0.29993095509984,-0.0414196830503077,-0.0409854950247215,4.56969753595826,-0.00429886730404549,-0.00392601696166927,-0.000409784777281035,-0.365450694698464,2.78406136901524,-2.51148124480251,-0.29993095509984,-0.0414196830503077,-0.0409854950247215,-1.76903766389812,0.337496296442468,-0.849802219026103,-0.349981890287203,-0.30017103437926,-0.018093861864483
7.1,5.63233602681404,1.38097836067731,-0.476137309284038,-0.0566736866596591,0.129696932071061,-0.0173822730410407,-0.703681319505554,2.90686845303394,-2.50550915482352,-0.30967757979142,-0.077821249436636,-0.00659154235909414,4.58942335526395,-0.00138447241243197,-0.0017280745199127,0.00118625868476791,-0.703681319505554,2.90686845303394,-2.50550915482352,-0.30967757979142,-0.077821249436636,-0.00659154235909414,-1.19408545511808,-0.499241200364148,-0.722858255474209,-0.114058839480192,-0.131877905404308,0.0494427260470293
7.2,5.48121120316152,1.6204072728671,-0.56225414011894,-0.0681389724772718,0.119194392455714,0.00912767228067028,-0.707219144750184,2.69820503501698,-2.3925589938077,-0.189581311839589,0.00539461875990818,0.038222380986883,4.44403641186673,-0.00369773277037116,-0.00354974353650172,-0.00219658083930319,-0.707219144750184,2.69820503501698,-2.3925589938077,-0.189581311839589,0.00539461875990818,0.038222380986883,-1.04888154948983,-0.614754937155772,-1.00546921282163,-0.300402912636176,-0.272365522022,-0.0930941434564653
7.3,5.41616808151555,1.72153352023241,-0.726090889238256,-0.0444780595794277,0.139229370047031,0.0173391118131,-0.800655633266047,2.58596631364122,-2.58787339786977,-0.310331483538167,-0.0929720044573124,-0.0496556804775515,4.63513927891143,-0.00132690520987061,-0.00219641447182429,0.00160904325783631,-0.800655633266047,2.58596631364122,-2.58787339786977,-0.310331483538167,-0.0929720044573124,-0.0496556804775515,-1.27791692837116,-0.434410199710885,-0.638507174826991,-0.109966486787372,-0.168273654043435,0.0675894822595833
7.4,5.37347894024496,1.90123868771477,-0.92646503393362,-0.0743012992282606,0.133364950251344,0.0151238154286926,-0.920800069073783,2.6484663270607,-2.43534434622082,-0.186761754318925,-0.0114485878568084,0.0666653031531534,4.61994117967962,-0.00438666266201977,-0.00451147306310385,-0.00375181353500194,-0.920800069073783,2.6484663270607,-2.43534434622082,-0.186761754318925,-0.0114485878568084,0.0666653031531534,-1.21472369989613,-0.704354856395464,-0.67743428252602,-0.355660951770182,-0.346851205632621,-0.158422365251257
7.5,5.24702605245503,2.0708494856247,-1.01869732452397,-0.0534708464812939,0.143918974550319,0.0474607425927206,-1.06954594402479,2.47923906938294,-2.47477536122136,-0.346395637847611,-0.141951441104251,-0.0715775326341877,4.6500601526405,-0.00119619159308956,-0.00246971835568323,0.00132806137506317,-1.06954594402479,2.47923906938294,-2.47477536122136,-0.346395637847611,-0.141951441104251,-0.0715775326341877,-1.30686040252078,-0.559679881475876,-0.619183278331883,-0.099610261777303,-0.189941016721629,0.0560221370291504
7.6,5.06594746239845,2.12193869908558,-1.23937784172384,-0.193138968623573,0.0307523360429718,-0.0653030287001307,-1.309942789757,2.37079654918785,-2.5634254404301,-0.2680524746322,-0.102718542082742,-0.00528415264968406,4.6774936179913,0.00295009321184775,-2.49998826731957e-05,0.00338588002171385,-1.309942789757,2.37079654918785,-2.5634254404301,-0.2680524746322,-0.102718542082742,-0.00528415264968406,-0.398867225476973,-1.77335150959925,-0.633294951604928,0.236232106385162,-0.00218885570672413,0.143029763428045
7.7,4.93567501441508,2.28034845477978,-1.38469532650479,-0.141888914366832,0.0749605265127237,-0.00158146501588441,-1.08793208672597,1.92414662373472,-2.34438803131349,-0.056952423729348,0.0109613757454693,0.0747075283519814,4.46551379710668,-0.00286381034138195,-0.00312845855735789,-0.00342832022306875,-1.08793208672597,1.92414662373472,-2.34438803131349,-0.056952423729348,0.0109613757454693,0.0747075283519814,-0.664122754378188,-1.26191735650186,-0.99355176723205,-0.232458225219286,-0.241111575889053,-0.144366096570702
7.8,4.89694585278154,2.2277964065969,-1.52636357988835,-0.0948803173140553,0.0888702893322944,0.00483817312136332,-1.26822372807513,1.88978693648474,-2.72285881666519,-0.332896156368175,-0.152663324036255,-0.105279115422568,4.81566073872543,0.00245546285153817,-0.000219545912444138,0.00480846978759673,-1.26822372807513,1.88978693648474,-2.72285881666519,-0.332896156368175,-0.152663324036255,-0.105279115422568,-0.846542795307146,-0.916558806220917,-0.259835674059905,0.195250861671633,-0.0178129462146528,0.203207512056419
7.9,4.81123435365326,2.39763030602098,-1.7676380957741,-0.172842695040841,0.0626820307609781,-0.026447749969876,-1.31693178033095,1.97305260753486,-2.39998150036655,-0.065603349499719,0.0155967447533543,0.123204122564023,4.69334731825871,-0.00265077588235473,-0.00331992384888706,-0.00453276612169906,-1.31693178033095,1.97305260753486,-2.39998150036655,-0.065603349499719,0.0155967447533543,0.123204122564023,-0.621719221800271,-1.59847332053548,-0.581328131740454,-0.21469417649949,-0.255884843750005,-0.190811078338955
8,4.693756285251,2.53757760253587,-1.78979396803624,-0.0786938123275396,0.123128107032194,0.0666747169925536,-1.34522311451673,1.60838063191867,-2.48683213743024,-0.291938386758944,-0.140219437633052,-0.0931184757818517,4.71768433323942,0.000272672307654162,-0.00196520946485302,0.00135057134478518,-1.34522311451673,1.60838063191867,-2.48683213743024,-0.291938386758944,-0.140219437633052,-0.0931184757818517,-1.10325406580685,-0.817059130511238,-0.475042757682299,0.019134087590389,-0.152828215701786,0.0574649561166707
8.1,4.59838390889234,2.52609144734063,-1.97208224806904,-0.185952046413557,0.0552063312353344,-0.0269356870030418,-1.55919851393671,1.75005579200559,-2.60275029117967,-0.169011260450685,-0.0797706116930989,0.0374801740344053,4.87500935091622,0.000504812443875645,-0.00135432252831131,-0.000450108128992042,-1.55919851393671,1.75005579200559,-2.60275029117967,-0.169011260450685,-0.0797706116930989,0.0374801740344053,-0.577071574038973,-1.78771194588898,-0.242662905330223,0.0394188983371336,-0.105219063784573,-0.0184266388063175
8.2,4.42449064179517,2.69272212237463,-2.14823958216776,-0.140889555718815,0.080826334832663,0.0355187353532368,-1.49142948389365,1.30153709879618,-2.34626716778402,-0.151325158765,-0.0691124886765755,0.0024648671391419,4.68629912011287,-0.000536167157386641,-0.00225239269935252,-0.00174682302898165,-1.49142948389365,1.30153709879618,-2.34626716778402,-0.151325158765,-0.0691124886765755,0.0024648671391419,-0.702019888443569,-1.34191289963031,-0.560565659527168,-0.0449840721308534,-0.174923345458482,-0.0730992411766011
8.3,4.3687854260727,2.64184401715266,-2.18869660805719,-0.126994499588079,0.0979918103319153,0.038373674428644,-1.55498925151759,1.33495276944007,-2.59950693081118,-0.181646627855646,-0.0969729008438468,-0.0146328930589325,4.89928150785869,-0.000644900507154615,-0.00218718188068383,-0.00105504742167398,-1.55498925151759,1.33495276944007,-2.59950693081118,-0.181646627855646,-0.0969729008438468,-0.0146328930589325,-0.902612154277577,-1.27658937933731,-0.136973171313013,-0.0537094906073585,-0.170109752616559,-0.0438784153701987
8.4,4.19805462711785,2.69874817072682,-2.48211266886986,-0.189267856027606,0.040622271340297,-0.00880889371959447,-1.77059925940509,1.15280620865696,-2.47027388012762,-0.222171428074965,-0.133677423471954,-0.035105642865654,4.90944264674541,0.00318277792097749,1.04641515262609e-05,0.00210906485543144,-1.77059925940509,1.15280620865696,-2.47027388012762,-0.222171428074965,-0.133677423471954,-0.035105642865654,-0.407892324266758,-1.84380236328007,-0.174413608726374,0.255262603078459,-0.00103077764258734,0.0896533078748705
8.5,4.00918792776595,2.71470484811851,-2.56498782711642,-0.214938075299433,0.0197742083553341,-0.0168505409578637,-1.67633702580996,0.808924344181201,-2.40613062837004,-0.0530801018368024,-0.0442601955619676,0.0389045064933602,4.80959700026944,0.00134563453354323,-0.000664587039252511,-0.00104257339265118,-1.67633702580996,0.808924344181201,-2.40613062837004,-0.0530801018368024,-0.0442601955619676,0.0389045064933602,-0.220366351272261,-2.0482260110811,-0.413984775514626,0.107629663378693,-0.0525509841886147,-0.0433167689600779
8.6,3.94963590047548,2.66342062256061,-2.68531769078507,-0.136520980798932,0.0704923490145642,0.0329233181468449,-1.62130852987824,0.575855239372423,-2.50339216795442,-0.108487930546811,-0.0657964172525918,-0.0176255015251931,4.91240917382859,0.00047030830605724,-0.00137330017081836,-0.00071187878309091,-1.62130852987824,0.575855239372423,-2.50339216795442,-0.108487930546811,-0.0657964172525918,-0.0176255015251931,-0.641175972612568,-1.35897350393057,-0.100770372876113,0.0366505785503217,-0.10781886549349,-0.0293697341165892
8.7,3.86885329557856,2.62719780175436,-2.8703403706654,-0.158529853208393,0.0630933358674097,0.0153578165701741,-1.78552516452764,0.653577878613553,-2.48010066546756,-0.136155405019036,-0.0908242142127954,-0.00641961722656828,5.01575031738585,0.00115037382999165,-0.000982283210271194,-0.000406670373213884,-1.78552516452764,0.653577878613553,-2.48010066546756,-0.136155405019036,-0.0908242142127954,-0.00641961722656828,-0.600175773293403,-1.59304445278335,0.0760003741671458,0.0917416598405382,-0.0775121668255888,-0.0164944942494275
8.8,3.6456880438204,2.65634463131296,-3.0418633532418,-0.217069545491996,0.00775817133246313,-0.0206879598110564,-1.90426972045467,0.358135069174732,-2.41550975189365,-0.137793337841544,-0.112380023444298,-0.0339882564127507,5.01268841732542,0.0046510652149302,0.00102169931151158,0.00258848749368702,-1.90426972045467,0.358135069174732,-2.41550975189365,-0.137793337841544,-0.112380023444298,-0.0339882564127507,-0.120601634199305,-2.15712082540267,-0.0201856163052589,0.374195109737234,0.0766522996817499,0.109869982819814
8.9,3.49104580217208,2.58695467691057,-3.14676749628567,-0.214891978906032,0.00155235399030665,-0.024459946671379,-1.76688471024981,-0.00390967744495585,-2.37352960574945,0.0302328704114055,-0.0208928905002654,0.0435929442364276,4.98184445722454,0.00205426805513379,0.000109124341038621,-0.000910148573309263,-1.76688471024981,-0.00390967744495585,-2.37352960574945,0.0302328704114055,-0.0208928905002654,0.0435929442364276,-0.0670711690758179,-2.12367074445893,-0.0754932938888278,0.16515469249996,0.00707820806493067,-0.037784750863152
9,3.43916763859046,2.4676261704636,-3.27163203403754,-0.135500030543931,0.051616843772875,0.0234169084741321,-1.73944404506355,-0.177741422479695,-2.41330441251837,-0.0557850269654741,-0.0495527127632262,-0.022627160308321,5.05643674065755,0.00156921859084153,-0.000473557471139541,-3.92701997338485e-05,-1.73944404506355,-0.177741422479695,-2.41330441251837,-0.0557850269654741,-0.0495527127632262,-0.022627160308321,-0.484851546141554,-1.37783579127465,0.196832543795916,0.125688588735562,-0.0386617860113136,-0.00105935699641877
9.1,3.28024905781756,2.34143835758854,-3.48312589536756,-0.220821248278738,-0.0132209132227452,-0.0525158497652756,-1.98065902492201,-0.179718025372327,-2.43117095388345,-0.109383553665365,-0.11179168025422,-0.044240224598319,5.21617142105626,0.00664171267039796,0.00212373370006462,0.00458700809519595,-1.98065902492201,-0.179718025372327,-2.43117095388345,-0.109383553665365,-0.11179168025422,-0.044240224598319,0.0144426324319673,-2.28892023787535,0.368134049539213,0.534982531140042,0.161575193534533,0.194124150035776
9.2,3.13694583305261,2.41747675187735,-3.56112159874707,-0.178678448710559,0.0222793064833433,0.00186697059472899,-1.73078176018979,-0.556074407510572,-2.1633153855752,0.179122304761233,0.0545555180275063,0.120574935445116,5.00756155090793,-0.00149438815155915,-0.00148627049308853,-0.00579291238028528,-1.73078176018979,-0.556074407510572,-2.1633153855752,0.179122304761233,0.0545555180275063,0.120574935445116,-0.216235924622259,-1.78038680143109,0.0432307192472976,-0.120771989228022,-0.115183401330423,-0.243896491370688
9.3,3.06964649799318,2.18608052011044,-3.6309606772548,-0.0951265684386829,0.0547635478588714,0.0384302909881234,-1.87988290925042,-0.635815894726674,-2.44005189311512,-0.190875946926855,-0.124345690511435,-0.145088374710604,5.25771312126685,0.00484548738387008,0.00115999162439371,0.00505358286103208,-1.87988290925042,-0.635815894726674,-2.44005189311512,-0.190875946926855,-0.124345690511435,-0.145088374710604,-0.534174671343113,-1.02006507542025,0.642191814378917,0.389605661788421,0.0858639684244825,0.213759296127895
9.4,2.93454652461643,2.17231132754752,-3.84304862660988,-0.211867101287457,0.00912775880645393,-0.0382954509481049,-1.95260507932586,-0.464500077403381,-2.14123495693846,0.117023806020247,0.0236023428922238,0.128730908821977,5.1887187374765,0.000467959221927052,-0.000782430098510512,-0.00428489741547351,-1.95260507932586,-0.464500077403381,-2.14123495693846,0.117023806020247,0.0236023428922238,0.128730908821977,-0.17608446251886,-2.17708046347645,0.334975281594708,0.0376579747452679,-0.0604825967501148,-0.180311487546353
9.5,2.73304933700618,2.17336704639795,-3.89634762828577,-0.119428785691724,0.0422483100711662,0.0449039936369095,-1.93376958618109,-1.0524357465219,-2.24038118446669,-0.0858842750613886,-0.093959946446599,-0.107772343019441,5.25873359019774,0.00416013923569829,0.00106474728389415,0.00297905057711735,-1.93376958618109,-1.0524357465219,-2.24038118446669,-0.0858842750613886,-0.093959946446599,-0.107772343019441,-0.384353774394606,-1.27163953375391,0.623231568550501,0.334578813706928,0.0787951583736324,0.126177781523814
9.6,2.64814814216555,1.90394255115545,-4.03049746912666,-0.178558955111853,0.00947872497341513,-0.0315352960132609,-1.98208619532451,-0.88273585630145,-2.11273688845952,0.101595318095445,0.00747592976358798,0.0741745124578778,5.26949595510385,0.00137488534141963,-3.54639188675818e-05,-0.00201935846304784,-1.98208619532451,-0.88273585630145,-2.11273688845952,0.101595318095445,0.00747592976358798,0.0741745124578778,-0.157277053475578,-1.86781719541324,0.560962989828486,0.11068636705266,-0.00349590526266062,-0.084771365630852
9.7,2.49900843323713,1.92927393137656,-4.11585542952461,-0.0940113815149413,0.0598296694243583,0.0512693098417137,-1.93182856838829,-1.21537521309296,-2.08381230949126,-0.000863383294625319,-0.0359404333579682,-0.0325020948185044,5.28694505014337,0.00129357415234118,-0.000480145142091631,-0.000887631286699016,-1.93182856838829,-1.21537521309296,-2.08381230949126,-0.000863383294625319,-0.0359404333579682,-0.0325020948185044,-0.577768216213988,-1.0235561187777,0.698361842503681,0.103702216600715,-0.0392904297399458,-0.0370312847208516
9.8,2.37194464197875,1.69665035893489,-4.24481075376657,-0.154789329787663,0.0190752906273002,-0.012563804036768,-2.12751311474145,-1.12094494745918,-2.06084214658354,-0.0140408717745746,-0.070822471084031,-0.026227978311496,5.38278145659535,0.00393586678376679,0.00115242261302757,0.00183712390250281,-2.12751311474145,-1.12094494745918,-2.06084214658354,-0.0140408717745746,-0.070822471084031,-0.026227978311496,-0.223724889449584,-1.6570678607762,0.824915049801302,0.316999807094452,0.087000187374647,0.0779145900322668
9.9,2.16840132604746,1.69220248830191,-4.34789197799128,-0.145797657234414,0.0148805853166327,0.000930780840438912,-2.03655795001009,-1.42571729391571,-1.91534978828744,0.119887431274964,0.00787949632558869,0.0468053821118022,5.34614435726073,0.00120522489055049,-1.65461682405829e-05,-0.00225684737233309,-2.03655795001009,-1.42571729391571,-1.91534978828744,0.119887431274964,0.00787949632558869,0.0468053821118022,-0.155967690631973,-1.55353940742275,0.76767589519298,0.096958873431114,-0.00235412930873623,-0.0948698498664919
10,2.05897379582848,1.46002590111966,-4.4189641219939,-0.0990040394702166,0.0354144969096462,0.02119631906505,-2.05473346693701,-1.5664751948925,-1.92563945516522,0.00370695178067963,-0.0483213590280519,-0.0551920652195932,5.41306292642242,0.00305285333808355,0.00070196296725129,0.0016123249843605,-2.05473346693701,-1.5664751948925,-1.92563945516522,0.00370695178067963,-0.0483213590280519,-0.0551920652195932,-0.358678830077581,-1.07792431130281,0.95635637797634,0.24572981606668,0.0519887841380054,0.0683742700281639
10.1,1.9323741614652,1.32495477330737,-4.53008756539581,-0.13192382136163,0.0205368166931146,-0.0103852298447451,-2.11984041305878,-1.52772734055604,-1.7954804155764,0.101215546277805,-0.00669560052355958,0.0406257022601557,5.41715680713232,0.00168549917776102,0.000145457259453943,-0.00142949562195961,-2.11984041305878,-1.52772734055604,-1.7954804155764,0.101215546277805,-0.00669560052355958,0.0406257022601557,-0.235341884286026,-1.42279444055758,0.927905832594137,0.135745223324645,0.0103356462738874,-0.0600024935032961
10.2,1.72834043085544,1.21521845642235,-4.62199235503103,-0.118297795647311,0.00803709169539114,-0.000967856557901235,-2.16301836657419,-1.80188616734148,-1.79246261965843,0.0271085936069969,-0.0549342470509343,-0.0526408234101158,5.51309368575436,0.0043044272263494,0.00157126590534058,0.00254829632386258,-2.16301836657419,-1.80188616734148,-1.79246261965843,0.0271085936069969,-0.0549342470509343,-0.0526408234101158,-0.0892576372762981,-1.30124769512335,1.13877141334782,0.346772849034885,0.119237063154496,0.107819703505979
10.3,1.58139796517692,0.998186657201571,-4.71885180015455,-0.138846236810288,-0.0106087375331434,-0.0355523577694695,-2.12525380446567,-1.88926349792261,-1.61684708759847,0.154939329439793,0.0125343651574278,0.0424396764406032,5.49580255578803,0.00275257457860182,0.00100935397722225,-0.000309770729223547,-2.12525380446567,-1.88926349792261,-1.61684708759847,0.154939329439793,0.0125343651574278,0.0424396764406032,0.0613373007732619,-1.52438767772705,1.07521303752723,0.221868565083577,0.0770722104648931,-0.0128089475119536
10.4,1.50277109708301,0.892221266686899,-4.71303072264072,-0.0383695599831346,0.0604834497900694,0.0466877747731226,-2.01567397484317,-2.01512420378229,-1.55256002216741,0.137631440596089,0.0295151583527508,0.0152504115418976,5.43855369267689,-0.000770822377217344,-0.00140928550033797,-0.00292411570148768,-2.01567397484317,-2.01512420378229,-1.55256002216741,0.137631440596089,0.0295151583527508,0.0152504115418976,-0.6368108170365,-0.447455488113008,1.03922673013983,-0.0624505329879219,-0.109719344565968,-0.123129972176947
10.5,1.36797120339825,0.663302186343812,-4.8214052470201,-0.0759393836937273,0.0294406463301812,-0.000499529808991421,-2.30439500631739,-1.86242473839444,-1.58131669755639,-0.0391621549481618,-0.102527912030138,-0.0780533486711754,5.58366732033465,0.00471765022957136,0.00167763971853411,0.00372564979644567,-2.30439500631739,-1.86242473839444,-1.58131669755639,-0.0391621549481618,-0.102527912030138,-0.0780533486711754,-0.328201839403149,-0.847061825601184,1.32032491856883,0.380084709971076,0.127559263331717,0.157449371200803
10.6,1.11062558456801,0.646382346821591,-4.91161618292741,-0.131219772979103,-0.0152285088778962,-0.028493412560434,-2.23939905597666,-2.01338358500548,-1.35780746084401,0.212796131778883,0.038138710610259,0.0836120399327485,5.54565678881684,0.0012987416637708,0.000261003819817736,-0.00259456799708739,-2.23939905597666,-2.01338358500548,-1.35780746084401,0.212796131778883,0.038138710610259,0.0836120399327485,0.126032860903477,-1.4554079644324,1.18468691015985,0.104708291025156,0.0199278410622404,-0.10927397576835
10.7,0.95620621346717,0.408264848484214,-4.94142975048145,-0.0537351223759026,0.0123821957548115,0.00666898527113685,-2.17806358485826,-2.34881014657501,-1.38185676628861,0.0527055201527637,-0.0445425189688889,-0.083996054472672,5.64020283481912,0.00409640649591549,0.00154966334835384,0.00367776473461965,-2.17806358485826,-2.34881014657501,-1.38185676628861,0.0527055201527637,-0.0445425189688889,-0.083996054472672,-0.135427462390746,-0.606778963682222,1.45326021910485,0.330011772655938,0.117758288314585,0.155377625832599
10.8,0.87384011265023,0.14079231448924,-5.01407929884035,-0.0913381889123037,-0.00477653996569655,-0.0426054632608273,-2.21510533580674,-2.17809906769533,-1.14752680185567,0.200341651460321,0.0279594542580622,0.0748814679568205,5.57117916996969,0.00173473110246133,0.000589279213219815,-0.00150805142931304,-2.21510533580674,-2.17809906769533,-1.14752680185567,0.200341651460321,0.0279594542580622,0.0748814679568205,0.00966458166393381,-1.01764346030081,1.28578558549077,0.139870484557764,0.0452052886272385,-0.0634587271886271
10.9,0.696432022869784,0.0775894049909356,-5.00423734499125,-0.0276390873694837,0.0225299966468429,0.0183442489471878,-2.19200110481629,-2.37248925489492,-1.18498021531147,0.106714638563574,-0.0105053423616283,-0.0435756637328342,5.63812033333172,0.002037543583,0.000588710501989112,0.00120709684208334,-2.19200110481629,-2.37248925489492,-1.18498021531147,0.106714638563574,-0.0105053423616283,-0.0435756637328342,-0.248176211426653,-0.316230878399225,1.45907317272113,0.164020313848018,0.0441645445021754,0.0510958238465789
11,0.574580407629488,-0.151859637638206,-5.07845962133359,-0.0495510454372272,0.0142013469782606,-0.0210251049568715,-2.25719530914827,-2.23576831210577,-0.99722804461604,0.13575084620887,-0.00314163094780775,0.0243346491731368,5.60610661637445,0.00205020211006057,0.000496505201650868,-0.000144845991592199,-2.25719530914827,-2.23576831210577,-0.99722804461604,0.13575084620887,-0.00314163094780775,0.0243346491731368,-0.170668021984914,-0.551883491606691,1.38732211801523,0.165201026771166,0.0376968221207863,-0.00596325460101434
11.1,0.418382174646762,-0.200782111225637,-5.04519664263863,-0.00548348821828706,0.0417657731037088,0.0314924004346662,-2.21647347111671,-2.29636766512284,-0.954971879190199,0.164028220476079,0.0165573850569524,0.0150857491391857,5.60118660074468,-0.000422744062418437,-0.000936669716570435,-0.0021961609779036,-2.21647347111671,-2.29636766512284,-0.954971879190199,0.164028220476079,0.0165573850569524,0.0150857491391857,-0.465566620505164,-0.0761249067880868,1.38243575214461,-0.0343134607273783,-0.0727781842629818,-0.092531595852446
11.2,0.287509776811195,-0.3839930965908,-5.08455380540451,0.0151650277784285,0.0497915203201528,0.0297886595772583,-2.32079044032434,-2.20555312871618,-0.874666134823567,0.0625301241265719,-0.0420571498263358,-0.0328187999796857,5.62897210700678,0.00103980512620762,-0.00034043763977233,0.000146418675060686,-2.32079044032434,-2.20555312871618,-0.874666134823567,0.0625301241265719,-0.0420571498263358,-0.0328187999796857,-0.565090364840356,0.153958001181065,1.43269886367496,0.0835704581377517,-0.0269736650846766,0.00629954188800456
