time,x,y,z,roll,pitch,yaw,xdot,ydot,zdot,p,q,r,thrust,roll angle,pitch angle,yaw angle,_xdot,_ydot,_zdot,_p,_q,_r,_xddot,_yddot,_zddot,_phiddot,_thetaddtot,_yawddot
0,4.01841953230695,2.01841953230695,0.0184195323069548,0.0184195323069548,0.0184195323069548,0.0184195323069548,0.0184195323069548,0.0184195323069548,0.0184195323069548,0.0184195323069548,0.0184195323069548,0.0184195323069548,9.03311898427246,-0.00530990550968388,0.00650835638045528,-0.00176017132858923,0.0184195323069548,0.0184195323069548,0.0184195323069548,0.0184195323069548,0.0184195323069548,0.0184195323069548,-0.33876875888283,0.326568625307401,8.25010916348692,-0.428218292210189,0.500642905218802,-0.0742688355382242
0.1,2.42036642022637,1.22036642022637,0.0203664202263731,0.0196723010196632,0.019717915078694,0.0190318792386732,-0.0846888209938205,0.120333952336449,4.55044287400653,-0.225734033362296,0.285390150309199,-0.0309406343365619,5.48604579904146,-0.00057785228871582,-0.00141701607689954,0.000541243643917477,-0.0846888209938205,0.120333952336449,4.55044287400653,-0.225734033362296,0.285390150309199,-0.0309406343365619,-0.22035916966007,0.211677105885891,1.15783609815138,-0.0466039186763753,-0.108998287565637,0.0228371986600192
0.2,2.62773902070839,1.38793036808278,2.09833707801496,-0.101663116079348,0.133764455760328,-0.0144497991738621,-0.0579250235878455,0.0603443714927928,1.05351047697369,-0.0428333307654888,-0.0313340595383316,0.0105580212346433,6.73733416292705,0.000537697079900762,0.000459880155580314,0.00018310823403614,-0.0579250235878455,0.0603443714927928,1.05351047697369,-0.0428333307654888,-0.0313340595383316,0.0105580212346433,-1.80735572157232,-1.34154332174214,3.47534581045463,0.0433954928490612,0.0353979601277359,0.0077420311794407
0.3,2.63971202400693,1.37182761005198,0.76822410733543,-0.025520128656954,0.0104953215635638,0.0104307490198715,-0.403530912758711,-0.202076967734849,2.52160099731644,0.00573966032518732,0.044439904370029,0.00723109054642907,6.47222853958385,-0.00331838121216597,0.00207003352899787,-0.000853254486079343,-0.403530912758711,-0.202076967734849,2.52160099731644,0.00573966032518732,0.044439904370029,0.00723109054642907,-0.13235681951848,-0.331706954139315,3.12952940579051,-0.267606772480489,0.159237616832584,-0.0359850435004777
0.4,2.45587197094494,1.23252553977748,1.53252762316246,-0.025670017775543,0.0234745264871753,-0.0107401587516666,-0.278324728025266,-0.156978220007839,2.35557817734895,-0.179749192258003,0.0978837595325237,-0.0329940920558718,6.07527564349613,0.000354619630878014,9.50014577605852e-05,0.00204898529858508,-0.278324728025266,-0.156978220007839,2.35557817734895,-0.179749192258003,0.0978837595325237,-0.0329940920558718,-0.288441312803298,-0.308790577254654,2.33320166044756,0.028583951037943,0.00729661270902364,0.0864746851920915
0.5,2.55038659698714,1.30144139428461,1.61086018246,-0.0654498576471942,0.096091132625723,0.0160650876917575,-0.231033795982366,-0.098752772587,2.11390023001987,0.0083762393347474,0.0610766765973849,0.0705610828322649,6.17213169712227,-0.0033756998171306,-0.00278440736527086,-0.00409523868356069,-0.231033795982366,-0.098752772587,2.11390023001987,0.0083762393347474,0.0610766765973849,0.0705610828322649,-1.16869173430445,-0.826234531317273,2.45100872179418,-0.272134615798334,-0.214082958475954,-0.172750339347189
0.6,2.51512239865093,1.28019225244321,1.61327883279101,-0.0190608130069013,0.0528931785063742,0.0311128382386702,-0.424317055282722,-0.247295819374254,2.31906787407469,-0.183650428011051,-0.0871929423811316,-0.0937607793121728,5.99463891691821,-0.000802443481897761,0.0015933390993685,0.00295811550637173,-0.424317055282722,-0.247295819374254,2.31906787407469,-0.183650428011051,-0.0871929423811316,-0.0937607793121728,-0.626325016156626,-0.248115229700379,2.16033578408929,-0.0648890794873325,0.122409736238401,0.124865091469664
0.7,2.4522834516582,1.24654912126668,1.89349554587218,-0.0750625375640137,0.0227100250057896,-0.00593056029363116,-0.399302571525338,-0.193744699139055,2.26302094252148,-0.0552108281815252,0.118379116381038,0.0886923423980665,5.80841304450176,-0.0024851219125177,-0.00290558685695492,-0.00392036240926358,-0.399302571525338,-0.193744699139055,2.26302094252148,-0.0552108281815252,0.118379116381038,0.0886923423980665,-0.268214788837637,-0.869594460093222,1.77112752214466,-0.200242254521238,-0.223241335411471,-0.165357150888725
0.8,2.4070290651553,1.22389619231287,1.95912342415464,-0.0542762438668782,0.0817969465843498,0.0405457606874397,-0.466655670448644,-0.312263293508755,2.14558817639949,-0.159412986056562,-0.0951616131862801,-0.0887855368607268,5.83704969262967,-0.000751165380938816,-0.00139720138120319,0.00231308856940665,-0.466655670448644,-0.312263293508755,2.14558817639949,-0.159412986056562,-0.0951616131862801,-0.0887855368607268,-0.925982593903545,-0.671401394922868,1.80793324389478,-0.0607430992215835,-0.107691934401908,0.0976827103626929
0.9,2.36791511012664,1.17494834442597,2.05248807228307,-0.0969544226365683,0.00303454014605674,-0.0243283358225254,-0.52265428466618,-0.358764537045612,2.27133627635783,-0.0815994902711537,-0.0272205829078837,0.0570425355182012,5.60906962977319,-0.0013449104331193,-0.000421839738625637,-0.00154066164583524,-0.52265428466618,-0.358764537045612,2.27133627635783,-0.0815994902711537,-0.0272205829078837,0.0570425355182012,-0.0602885700008611,-1.0847994417315,1.35540298897097,-0.10827918191476,-0.0320881994024324,-0.0649219319342091
1,2.26320625311219,1.08668031224249,2.20750268418775,-0.113581754836522,-0.0151087586919433,-0.00444142683943463,-0.618596464511795,-0.503988564436516,2.0788909666365,-0.145611638335017,-0.0336902042462964,-0.0640786459509252,5.60519552641886,0.00145902411083072,-0.00100327883155266,0.00325109954744269,-0.618596464511795,-0.503988564436516,2.0788909666365,-0.145611638335017,-0.0336902042462964,-0.0640786459509252,0.162632586519884,-1.27129475177907,1.32688591364053,0.117643240037697,-0.0772221900199647,0.137264421527022
1.1,2.20831484487438,1.02238865154627,2.25578232969529,-0.134562013852317,-0.00699293288235343,-0.0438558090596851,-0.590262514434301,-0.589734803795311,2.16191661168383,-0.0158845156417691,-0.04287853917554,0.0556351394883969,5.46128836817051,-0.000903523758100817,-0.00200400829918194,-0.000550328008490059,-0.590262514434301,-0.589734803795311,2.16191661168383,-0.0158845156417691,-0.04287853917554,0.0556351394883969,0.0113742416706844,-1.46724188642285,1.01357401391106,-0.0726889876672785,-0.153629027481126,-0.0231280660493096
1.2,2.21928488156818,0.997164301498981,2.45353857168535,-0.0450679022998331,0.0248484776240718,0.0454308445837165,-0.520551497512589,-0.632262544762577,2.1028752590908,-0.0828997282178395,-0.062526470243775,0.00510667909466748,5.38497562417752,-0.00355941853202384,-0.00342619280512352,-0.00231407914437941,-0.520551497512589,-0.632262544762577,2.1028752590908,-0.0828997282178395,-0.062526470243775,0.00510667909466748,-0.245005691028898,-0.496854460148291,0.945694201154026,-0.287043447705654,-0.263531055636529,-0.0975580094511552
1.3,2.16823311109312,0.902326899861213,2.52688107975699,-0.11367853475827,-0.0225073538626036,-0.0108503932172093,-0.581784256448639,-0.804381288687331,2.01227865921657,-0.234644834777082,-0.159617785630059,-0.0668367400639158,5.30336432786079,0.00386424411741675,0.000104785761730546,0.00368635043815197,-0.581784256448639,-0.804381288687331,2.01227865921657,-0.234644834777082,-0.159617785630059,-0.0668367400639158,0.224100016527357,-1.20566458451689,0.725598932587536,0.311626896497043,0.00803381854891079,0.155613093352523
1.4,2.13564819077953,0.815908792169445,2.62748235095717,-0.165287656543408,-0.0501665895085414,-0.0246372851654014,-0.563814097740663,-0.810445314162985,2.00567353478969,0.0963144555129911,0.00135693426229479,0.0864953161427214,5.18459547637104,-0.00227410884100848,-0.0035954852421483,-0.00292537446475167,-0.563814097740663,-0.810445314162985,2.00567353478969,0.0963144555129911,0.00135693426229479,0.0864953161427214,0.470696944381782,-1.71822294111647,0.405002463318304,-0.183348287062217,-0.275809241682012,-0.123403603143549
1.5,2.08172472662275,0.745103921314168,2.72657900460538,-0.043290049027939,-0.00133195566002049,0.0308478800234191,-0.57535297121113,-0.93900452997838,1.91990389735025,-0.171906719034353,-0.173831418004335,-0.0736525552272626,5.19598584244824,-0.000622488999658404,-0.00235307392135191,0.00204932912836724,-0.57535297121113,-0.93900452997838,1.91990389735025,-0.171906719034353,-0.173831418004335,-0.0736525552272626,0.0276930641113904,-0.449087986120994,0.5722265711461,-0.050217563429853,-0.18125398918644,0.0864978450437245
1.6,2.04179234165333,0.650076832109409,2.81553180242092,-0.15920024446704,-0.0782434649218392,-0.0379149696081885,-0.518019457076901,-1.11114051365392,1.91589182351262,-0.10829887793017,-0.127991088046732,0.0388644500319774,5.00457166728911,0.00367834124187407,-0.00065932164901447,-7.24219252531575e-05,-0.518019457076901,-1.11114051365392,1.91589182351262,-0.10829887793017,-0.127991088046732,0.0388644500319774,0.71175613170632,-1.61487596907338,0.0423362257699829,0.296602123086514,-0.0500702529418829,-0.00308753967364266
1.7,2.0044069680651,0.484058764827529,2.89560471942782,-0.162344482429311,-0.088182789785577,-0.0151628915939006,-0.574988016156939,-1.14650646019416,1.7530086757612,0.0652654972754998,-0.0903659902960803,-0.0251218211659488,5.03725180192492,-1.60715404625967e-05,-0.00231089415880759,0.00186878871527764,-0.574988016156939,-1.14650646019416,1.7530086757612,0.0652654972754998,-0.0903659902960803,-0.0251218211659488,0.850790092702036,-1.64145386174449,0.093403874522517,-0.00131912253463375,-0.177592517705571,0.0787672078898854
1.8,1.94010904056131,0.412202804850415,2.94145937881218,-0.0882129422020643,-0.0785877046520554,-0.0374270005169322,-0.504717004104987,-1.30695572728568,1.78717999411307,-0.0841733317841993,-0.160878283577339,0.0212115042869186,4.91868516583304,0.00115972320342399,-0.00167510837923609,0.000717133037375088,-0.504717004104987,-1.30695572728568,1.78717999411307,-0.0841733317841993,-0.160878283577339,0.0212115042869186,0.736330335166465,-0.894837236623165,-0.0411239643544423,0.0934272440604641,-0.128366886694852,0.0301435220481802
1.9,1.97474039772136,0.321763355606615,3.10427314848816,-0.10944212969227,-0.0732768896187755,0.0233425703678027,-0.361576963703596,-1.4017648374435,1.6730701451976,0.00564903770669509,-0.107590762039095,0.0339074375849307,4.8070297383041,0.000504785766634161,-0.00300130195188163,-0.00274952434598217,-0.361576963703596,-1.4017648374435,1.6730701451976,0.00564903770669509,-0.107590762039095,0.0339074375849307,0.723965864480561,-1.03346782046452,-0.279105114896545,0.040642807876773,-0.230645145942494,-0.116199687229257
2,1.97607111971037,0.167564911992215,3.12861788991417,-0.0929463569301445,-0.0777633035692296,0.0123789347805207,-0.329136671849484,-1.50135626041075,1.52392198022609,-0.0349461502469982,-0.186141225224172,-0.0611986316586885,4.83594494348984,0.00169104079721811,-0.00128014574503569,0.00226987603091265,-0.329136671849484,-1.50135626041075,1.52392198022609,-0.0349461502469982,-0.186141225224172,-0.0611986316586885,0.759171771799227,-0.888343687586477,-0.208960592754128,0.136461104617577,-0.0987125937637297,0.0955472100935863
2.1,1.94769744278767,0.0225952814323385,3.14922954485857,-0.125526881492978,-0.136630486774767,-0.0460408436527166,-0.279366224769803,-1.640511663383,1.52575458191454,0.00215954526950274,-0.134603995517662,0.0374392079725931,4.73639942448995,0.00345227261271532,-0.000774872208188463,0.000386637461238538,-0.279366224769803,-1.640511663383,1.52575458191454,0.00215954526950274,-0.134603995517662,0.0374392079725931,1.22415778239987,-1.24362981961155,-0.499321151022466,0.278123057261961,-0.0589959863576732,0.0160048756837574
2.2,1.94504312762173,-0.133891086056734,3.23909314851177,-0.110077288342094,-0.120635497386506,-0.00427853862010414,-0.239921549972366,-1.69544806616858,1.43245746071579,0.0930984445028435,-0.119947550162664,-0.000872181447055434,4.68490590647516,0.00128112610505711,-0.00229063764055825,0.000231540098121275,-0.239921549972366,-1.69544806616858,1.43245746071579,0.0930984445028435,-0.119947550162664,-0.000872181447055434,1.11635343121126,-1.03410762909522,-0.564582224789778,0.103268748830131,-0.176116347004339,0.00940641738162081
2.3,1.96396364373069,-0.220647215786488,3.31715903362297,-0.037628490176298,-0.0926081009800147,0.0144083584992957,-0.0716239654434805,-1.7710347058095,1.35650119943388,0.0357277450421555,-0.160621914960854,0.0221731205949692,4.58785488403239,0.000262089394900992,-0.00211913424256566,-0.00174275072582547,-0.0716239654434805,-1.7710347058095,1.35650119943388,0.0357277450421555,-0.160621914960854,0.0221731205949692,0.85281571036467,-0.332933941669149,-0.680076117381956,0.0210743148631932,-0.162917339998725,-0.07392182010325
2.4,1.9967822367425,-0.386102899443687,3.34938389419561,-0.0754984527806818,-0.135757980072505,0.0074357836792421,0.0230787063640588,-1.94788575458594,1.21452580973723,-0.0179695202230477,-0.17692680137038,-0.0377606791157471,4.5843029227177,0.00502292159101856,0.000284168574431965,0.00144934309249497,0.0230787063640588,-1.94788575458594,1.21452580973723,-0.0179695202230477,-0.17692680137038,-0.0377606791157471,1.24246469601026,-0.682338386097453,-0.751632103133689,0.405227334495652,0.0216654692460458,0.0607148428057437
2.5,2.04539125745653,-0.578744603579047,3.36885298013905,-0.0869179767994094,-0.143635801213239,-0.0125642583400452,0.0956025294948446,-1.93677230755294,1.18463308393809,0.199444413998419,-0.0735855227431594,0.0415427302220737,4.51761294346441,0.000980170962081507,-0.00215926486636976,-0.00135949677719178,0.0956025294948446,-1.93677230755294,1.18463308393809,0.199444413998419,-0.0735855227431594,0.0415427302220737,1.27848572420614,-0.800461091046482,-0.901574599147695,0.0787817101928597,-0.165803009102854,-0.0578738597411873
2.6,2.06163112487715,-0.695897680822412,3.42554202462083,0.00946266259334136,-0.106896832121031,0.0242649840347596,0.203290012608739,-1.99238841876366,1.05924254112082,0.0426458411743649,-0.176585388743391,-0.022213303277997,4.47085276133982,0.00154296370447879,-0.00097332059180689,-6.7976229544965e-05,0.203290012608739,-1.99238841876366,1.05924254112082,0.0426458411743649,-0.176585388743391,-0.022213303277997,0.951644217917838,0.107732159676095,-0.919732022115717,0.124664712562681,-0.0750832047113868,-0.0033351901977973
2.7,2.11513061340509,-0.834621915607793,3.44764782188259,-0.0437923284480376,-0.153448830160802,0.00334780178497814,0.37083278473057,-2.13357555138076,1.0147349691793,0.0747550260009244,-0.130875257944906,0.0104259692693058,4.40373963589844,0.00485560483961744,0.000560728009397602,-0.000658749795239993,0.37083278473057,-2.13357555138076,1.0147349691793,0.0747550260009244,-0.130875257944906,0.0104259692693058,1.34619243536633,-0.381072114824913,-1.11435505017614,0.39153493501914,0.0431692131724734,-0.0283029150306288
2.8,2.19630441181448,-1.05882090005088,3.4763499542822,-0.0335428867915285,-0.148285872170057,0.00679868154888188,0.411643635843617,-2.09183979708784,0.859599634795632,0.223550053330466,-0.0754686621802019,-0.00903728563858238,4.42739107498689,0.00164860932097129,-0.00106508311723408,7.97353801999404e-05,0.411643635843617,-2.09183979708784,0.859599634795632,0.223550053330466,-0.0754686621802019,-0.00903728563858238,1.3094851827167,-0.288063215096096,-1.05731840726236,0.133058374445798,-0.0820020086712142,0.00284811537515809
2.9,2.18548358833913,-1.20415475376212,3.43409353668288,0.00648160483310481,-0.164502924821587,-0.0333295395925766,0.508463964543896,-2.19509906360096,0.798201877933805,0.0724072156047856,-0.17152962323179,-0.0206923257155878,4.42589989719114,0.00541396178685122,0.00193080278820106,0.00251135072757331,0.508463964543896,-2.19509906360096,0.798201877933805,0.0724072156047856,-0.17152962323179,-0.0206923257155878,1.4506646953981,0.00903745056922633,-1.0778839983748,0.436579448562017,0.148539424065983,0.105527761407943
3,2.2873899917809,-1.35132401144449,3.48937088275877,-0.0163377875577966,-0.181241833753648,-0.00944778421002121,0.687933094348432,-2.19230232280968,0.799170866060693,0.271944548231024,-0.0203201864817432,0.062892100274538,4.3024539845462,0.00258533055623266,-8.99493190335538e-06,-0.0026513661568548,0.687933094348432,-2.19230232280968,0.799170866060693,0.271944548231024,-0.0203201864817432,0.062892100274538,1.54944067985671,-0.155224395268981,-1.34716477040534,0.208107674844065,-0.000518555050997455,-0.112313506505789
3.1,2.40238630783073,-1.49073661099442,3.54875805262326,0.092262863264054,-0.106543636711871,0.0446836241218554,0.822816257494583,-2.15243435514405,0.599664995205332,0.183537138849376,-0.0782829763650671,-0.0397253355746479,4.26251540506193,0.00071098102232382,-0.000953869062414992,-0.000300444484132358,0.822816257494583,-2.15243435514405,0.599664995205332,0.183537138849376,-0.0782829763650671,-0.0397253355746479,0.866729375938361,0.824967488293332,-1.36936263391764,0.0580318480063269,-0.07358763733597,-0.0129853419545749
3.2,2.48576734516252,-1.62242301001957,3.4987861584124,0.0619459225106989,-0.143876583156136,-0.00313123355092063,1.03338822382227,-2.24620683524854,0.591574365930178,0.101953327697516,-0.130400150011481,0.00300332573073204,4.24693728040417,0.00597170792581328,0.0035024119536985,-0.000119907083565001,1.03338822382227,-2.24620683524854,0.591574365930178,0.101953327697516,-0.130400150011481,0.00300332573073204,1.21716239859631,0.522015799522604,-1.42001071185194,0.481598812349428,0.269414352386074,-0.00528323530381128
3.3,2.58705457250346,-1.90608862682681,3.47774603810591,-0.0240134973476541,-0.229488589107104,-0.0526449182258046,1.00530413780554,-2.23849104649231,0.409906591603153,0.28879215576044,0.00559768080395401,-0.0426219180157898,4.49914073127823,0.00711176642290377,0.00345353001120367,0.00438137861039177,1.00530413780554,-2.23849104649231,0.409906591603153,0.28879215576044,0.00559768080395401,-0.0426219180157898,2.03213065071089,-0.323439484852225,-1.05015404259487,0.573596845741966,0.26564622440183,0.184687391193607
3.4,2.67165203899003,-1.99795839134532,3.46532130781821,0.109334629149045,-0.136654653771175,-0.0349174475786022,1.19277483597682,-2.08463368860682,0.558734672464773,0.397575253499596,0.0455547916799758,0.0948683180929035,4.11833260593813,-0.00124147785640018,-0.000452559357807066,-0.00300154978913317,1.19277483597682,-2.08463368860682,0.558734672464773,0.397575253499596,0.0455547916799758,0.0948683180929035,1.14607474689114,0.85927349650574,-1.69884622601236,-0.100862298650687,-0.034800452043746,-0.126667049089314
3.5,2.78410555293081,-2.05156020889832,3.55585227851022,0.173445429583758,-0.120231842992904,0.0288517142105927,1.38628170505916,-2.17593152602013,0.21153091468616,0.0569886024822854,-0.0934748159470267,-0.0680437648908611,4.227199408207,0.00554588219027225,0.00408341441705033,0.00178993268784907,1.38628170505916,-2.17593152602013,0.21153091468616,0.0569886024822854,-0.0934748159470267,-0.0680437648908611,0.956320526782151,1.48724226107715,-1.54256866651415,0.448286965722067,0.314284713639848,0.0757227616765093
3.6,2.98263809346297,-2.26390648175999,3.44966274910852,0.0568195264044047,-0.171224157394247,-0.0253046011468836,1.56691925243347,-2.06118485679112,0.364401023023104,0.35856289419273,0.0976132692532818,0.0469435887088191,4.2395269478704,0.00440730565748664,0.00364304223811697,-0.000676982104949308,1.56691925243347,-2.06118485679112,0.364401023023104,0.35856289419273,0.0976132692532818,0.0469435887088191,1.45412525146796,0.44486692522683,-1.4684193261253,0.355189620861387,0.280189256180249,-0.0283254084040851
3.7,3.14180375584263,-2.40230971187669,3.52996369465706,0.178523844434722,-0.0987100682749453,-0.00059912534330353,1.6014348196858,-1.91821721904579,0.0807062877400084,0.321520196233728,0.0836922492455581,-0.0197967317158589,4.18247060001314,0.000282099760134865,0.00133617465100473,0.00106570524539366,1.6014348196858,-1.91821721904579,0.0807062877400084,0.321520196233728,0.0836922492455581,-0.0197967317158589,0.812151782133865,1.48493545621842,-1.61807608351132,0.0233943247999828,0.103017289297583,0.0453907983948888
3.8,3.24468089707171,-2.43038197921204,3.41485767048131,0.195509453290224,-0.0928479846381823,-0.0140758370562011,1.80312000562955,-1.86716314927276,0.134919072813629,0.164124177920808,0.00387799831057337,0.0273248876062686,4.13096147464764,0.00420598943049221,0.00494007421735435,-0.000321595303584671,1.80312000562955,-1.86716314927276,0.134919072813629,0.164124177920808,0.00387799831057337,0.0273248876062686,0.773924704477658,1.59427792192062,-1.74038481217551,0.33945844722151,0.380147977013213,-0.0129931184771522
3.9,3.49587691512806,-2.54691626947,3.49823687802718,0.17127122392666,-0.0928944862430036,0.0386019113695328,1.93239700794927,-1.67248131507834,0.0270016076742321,0.364591241610921,0.192319605452765,0.0229491432719392,4.08319810349164,0.000193077868633347,0.00213589132189997,-0.00239263185008488,1.93239700794927,-1.67248131507834,0.0270016076742321,0.364591241610921,0.192319605452765,0.0229491432719392,0.692168767434445,1.41961060085005,-1.79778213296885,0.016323129579278,0.164763055944301,-0.100293873342109
4,3.65306022897274,-2.61359066335642,3.45023386388264,0.259430134819486,-0.0214483465023789,0.0179896451246006,1.9848265648322,-1.53592801445506,-0.16887116809353,0.191761946551025,0.0791884186219684,-0.0382730931753447,4.0915445994013,0.000993264075259084,0.00257961151531616,0.0012670304917056,1.9848265648322,-1.53592801445506,-0.16887116809353,0.191761946551025,0.0791884186219684,-0.0382730931753447,0.131838005921629,2.10191792154354,-1.90256624265189,0.0811552297119598,0.199354011460908,0.0542336373825982
4.1,3.79252158976044,-2.67655000048079,3.35059573552017,0.192831116939996,-0.0722510423058246,-0.0134907455515581,2.04863758321169,-1.35409837134054,-0.0861070198937588,0.218819295722284,0.0937430491641195,0.0328737647631384,4.05429188539798,0.00329267581642819,0.00576385566456791,-0.000292001718697604,2.04863758321169,-1.35409837134054,-0.0861070198937588,0.218819295722284,0.0937430491641195,0.0328737647631384,0.595405619690108,1.54602369943714,-1.87246677885152,0.265954569278427,0.443798865944,-0.0114938562182875
4.2,3.95051225675344,-2.75020488634014,3.39172707705253,0.1910502619021,-0.0822260166007074,-0.00972311002478445,2.0243398333974,-1.21495335352871,-0.415294720391464,0.306256915851978,0.223010437847619,-0.0194465190080445,4.18668198740465,0.00114266438845146,0.00319548152632017,0.002000023724342,2.0243398333974,-1.21495335352871,-0.415294720391464,0.306256915851978,0.223010437847619,-0.0194465190080445,0.690647489774287,1.58337906924437,-1.61676248223075,0.0930271879390848,0.246865452799864,0.0852670797856119
4.3,4.07311568727222,-2.75263471354352,3.22666485192558,0.2628988131145,-0.00173974956505646,-0.0169210171925488,2.12678137061595,-1.00574376461478,-0.382610407844718,0.23979641177731,0.145218965659489,0.0462098436508111,4.06364512239128,-0.000629715727741822,0.00284441823175222,-0.00102726736936746,2.12678137061595,-1.00574376461478,-0.382610407844718,0.23979641177731,0.145218965659489,0.0462098436508111,0.0493893001435851,2.11159372351558,-1.96196971420353,-0.0502696146284548,0.219623192908989,-0.0424672957498559
4.4,4.25084181035655,-2.74363048325434,3.2221456002212,0.254066451964288,-0.0219072425530801,0.0183629331300345,2.18193409855707,-0.801289950432222,-0.452927343464739,0.166233832169988,0.153355896410121,-0.0160622021680002,4.01338269023819,0.00102643566806294,0.00478080185240736,0.000220753216848422,2.18193409855707,-0.801289950432222,-0.452927343464739,0.166233832169988,0.153355896410121,-0.0160622021680002,0.133112647459429,2.02024757478402,-2.04277119991436,0.0837717131287503,0.369698216275961,0.0101864517905199
4.5,4.42666122007965,-2.75801743750971,3.19389191362451,0.222677262089875,-0.0216423489688527,-0.0201835005716834,2.16732826948126,-0.618394842280473,-0.666596716567855,0.227856720353951,0.230319066629886,-0.00034065965961801,4.09510097544064,0.000494571822066443,0.00350295673585901,0.00128202883710114,2.16732826948126,-0.618394842280473,-0.666596716567855,0.227856720353951,0.230319066629886,-0.00034065965961801,0.209334185865105,1.8048798744627,-1.82388731399268,0.0406015758110494,0.271143297808183,0.0549152578179434
4.6,4.56649889155881,-2.73282828709545,3.07163222965567,0.263953546051572,0.0284362336979884,-0.011535026466237,2.19447247496567,-0.40274932268551,-0.751838718794198,0.212295131265733,0.198593200793154,0.0280074016264612,4.05821168162858,-0.00157378280445575,0.00285433683358794,-0.000633899869959278,2.19447247496567,-0.40274932268551,-0.751838718794198,0.212295131265733,0.198593200793154,0.0280074016264612,-0.198336465074637,2.11999716705022,-1.97784813285981,-0.126344032258905,0.221380182895853,-0.0260313306177772
4.7,4.73428513408587,-2.66355515590811,2.99643017258633,0.285292393887925,0.0399058297176048,0.0154877410413161,2.21290408663294,-0.155365812832637,-0.802063336241179,0.132545809989508,0.199610633284333,-0.00176867047174248,3.98761567094607,-0.00153613186500602,0.00321840055551637,-0.000648695461326443,2.21290408663294,-0.155365812832637,-0.802063336241179,0.132545809989508,0.199610633284333,-0.00176867047174248,-0.340037733825291,2.23953585291635,-2.16322496343877,-0.123246560390872,0.250291472160453,-0.0267650989165718
4.8,4.92752719217338,-2.57298486317047,2.98131488862003,0.283546732167695,0.0748037416264402,0.0254760186795164,2.21640296290249,0.102500003447082,-0.952917180009155,0.146614190667977,0.242639166315023,0.0146950921987142,3.95195632011459,-0.0030301366097401,0.00144506482613769,-0.00198243259417416,2.21640296290249,0.102500003447082,-0.952917180009155,0.146614190667977,0.242639166315023,0.0146950921987142,-0.623247183456319,2.1960549069946,-2.24291728483471,-0.243908225988535,0.113942976488401,-0.0831837453117537
4.9,4.99609291049428,-2.5628269789068,2.80706513207857,0.221482493701524,0.0309402794606955,-0.0440290686737136,2.02704268826949,0.237056829438538,-1.15158643676208,0.0129934269958353,0.116140760422694,-0.0808884294145566,4.08485218370825,0.00308489353726721,0.00564879828955204,0.00589462763386983,2.02704268826949,0.237056829438538,-1.15158643676208,0.0129934269958353,0.116140760422694,-0.0808884294145566,-0.167327161291235,1.80380214254881,-1.84367280971873,0.249076651028687,0.437873224331852,0.248988891875392
5,5.10505348866728,-2.47093359164566,2.69730124677215,0.196267722936762,0.0139154573459799,-0.0522866761348936,2.05117077340731,0.466702563112808,-1.2417665986531,0.292997716827611,0.319435261481235,0.119311650477906,4.10310250702778,-0.0042426650358486,0.00190570856054674,-0.00331445003659911,2.05117077340731,0.466702563112808,-1.2417665986531,0.292997716827611,0.319435261481235,0.119311650477906,-0.028208192668993,1.60395892991244,-1.76212321281377,-0.342100534238473,0.147506309659502,-0.139681206749509
5.1,5.2811437060641,-2.30943201569501,2.5884257373219,0.365436018245255,0.149556375507765,0.0613256769686928,2.11668362403445,0.695013850738638,-1.33393976354142,0.00666934469913255,0.231260310313498,-0.0477690452227432,4.04918167708069,-0.00548659700860749,-0.00102171667327993,-0.00074474751708028,2.11668362403445,0.695013850738638,-1.33393976354142,0.00666934469913255,0.231260310313498,-0.0477690452227432,-1.30222125657233,2.81949385003598,-2.33081800966412,-0.442632354185164,-0.0736865491167472,-0.0315461538513782
5.2,5.42704397890618,-2.19132605781641,2.44762030590385,0.244161344713434,0.124115755365822,-0.0161779712228677,1.91704599226395,1.07347945491055,-1.25668865349569,-0.0624504589714533,0.0939756076387654,-0.00292721940860913,3.86983553123616,-0.00070122160431934,0.00403558161129074,0.000778562692846529,1.91704599226395,1.07347945491055,-1.25668865349569,-0.0624504589714533,0.0939756076387654,-0.00292721940860913,-0.899342857812262,1.88580411411837,-2.35765584379334,-0.0568652534701476,0.313774081653802,0.0325068129923212
5.3,5.49837446004616,-2.01315492047145,2.51868368685404,0.193371445701197,0.0599136223543111,-0.00283851292416748,1.8412453463293,1.14133474196563,-1.72852469129354,0.109135632637435,0.292704343064489,0.0175746523485596,4.0760845131829,-0.00358944152644676,0.00118118205260335,-0.000846478733675623,1.8412453463293,1.14133474196563,-1.72852469129354,0.109135632637435,0.292704343064489,0.0175746523485596,-0.474587230962179,1.56794425842639,-1.82412637233012,-0.289857244757267,0.0940549977540401,-0.0361431863406013
5.4,5.60897965490561,-1.8976284804405,2.17524721529433,0.281850665659559,0.16902701895106,0.00987647044665696,1.81761616861281,1.34093708826991,-1.71146631093937,-0.0103061589967204,0.198608736217694,-0.00821024407967422,4.12871004904139,-0.00535548702174761,-0.00078105202520604,-0.000135400741047528,1.81761616861281,1.34093708826991,-1.71146631093937,-0.0103061589967204,0.198608736217694,-0.00821024407967422,-1.35689784730771,2.2833775753408,-1.99143224390656,-0.432642848880799,-0.0562072727975083,-0.00643623554017482
5.5,5.68004154187339,-1.76337796920986,2.0089346712031,0.208389087429383,0.117236715466841,-0.0259188585145158,1.56823953365858,1.62486703716625,-1.68202178692974,-0.123491573941653,0.0979718016957826,-0.0151510571350437,4.0172641143489,-0.000998630214618447,0.00333634748043453,0.00188501658918676,1.56823953365858,1.62486703716625,-1.68202178692974,-0.123491573941653,0.0979718016957826,-0.0151510571350437,-0.876066864013965,1.68548642707669,-2.00325380125249,-0.0814159269671347,0.260232736541849,0.0786233226054526
5.6,5.71570212769126,-1.56010652484392,2.00620959952509,0.153751529315419,0.0826811725880395,-0.0222259536927587,1.52329949025555,1.72371997812061,-1.98994325919267,0.0456840830603173,0.269303153787915,0.0309118834256914,4.13485271691519,-0.00383381869474782,0.000230459744546824,-0.000468262493790932,1.52329949025555,1.72371997812061,-1.98994325919267,0.0456840830603173,0.269303153787915,0.0309118834256914,-0.646600493349846,1.28116280277556,-1.66576537438245,-0.310015308136967,0.0207154140730941,-0.0207333096335365
5.7,5.82447753429369,-1.38263678518459,1.73454337897637,0.24966952069274,0.191396002231038,0.0155436216318749,1.50686614904074,1.88755012465256,-1.97239898636641,-0.0644908847274218,0.172651303561463,0.000989018171047677,4.19278860755586,-0.00634659085232364,-0.0016135334737711,-0.000769423520534793,1.50686614904074,1.88755012465256,-1.97239898636641,-0.0644908847274218,0.172651303561463,0.000989018171047677,-1.57774225364945,2.04766429843019,-1.83280089676931,-0.513224181701547,-0.120087825125426,-0.0337077052522538
5.8,5.93888902527377,-1.1668633435266,1.60942869491759,0.225843936557674,0.186588105076041,0.0239107385297469,1.29175101932552,2.22721721313261,-1.93441951851771,-0.170956705550249,0.113964284699837,0.0121962330462636,4.10538689636551,-0.00522679565125466,-0.000383966526996119,-0.00169159531147674,1.29175101932552,2.22721721313261,-1.93441951851771,-0.170956705550249,0.113964284699837,0.0121962330462636,-1.52801311790386,1.80261276177009,-1.94663116609579,-0.423115374873999,-0.025543593206052,-0.0727572347748751
5.9,5.94805395141685,-0.920824861952154,1.58898762288654,0.157556782761892,0.155557993603855,0.0168954098410747,1.12162329628388,2.35641728197842,-2.16157410844178,-0.159920318637287,0.148324978788198,-0.0228296759934219,4.13364673217892,-0.00398176079326459,-0.000616945326562894,0.000292714142917091,1.12162329628388,2.35641728197842,-2.16157410844178,-0.159920318637287,0.148324978788198,-0.0228296759934219,-1.2867327725552,1.27562887616017,-1.74369781323855,-0.323000358433169,-0.0432788833396683,0.0109319718958344
6,5.93912288361095,-0.743830617927694,1.33473936760341,0.127203106488433,0.155959012334341,-0.0209426616789918,0.965100172145065,2.40811149851264,-2.26030785966182,-0.143413139452128,0.118080511119631,-0.000282903480234699,4.23237533642307,-0.00372017734844162,-0.000535949971881091,0.00100618082788066,0.965100172145065,2.40811149851264,-2.26030785966182,-0.143413139452128,0.118080511119631,-0.000282903480234699,-1.28141260084862,1.10091684904225,-1.51554596182905,-0.301736304836275,-0.0379031528233139,0.0409750893007235
6.1,5.97994688343182,-0.530532147006777,1.14451927318738,0.151962134303089,0.176364514228264,0.0154314751845787,0.866866630196284,2.55854200525407,-2.22030340962325,-0.127926096219581,0.140201817968655,0.0388146643669129,4.24780331314898,-0.00648841124737929,-0.00245997990787073,-0.00257301991162977,0.866866630196284,2.55854200525407,-2.22030340962325,-0.127926096219581,0.140201817968655,0.0388146643669129,-1.49306021145027,1.26315866250617,-1.54256186312123,-0.525092841228808,-0.186055764766427,-0.110078383004275
6.2,5.9793978445954,-0.327847159054752,0.99509597805014,0.130639841362147,0.170705539727315,0.00905217489849343,0.645964699694479,2.67969769748717,-2.32166953957907,-0.28496945271787,0.0393978401193671,-0.0601425612332918,4.30303018891173,-0.00298531562995521,-0.000503437266987616,0.00237737084910577,0.645964699694479,2.67969769748717,-2.32166953957907,-0.28496945271787,0.0393978401193671,-0.0601425612332918,-1.45960851328274,1.10793202011919,-1.4012958873861,-0.243394510648213,-0.034641641381551,0.0987500978751578
6.3,5.93804481775839,-0.118765492436788,0.82769570646998,0.0392818739424711,0.126347200828303,-0.0397106093838506,0.476046040709662,2.76805923719014,-2.35343266191247,-0.160688345314264,0.109723628236215,0.041797490853284,4.28221078862682,-0.00330029833909036,-0.00110311451247205,-0.000136384809554707,0.476046040709662,2.76805923719014,-2.35343266191247,-0.160688345314264,0.109723628236215,0.041797490853284,-1.06417852242841,0.378886786131455,-1.32040131521962,-0.267787372433921,-0.0826078589902505,-0.00719873416657454
6.4,5.91746197226351,0.104462823976446,0.669298593283078,0.0859040205285626,0.163923068212689,0.0100327402937863,0.423377114642778,2.71587294649401,-2.37767404539327,-0.185579470873672,0.0817390786807204,-0.00721088427843066,4.33029736649183,-0.00486812493151028,-0.00229855583682458,-0.000173262229871491,0.423377114642778,2.71587294649401,-2.37767404539327,-0.185579470873672,0.0817390786807204,-0.00721088427843066,-1.4154942437921,0.72890084779024,-1.29701105786772,-0.395089599779996,-0.173738887448516,-0.00874462901489547
6.5,5.92054038494658,0.277443423423408,0.461489621830634,0.0613426542334133,0.156545738135321,-0.0151209537120817,0.217931308399196,2.84083604498452,-2.43995110768338,-0.269007155485236,0.0259777905205788,-0.0110506917935165,4.42573133658702,-0.0030562372431557,-0.00132812063878089,0.00117980396108168,0.217931308399196,2.84083604498452,-2.43995110768338,-0.269007155485236,0.0259777905205788,-0.0110506917935165,-1.36904819044228,0.563396683990102,-1.08322037156265,-0.248925339059837,-0.0994600928228749,0.0483973935853997
6.6,5.87618219414716,0.511559499062871,0.332936156764204,0.0188711880565428,0.142753368653581,-0.00930759767220725,0.0865865332336597,2.89242065559489,-2.3855597631824,-0.20246554600235,0.065360314791181,0.026325784552243,4.36378148886371,-0.00400735936568641,-0.00234343752174869,-0.000866780645609572,0.0865865332336597,2.89242065559489,-2.3855597631824,-0.20246554600235,0.065360314791181,0.026325784552243,-1.23985405983263,0.176237236812977,-1.17275171846522,-0.325441588793991,-0.178067829012972,-0.0378184326030734
6.7,5.8522663254929,0.740864183905503,0.215844388956,0.0489903396432727,0.176807888247168,0.0214908503077312,0.0036836848111903,2.86748858156927,-2.44967954154083,-0.246102119193238,0.0273202093096327,-0.00654417555582737,4.44263106497173,-0.00470969219426079,-0.00326678472038543,-0.000750110031607895,0.0036836848111903,2.86748858156927,-2.44967954154083,-0.246102119193238,0.0273202093096327,-0.00654417555582737,-1.56992696168841,0.401474149681139,-1.07375189455399,-0.382675488082665,-0.248847608826297,-0.0328123344495225
6.8,5.78824887847742,0.896044672520709,-0.00553723163934716,-0.0148380468734775,0.133260438447558,-0.0236559688841939,-0.273414044180916,2.90221849257943,-2.49316167279603,-0.318098796452106,-0.0436734793208193,-0.0314492981731292,4.4884799840618,-0.00105948288435476,-0.000863511244097126,0.002576146596707,-0.273414044180916,2.90221849257943,-2.49316167279603,-0.318098796452106,-0.0436734793208193,-0.0314492981731292,-1.19542172584351,-0.104948806936424,-0.913609556983365,-0.0882044138952061,-0.0643834819411497,0.107669090885172
6.9,5.70657040866818,1.12764450242458,-0.117088022281871,-0.036707605424839,0.128113100025956,-0.00726729256087331,-0.292006954919076,2.84221049299423,-2.40710843863989,-0.153249125638973,0.0689304809723505,0.0664276305183625,4.40520852473618,-0.00470246504106339,-0.00358774193895793,-0.00283197974579374,-0.292006954919076,2.84221049299423,-2.40710843863989,-0.153249125638973,0.0689304809723505,0.0664276305183625,-1.12720650768857,-0.315153342801935,-1.07767313683354,-0.381314985927588,-0.274700644459525,-0.120316720575596
7,5.69444558714504,1.32008814754489,-0.249614223470123,0.0379700398779717,0.191382304173886,0.051128266634904,-0.367772851228127,2.7915363833884,-2.50400030681434,-0.309607016561197,-0.0422632801521844,-0.0412824230463068,4.57373998373338,-0.00415534692089646,-0.00391287082854142,-0.000414120417203276,-0.367772851228127,2.7915363833884,-2.50400030681434,-0.309607016561197,-0.0422632801521844,-0.0412824230463068,-1.75421846532892,0.257932705547738,-0.836005457405628,-0.338618744282134,-0.299125039695125,-0.0182295941516413
7.1,5.62165220600962,1.4713202155937,-0.463387351484174,-0.0651350927199311,0.128005876427264,-0.0171969616652848,-0.705347683750385,2.90630123907685,-2.49902278723417,-0.317267170665014,-0.0783859849523987,-0.00676262279448599,4.59298143213001,-0.00123832736628013,-0.00170930266990145,0.00118908319776503,-0.705347683750385,2.90630123907685,-2.49902278723417,-0.317267170665014,-0.0783859849523987,-0.00676262279448599,-1.18027066651818,-0.57769490781857,-0.718512580946873,-0.102480254734673,-0.130419139066603,0.049612764472253
7.2,5.4710793879803,1.70730644957886,-0.550200667652996,-0.0762251607343599,0.117637800024826,0.0094127809211674,-0.706486888189783,2.68691140198418,-2.3852209612021,-0.196472541567424,0.0049371633609698,0.0382079684423458,4.4431660461628,-0.00351345979626597,-0.00350884347506255,-0.0022092085336826,-0.706486888189783,2.68691140198418,-2.3852209612021,-0.196472541567424,0.0049371633609698,0.0382079684423458,-1.03351500715725,-0.686464856266231,-1.01070964303439,-0.285739152273029,-0.26923986137904,-0.0935748646047164
7.3,5.40643241652113,1.80453902298939,-0.711825403623273,-0.0527152622938591,0.137842327410008,0.0178934376094726,-0.797450516942616,2.56893066029515,-2.58604239510735,-0.314928065519082,-0.0926152364108709,-0.0500121593054676,4.63283802665188,-0.0011246557253201,-0.00216839892312487,0.00159978812827469,-0.797450516942616,2.56893066029515,-2.58604239510735,-0.314928065519082,-0.0926152364108709,-0.0500121593054676,-1.26245409531627,-0.510886575406294,-0.64496004978399,-0.0938453089890466,-0.166195213547294,0.0672541161052091
7.4,5.36470510774395,1.98121092023421,-0.913918204334398,-0.0818658954935734,0.132035633065978,0.0153334436535055,-0.916272951578294,2.62281891470924,-2.43512210906863,-0.189857839655692,-0.0112247221896076,0.0663554661739224,4.61778673310958,-0.00418389832043037,-0.00445626154718749,-0.00374906100930546,-0.916272951578294,2.62281891470924,-2.43512210906863,-0.189857839655692,-0.0112247221896076,0.0663554661739224,-1.20009024259649,-0.773725982724047,-0.685475422619886,-0.339492627218219,-0.342676477259315,-0.15825248079531
7.5,5.23913286622153,2.14589654957157,-1.00691870652512,-0.0606758072497376,0.142909057156451,0.0479128113043727,-1.0634489541044,2.44733071710729,-2.4763559772101,-0.348634272521547,-0.140763879632352,-0.071619684294786,4.64576831336454,-0.000965563160627426,-0.00244140932531882,0.00130493028154078,-1.0634489541044,2.44733071710729,-2.4763559772101,-0.348634272521547,-0.140763879632352,-0.071619684294786,-1.29239354745091,-0.62604258829257,-0.63010661924665,-0.0811755368632602,-0.187913270366713,0.0551002540383102
7.6,5.05893560971676,2.19263672208206,-1.22783992824866,-0.200062795514542,0.0297552561882858,-0.0650168243743127,-1.30230678086278,2.33315054825606,-2.56856888363973,-0.268267903211847,-0.102162906985334,-0.00592571805152019,4.67561842300698,0.00318045196640499,3.96636423378613e-06,0.00340055575184552,-1.30230678086278,2.33315054825606,-2.56856888363973,-0.268267903211847,-0.102162906985334,-0.00592571805152019,-0.392823032396188,-1.83673810783984,-0.649338793587171,0.254644017490178,-8.27284798705255e-05,0.143698898097299
7.7,4.92973500674022,2.34646924512786,-1.37485156485804,-0.148046451343881,0.0739292026018725,-0.00145062511499452,-1.07988063446872,1.87700902172421,-2.35162051484822,-0.0562524445291762,0.0115271416747322,0.0748992978545916,4.46257931081605,-0.00261467682670778,-0.00305791419578713,-0.00344707664688404,-1.07988063446872,1.87700902172421,-2.35162051484822,-0.0562524445291762,0.0115271416747322,0.0748992978545916,-0.653926833649173,-1.31556933703639,-1.00658512638549,-0.21251375309857,-0.235823247136436,-0.145111437924854
7.8,4.89141834374912,2.28757034633617,-1.51540574446062,-0.100661303261776,0.0881389485918927,0.00560108797013231,-1.25866970147148,1.8418840762146,-2.73223179929081,-0.330442999981497,-0.15038512146052,-0.105826424315086,4.81100374483977,0.00268421705749251,-0.000211039830935309,0.00479372032641161,-1.25866970147148,1.8418840762146,-2.73223179929081,-0.330442999981497,-0.15038512146052,-0.105826424315086,-0.837259512057608,-0.971633729064328,-0.273860711091579,0.213559937076138,-0.017367523712929,0.202630994392748
7.9,4.80687758197926,2.45398217769499,-1.75893646438339,-0.177723668642815,0.0622314212053351,-0.026359613561023,-1.30678648488269,1.91972254074821,-2.41165308740756,-0.0630512713887697,0.0156954876648174,0.122712059704447,4.69087188795555,-0.00241622917381957,-0.00324394990351276,-0.00451902582261881,-1.30678648488269,1.91972254074821,-2.41165308740756,-0.0630512713887697,0.0156954876648174,0.122712059704447,-0.617787513754242,-1.64288230252646,-0.593905783644505,-0.195915628518594,-0.250180076427175,-0.190191521562205
8,4.69035644598311,2.58836592038449,-1.78313018022384,-0.0834728067738473,0.12244735951997,0.0671428927222237,-1.3356014433338,1.55214733376171,-2.50080241027614,-0.288214128474999,-0.137379254682781,-0.0929795306627405,4.71447581899121,0.000519499343000582,-0.00193709613130868,0.00131244523385863,-1.3356014433338,1.55214733376171,-2.50080241027614,-0.288214128474999,-0.137379254682781,-0.0929795306627405,-1.0923268814905,-0.861375149751381,-0.484230121497985,0.0389276935248755,-0.150906242814524,0.0558950236585664
8.1,4.59536932682832,2.57200609084364,-1.96600551926421,-0.189944383597684,0.055208760519318,-0.0265052905319791,-1.54763873046703,1.69110794919554,-2.61565147441785,-0.163751845765117,-0.0786729479716903,0.0364504724491138,4.87188364120611,0.000715272167012552,-0.00131760394129559,-0.00042845355327142,-1.54763873046703,1.69110794919554,-2.61565147441785,-0.163751845765117,-0.0786729479716903,0.0364504724491138,-0.576567668139916,-1.82502568412513,-0.256055692534838,0.0562722019521128,-0.10257923834248,-0.0174793809414579
8.2,4.42306466689104,2.73376882360387,-2.1438652827158,-0.143988653918463,0.0805155917387672,0.0355312359627355,-1.48134480293144,1.23886584638133,-2.3647405362192,-0.146739114861542,-0.0674521682338373,0.00274052347653774,4.68720056675753,-0.000294944398583499,-0.00219986967034905,-0.00176752543770837,-1.48134480293144,1.23886584638133,-2.3647405362192,-0.146739114861542,-0.0674521682338373,0.00274052347653774,-0.697912092973384,-1.37080570442366,-0.562664868014714,-0.0256261791869759,-0.171090608826633,-0.0739433273749836
8.3,4.36734518596259,2.67732557372909,-2.18599464641657,-0.130058845967422,0.0979224825042655,0.0389805419218986,-1.54391971957429,1.27258830610713,-2.61351783012981,-0.174842477457785,-0.0945996908179789,-0.0152930645575735,4.8958155422432,-0.00044678023616843,-0.0021588890069121,-0.00106124356098545,-1.54391971957429,1.27258830610713,-2.61351783012981,-0.174842477457785,-0.0945996908179789,-0.0152930645575735,-0.898994266235719,-1.30592748546984,-0.147577839555455,-0.0378280560515634,-0.168152055127259,-0.0441134696193433
8.4,4.19776298640372,2.73026894894655,-2.47929810381086,-0.191048325733555,0.0409523652463408,-0.00865194006025186,-1.75931442340334,1.08742651594343,-2.48930354136222,-0.216301093566947,-0.132130003971887,-0.0354673020662538,4.91120557489412,0.00338988875671159,3.12055220181276e-05,0.00211314641042412,-1.75931442340334,1.08742651594343,-2.48930354136222,-0.216301093566947,-0.132130003971887,-0.0354673020662538,-0.410944195538199,-1.86167473519221,-0.174386223805731,0.271880148638085,0.000361498355873,0.0898480766996749
8.5,4.00971532867987,2.74080306042036,-2.56535307395835,-0.216724863533959,0.0198232782930274,-0.0167392563295992,-1.66651778326029,0.744325776802646,-2.42369793075474,-0.0460317992474676,-0.0429401512866343,0.0387691732312426,4.81491510057845,0.00154836010103363,-0.000628990894819586,-0.00104352231730054,-1.66651778326029,0.744325776802646,-2.42369793075474,-0.0460317992474676,-0.0429401512866343,0.0387691732312426,-0.22105162894812,-2.06731372129063,-0.40728869643355,0.123902456303072,-0.0499968611301521,-0.0433383948782206
8.6,3.95024598861612,2.68547428893866,-2.6855055333196,-0.137430046922777,0.0706717302895312,0.0332749361503774,-1.6107454234405,0.508809043370981,-2.51818622060842,-0.10080809395292,-0.0637061434906846,-0.0178726707539732,4.91395934738643,0.000641896859619691,-0.0013510102066366,-0.000719770705963568,-1.6107454234405,0.508809043370981,-2.51818622060842,-0.10080809395292,-0.0637061434906846,-0.0178726707539732,-0.642260958723645,-1.3685285222763,-0.0990465753520642,0.0504177654196098,-0.106304804171626,-0.0296866785835679
8.7,3.87046338039068,2.64387937549524,-2.87025911481485,-0.158719902120142,0.06360649091697,0.0156837801199283,-1.77558310138112,0.589083787944591,-2.49634119697703,-0.129022432074386,-0.0892429741497953,-0.00682662480108709,5.01712872963797,0.00130811388626658,-0.00096520068340761,-0.000406630495820126,-1.77558310138112,0.589083787944591,-2.49634119697703,-0.129022432074386,-0.0892429741497953,-0.00682662480108709,-0.604846324037361,-1.59563996082169,0.0780947001311691,0.104395698650731,-0.0763838410570408,-0.0164790570937031
8.8,3.64774108923106,2.66982752731936,-3.04417989872163,-0.217045901597048,0.00818306734432943,-0.0205342107162273,-1.8956105360043,0.29524841960634,-2.43319106692435,-0.130592121030637,-0.110949091986612,-0.0342246712103998,5.02029435624035,0.00480847962338326,0.00102935289949378,0.00259147193499651,-1.8956105360043,0.29524841960634,-2.43319106692435,-0.130592121030637,-0.110949091986612,-0.0342246712103998,-0.124613205144596,-2.16009512370198,-0.00531324830530622,0.386830537666307,0.0770649255165973,0.110007260292222
8.9,3.49317713693681,2.59686691230055,-3.15057172709773,-0.214408597286902,0.00197781082876419,-0.0243318570186607,-1.75808503615064,-0.0676166365974908,-2.38645687226257,0.0380535630005264,-0.0198472823279526,0.0434264821825359,4.98955680450276,0.0021946337286717,0.000129249991539763,-0.000908004145691938,-1.75808503615064,-0.0676166365974908,-2.38645687226257,0.0380535630005264,-0.0198472823279526,0.0434264821825359,-0.0709367204690209,-2.12215437272519,-0.0594032376755784,0.176421919942626,0.0084657682986528,-0.0376852218445319
9,3.44196661411087,2.47293521383488,-3.27405013108604,-0.134302796526837,0.0520232169801401,0.0236664323060301,-1.73092147880777,-0.239823399712339,-2.42524037011347,-0.0481018204374215,-0.0478172737958508,-0.0228132592246129,5.06140573960814,0.00168342163589775,-0.000465677827329259,-4.26063383770979e-05,-1.73092147880777,-0.239823399712339,-2.42524037011347,-0.0481018204374215,-0.0478172737958508,-0.0228132592246129,-0.489422103745777,-1.36740328795796,0.208082975110544,0.134847967145526,-0.0382186400056437,-0.00119250877663175
9.1,3.28352171982344,2.3432638932367,-3.48607874673415,-0.21921974882571,-0.0124855875808194,-0.0522917602311002,-1.97310111236147,-0.237896709424733,-2.44245258511263,-0.102266277651383,-0.110673112559718,-0.0445432285747623,5.22322083492896,0.00673855279184893,0.00211671058477376,0.00459135814291531,-1.97310111236147,-0.237896709424733,-2.44245258511263,-0.102266277651383,-0.110673112559718,-0.0445432285747623,0.00839050361755703,-2.27531663331672,0.385636683373209,0.542744384983018,0.160885323666876,0.19431425303845
9.2,3.14037661881967,2.41700689504343,-3.56521858600913,-0.176879462539562,0.0228412763849252,0.00197032170261836,-1.72384235824308,-0.612024419302626,-2.17435759197526,0.185908976040305,0.0550947123852669,0.120444405812974,5.01590049182001,-0.00139353626418266,-0.00146038544456509,-0.00579129723840644,-1.72384235824308,-0.612024419302626,-2.17435759197526,0.185908976040305,0.0550947123852669,0.120444405812974,-0.222065987396802,-1.76562248085128,0.062704539674769,-0.112678644967634,-0.113328423820031,-0.243823130731645
9.3,3.07328536087135,2.18268761319567,-3.63522599344883,-0.0930537383655359,0.0551686289845582,0.0386951201736146,-1.87357980942512,-0.690156741151869,-2.44713308716,-0.183543267379705,-0.122190773783073,-0.145282734110604,5.26210644294456,0.00490701059096893,0.00114079972438975,0.00505015737640706,-1.87357980942512,-0.690156741151869,-2.44713308716,-0.183543267379705,-0.122190773783073,-0.145282734110604,-0.539538057305788,-0.999525133908387,0.652738888977339,0.394522259505689,0.0842544082550475,0.213618970487049
9.4,2.9384052022869,2.16590278967723,-3.84655415452287,-0.209179880409336,0.0102832823978183,-0.0381025342141743,-1.94689721962194,-0.514843748500487,-2.14896175797537,0.123114487331828,0.0234964685261164,0.128437771729037,5.19287072324693,0.000526816208744611,-0.000777667579646219,-0.00427983213806636,-1.94689721962194,-0.514843748500487,-2.14896175797537,0.123114487331828,0.0234964685261164,0.128437771729037,-0.186548852439258,-2.15113452610206,0.348811208487225,0.042370197674659,-0.0602395296010478,-0.180093653954695
9.5,2.73708268712682,2.1651396244788,-3.90112694465311,-0.11681440663423,0.0424958637449028,0.0450516051480463,-1.93011969909704,-1.09861469928959,-2.25068710493285,-0.0797410600285065,-0.0926804082420478,-0.10788811598192,5.26834603868418,0.00420207010429722,0.00106021359448285,0.00297774610359587,-1.93011969909704,-1.09861469928959,-2.25068710493285,-0.0797410600285065,-0.0926804082420478,-0.10788811598192,-0.388822887495534,-1.2468163432904,0.645436179401635,0.337921203087723,0.0783389810337463,0.126125483446413
9.6,2.6515766471214,1.89420836173718,-4.03642125988658,-0.17558750967476,0.0103669468178763,-0.0313072246510439,-1.97754542057716,-0.927299443888402,-2.11329883662664,0.10726142520835,0.00799609377578096,0.0739296894813557,5.27193944942301,0.00140568713566902,-4.59955811261128e-05,-0.00201818721723441,-1.97754542057716,-0.927299443888402,-2.11329883662664,0.10726142520835,0.00799609377578096,0.0739296894813557,-0.165227025011925,-1.8376033465507,0.571199169868654,0.113140317994988,-0.00441506891348597,-0.0847192129633552
9.7,2.503218198938,1.91713094956679,-4.11861101208895,-0.0908563632216944,0.0604286452703005,0.051442014348607,-1.92863698415139,-1.25507971516609,-2.09218568166004,0.0044236415716756,-0.0353818594105177,-0.0326997998186317,5.29384916196607,0.00130789922474884,-0.000485435598488612,-0.000886339547093445,-1.92863698415139,-1.25507971516609,-2.09218568166004,0.0044236415716756,-0.0353818594105177,-0.0326997998186317,-0.586535981091571,-0.992108529914912,0.714782753404013,0.104823909007998,-0.0397854921043027,-0.0369748608533149
9.8,2.37577414734149,1.683691946013,-4.25096336143037,-0.151487496921947,0.0197408512914854,-0.0123734546321922,-2.1257614789924,-1.15757565835182,-2.06165482894649,-0.00934287576223362,-0.0702726969358003,-0.0264168708130702,5.38617223586702,0.00393829232456862,0.00113456471538384,0.00183723237468887,-2.1257614789924,-1.15757565835182,-2.06165482894649,-0.00934287576223362,-0.0702726969358003,-0.0264168708130702,-0.230304396460888,-1.6229157985947,0.836901409017623,0.31716594534331,0.0855422305624508,0.0779207236682204
9.9,2.17186661190571,1.67788524049309,-4.35144581864708,-0.142449259207036,0.0155956850977814,0.00110968692052587,-2.03453247962089,-1.45816117808547,-1.91966017839612,0.124112599775899,0.00788799095333693,0.0465930917044537,5.35169104038792,0.00120060266090241,-2.29417396495796e-05,-0.00225500248993087,-2.03453247962089,-1.45816117808547,-1.91966017839612,0.124112599775899,0.00788799095333693,0.0465930917044537,-0.163542808121338,-1.51972004984839,0.783681734273214,0.0965617411211739,-0.00292912928763158,-0.0947903914843008
10,2.06269205529388,1.44511222296935,-4.42413671876969,-0.0955764458750988,0.0358594707545565,0.0213331137827509,-2.05369225216122,-1.59592908980645,-1.92644886369393,0.00762182878712382,-0.0478044475068877,-0.0553674338178445,5.41735075095492,0.00303338734402783,0.000688237821840884,0.00161429442566404,-2.05369225216122,-1.59592908980645,-1.92644886369393,0.00762182878712382,-0.0478044475068877,-0.0553674338178445,-0.364526528311448,-1.04197938359013,0.968318793291354,0.24413312163968,0.0508724917609087,0.0684580849336266
10.1,1.93579990657227,1.30909269920635,-4.53396879709764,-0.128407182599688,0.0212893045431581,-0.010210130494897,-2.11901404784321,-1.55307047951117,-1.79553146726845,0.104465876663036,-0.00664410990737634,0.0404597815118753,5.41969969058337,0.00165825875208249,0.000128405834163051,-0.00142979450906472,-2.11901404784321,-1.55307047951117,-1.79553146726845,0.104465876663036,-0.00664410990737634,0.0404597815118753,-0.243005984074085,-1.38562611474707,0.937723819780315,0.133527674474074,0.00895498134064173,-0.0600142544662791
10.2,1.73179908994846,1.19914202019346,-4.62579416489764,-0.114830800124333,0.00854417471205531,-0.000819435212792992,-2.16326271661023,-1.8232947069914,-1.79392784402282,0.0299190262407326,-0.0549757085137786,-0.0528568793528775,5.5175406832801,0.00426552521527037,0.00156179656299275,0.00255154929549495,-2.16326271661023,-1.8232947069914,-1.79392784402282,0.0299190262407326,-0.0549757085137786,-0.0528568793528775,-0.0946996250076111,-1.26430704755712,1.152006223184,0.343612789301063,0.118460283202543,0.107957249965697
10.3,1.5844021652081,0.982097637644749,-4.72322862644887,-0.135402176768467,-0.010077899184297,-0.0354271666343905,-2.12546079852236,-1.90720403188262,-1.61497781071723,0.157127214766197,0.0126441134064646,0.0423071637528114,5.49810292314633,0.00271045369690882,0.000994959196952791,-0.000309292165693389,-2.12546079852236,-1.90720403188262,-1.61497781071723,0.157127214766197,0.0126441134064646,0.0423071637528114,0.0571577465946142,-1.48732259870061,1.08500562154235,0.218455469972455,0.0759060074546787,-0.0127883775151507
10.4,1.50584556571791,0.876104798818462,-4.71609316270586,-0.0350295713589418,0.0610151325159549,0.0468350697487969,-2.0158661814782,-2.02956742427249,-1.55221173784342,0.139513054199617,0.0294886579130093,0.0150575960237455,5.44123006873074,-0.000819086759852912,-0.00142809716805634,-0.00292180823051099,-2.0158661814782,-2.02956742427249,-1.55221173784342,0.139513054199617,0.0294886579130093,0.0150575960237455,-0.644604806425477,-0.411760553100676,1.04554588834121,-0.0663621085156146,-0.111202458876794,-0.12303289663507
10.5,1.37106172600267,0.647464630246755,-4.82504097208948,-0.0726168608200414,0.0299351664764754,-0.000382713080756712,-2.30650940595643,-1.873625997463,-1.57929304758198,-0.0377213395659742,-0.102833816908312,-0.0782026675451704,5.58485908232264,0.00465685287696367,0.00166338048576978,0.00372703939475827,-2.30650940595643,-1.873625997463,-1.57929304758198,-0.0377213395659742,-0.102833816908312,-0.0782026675451704,-0.333746486122371,-0.810269528914233,1.32528986830251,0.375161267623048,0.12644054337658,0.157506857363718
10.6,1.1128167109232,0.630815567923784,-4.91449764076974,-0.128001226729955,-0.0147753119561323,-0.0283095872739983,-2.24132470333229,-2.02078721241402,-1.35695660280538,0.213494049178278,0.0378795952300586,0.0834494538593919,5.54692851389976,0.00123999498184527,0.000244734224377096,-0.00259571756031968,-2.24132470333229,-2.02078721241402,-1.35695660280538,0.213494049178278,0.0378795952300586,0.0834494538593919,0.122417810971861,-1.42018697756518,1.19189740824591,0.0999594218039588,0.0186270822791771,-0.109322731584544
10.7,0.958395952874919,0.393570305944275,-4.94472159922024,-0.0507423431435298,0.0126939969559981,0.00676397854094302,-2.17972883677181,-2.35338979969762,-1.38049614417119,0.0532444349537438,-0.0448408854241502,-0.0842172216904897,5.64183431789847,0.00402973543637996,0.00154164509243915,0.00368351073035416,-2.17972883677181,-2.35338979969762,-1.38049614417119,0.0532444349537438,-0.0448408854241502,-0.0842172216904897,-0.139172290450702,-0.573268579449885,1.45823731077109,0.324617663118083,0.117133100627849,0.155618753550531
10.8,0.876063766128834,0.126726493034144,-5.01707866677945,-0.0884008960954768,-0.00435915222470276,-0.042501880506643,-2.21725754996401,-2.1796127692236,-1.14506924523363,0.200290259989866,0.0278610283813816,0.0748187757698009,5.57093456355315,0.00166644757020297,0.000570302529647154,-0.00151032212866878,-2.21725754996401,-2.1796127692236,-1.14506924523363,0.200290259989866,0.0278610283813816,0.0748187757698009,0.00654041652034717,-0.984836134712717,1.28825673951907,0.134354074412039,0.0437090237331235,-0.0635556408684565
10.9,0.698348972756023,0.0643667555934835,-5.00665690564126,-0.0249205369772564,0.022897892404621,0.0184814512524374,-2.1942160633412,-2.37128179780982,-1.18423493644781,0.106318939222886,-0.0110232785343917,-0.0438131572408709,5.63907408401976,0.00196818959143277,0.000576760548330068,0.00121156445592091,-2.1942160633412,-2.37128179780982,-1.18423493644781,0.106318939222886,-0.0110232785343917,-0.0438131572408709,-0.252905476161346,-0.285751012252309,1.46169070190349,0.15841221814191,0.0432438174251788,0.0512824798518022
11,0.57634331960538,-0.16407538136564,-5.08148997631112,-0.0470123352541572,0.0144592147507892,-0.0209563720272564,-2.26032324091393,-2.23194293141647,-0.995197102497666,0.135029623332745,-0.00347978182061982,0.024249013140706,5.60588628110003,0.00197850525496352,0.000481829864127255,-0.000144418918683631,-2.26032324091393,-2.23194293141647,-0.995197102497666,0.135029623332745,-0.00347978182061982,0.024249013140706,-0.172934164912035,-0.523388589021945,1.38821423915394,0.159408141187414,0.0365544303542852,-0.00594731428880197
11.1,0.419569794373378,-0.211963849331873,-5.04752573808871,-0.0031096644048518,0.0420288167291196,0.0316160692427844,-2.21921880568922,-2.2904929129619,-0.954021872755975,0.162927471035518,0.0160745662970635,0.0149158473036078,5.60155054977746,-0.000492298914338299,-0.000954159033790034,-0.00219407426879443,-2.21921880568922,-2.2904929129619,-0.954021872755975,0.162927471035518,0.0160745662970635,0.0149158473036078,-0.469375710029957,-0.0497000087803456,1.383153737835,-0.0399345447998264,-0.0741241875556443,-0.0924458721729951
11.2,0.28873668423648,-0.394145025411267,-5.08724607445332,0.0173172929547603,0.0499731406063421,0.0298582469676881,-2.32431457907348,-2.19750176232429,-0.873357187104955,0.0612364558294256,-0.04272532050519,-0.0329492372003321,5.629341401047,0.000968343482610106,-0.000351808029199577,0.000149291384885086,-2.32431457907348,-2.19750176232429,-0.873357187104955,0.0612364558294256,-0.04272532050519,-0.0329492372003321,-0.567882930743583,0.178086071447097,1.43294146414958,0.0777953484119961,-0.027839057799035,0.00641794556111289
