time,x,y,z,roll,pitch,yaw,xdot,ydot,zdot,p,q,r,thrust,roll angle,pitch angle,yaw angle,_xdot,_ydot,_zdot,_p,_q,_r,_xddot,_yddot,_zddot,_phiddot,_thetaddtot,_yawddot
0,4.01841953230695,3.01841953230695,0.0184195323069548,0.0184195323069548,0.0184195323069548,0.0184195323069548,0.0184195323069548,0.0184195323069548,0.0184195323069548,0.0184195323069548,0.0184195323069548,0.0184195323069548,9.10291307249519,-0.00716066496079051,0.00652400726015099,-0.00179868604854087,0.0184195323069548,0.0184195323069548,0.0184195323069548,0.0184195323069548,0.0184195323069548,0.0184195323069548,-0.341386244237084,0.329091846742341,8.38964998592743,-0.577473083159309,0.501846815520958,-0.075893929104532
0.1,2.42036642022637,1.82036642022637,0.0203664202263731,0.0196705091424246,0.0195043614870842,0.0188166701569331,-0.0861115287112899,0.121708936132095,4.62719087650574,-0.307817355423097,0.286048828546611,-0.0318343354349866,5.47645126885438,-0.000535066508053676,-0.00128507807488757,0.00053359415268412,-0.0861115287112899,0.121708936132095,4.62719087650574,-0.307817355423097,0.286048828546611,-0.0318343354349866,-0.217590226706984,0.211378613934453,1.138700725445,-0.0431534524939443,-0.0988492104877932,0.0225144353168396
0.2,2.62714695191813,2.05456524312113,2.13244885516898,-0.139401532634962,0.134010681092652,-0.0151520683884081,-0.0575474504952479,0.0602740534039379,1.04992679008782,-0.0482501334912304,-0.0246656413645701,0.0104909723780805,6.70741646110772,0.000423744669165001,0.000427447566186258,0.000213241221572103,-0.0575474504952479,0.0602740534039379,1.04992679008782,-0.0482501334912304,-0.0246656413645701,0.0104909723780805,-1.80300640460245,-1.836890069558,3.35558943261855,0.0342082014644189,0.0329143274200948,0.00901982685473146
0.3,2.63979776531338,2.03700021569412,0.769864907364518,-0.0329300800760671,0.0135927620531958,0.0103267805057364,-0.402347718931381,-0.29982249699537,2.50590158772176,-0.00662865180834715,0.04361167634979,0.0078348814553309,6.46705821196163,-0.00408910309078836,0.00202170951492895,-0.00089101656455438,-0.402347718931381,-0.29982249699537,2.50590158772176,-0.00662865180834715,0.04361167634979,0.0078348814553309,-0.171302747467534,-0.427636292521689,3.11591003518242,-0.329759318914377,0.155524697800614,-0.0375717179601455
0.4,2.45437879677462,1.8510982468919,1.54340215620249,-0.0366113432392199,0.0234985670509299,-0.0105305807470003,-0.284341353419762,-0.221749446609069,2.34907996378107,-0.221691344366229,0.0962800985276745,-0.0338980195280778,6.07354504980433,0.000262994989157165,0.000180829576087486,0.00206181520720526,-0.284341353419762,-0.221749446609069,2.34907996378107,-0.221691344366229,0.0962800985276745,-0.0338980195280778,-0.289887908087129,-0.441593794654498,2.32559878247787,0.0211955677883876,0.013895270786229,0.0870246106022418
0.5,2.5476635095787,1.93385211503885,1.61546417088588,-0.0907247800454104,0.0956960356260952,0.0154863858283333,-0.234616244186235,-0.174004841535747,2.11114648518311,-0.00651050462890323,0.0653101848761785,0.0707886597354001,6.15818213606673,-0.0035013919315053,-0.00281648924540952,-0.00408696495400453,-0.234616244186235,-0.174004841535747,2.11114648518311,-0.00651050462890323,0.0653101848761785,0.0707886597354001,-1.15456862744355,-1.13388253344673,2.39959092552871,-0.282265339087452,-0.216510415525316,-0.172385643552823
0.6,2.51319807099895,1.90386895317728,1.61905068095094,-0.034391747646529,0.0551786388162782,0.0308120757886202,-0.425576869614787,-0.357803501943004,2.30470264637374,-0.200522134817421,-0.0883273475320169,-0.0936415226082244,5.99391561102219,-0.0011675539480791,0.00155923268306503,0.00295957447496413,-0.425576869614787,-0.357803501943004,2.30470264637374,-0.200522134817421,-0.0883273475320169,-0.0936415226082244,-0.647733252250124,-0.432361267377191,2.15250821427612,-0.0943325215934065,0.119732963764157,0.124946852461932
0.7,2.45037664973058,1.84896657691471,1.89937469199176,-0.0922335448273457,0.0227809747337136,-0.00592135016894567,-0.403775001819293,-0.314569132487314,2.25736420756601,-0.0831477548574995,0.117864884808386,0.088648506113379,5.80143332292409,-0.00246943145140795,-0.00288816755941178,-0.00392594750547577,-0.403775001819293,-0.314569132487314,2.25736420756601,-0.0831477548574995,0.117864884808386,0.088648506113379,-0.269501575853314,-1.06707973695618,1.74055081530427,-0.198970252983373,-0.221818415267984,-0.16557416517307
0.8,2.40417495544349,1.81677329271422,1.96367930406963,-0.0775310957230574,0.0822337587761926,0.0401125614182237,-0.470989276009322,-0.448285615857668,2.13278119076498,-0.171892232092877,-0.094838377445455,-0.0889418411945736,5.8287973449353,-0.000735875336341369,-0.00141831824828224,0.00234767131565943,-0.470989276009322,-0.448285615857668,2.13278119076498,-0.171892232092877,-0.094838377445455,-0.0889418411945736,-0.917714462618761,-0.940479397352563,1.77329886610696,-0.0595082157541962,-0.109375330367174,0.0991693866020466
0.9,2.36495489171413,1.75331798372788,2.05720143160198,-0.114790342794531,0.00348155209862834,-0.0248585747804623,-0.526196321629387,-0.518526369191774,2.25486139381766,-0.0940975181133653,-0.0271862099487935,0.0577612535430674,5.60614463348254,-0.00145661741777428,-0.000472856333868324,-0.00154506443038245,-0.526196321629387,-0.518526369191774,2.25486139381766,-0.0940975181133653,-0.0271862099487935,0.0577612535430674,-0.0706882398311769,-1.28287715215326,1.32843166659171,-0.117280339138603,-0.0359076998176146,-0.0650833584352585
1,2.2598704807046,1.64617753413596,2.20956945632852,-0.132152093205336,-0.0145288320001632,-0.00426078601808589,-0.622747953913561,-0.680616937329169,2.06418678294609,-0.163651645438971,-0.0357907785993195,-0.0641824571374571,5.59778726067269,0.00166314364089081,-0.00102354466273364,0.0032529193076422,-0.622747953913561,-0.680616937329169,2.06418678294609,-0.163651645438971,-0.0357907785993195,-0.0641824571374571,0.154947641357593,-1.47588953124647,1.28678467768897,0.13410542457262,-0.0787891010129737,0.137365487829333
1.1,2.20504307161794,1.56479604378171,2.25991561283994,-0.156454756397645,-0.00770646853621141,-0.0441952773537372,-0.595218723646471,-0.78438613111823,2.13968700690402,-0.020421483678161,-0.0430558250638478,0.0556607070037506,5.45719581781831,-0.000748157017749652,-0.00203293166730592,-0.000531435114418404,-0.595218723646471,-0.78438613111823,2.13968700690402,-0.020421483678161,-0.0430558250638478,0.0556607070037506,0.00786586565547035,-1.70266059453204,0.970762023346964,-0.0601550008648439,-0.155724927269985,-0.0223073021124991
1.2,2.21564088362923,1.52054259775443,2.4547235023704,-0.061816804757938,0.0252988569551572,0.0452008052794078,-0.525991735610251,-0.844200501541298,2.08271130322152,-0.0887316249727826,-0.0638899593956081,0.00554090481201433,5.3838500991099,-0.00343411986122017,-0.0034432247002668,-0.00231180558272296,-0.525991735610251,-0.844200501541298,2.08271130322152,-0.0887316249727826,-0.0638899593956081,0.00554090481201433,-0.241526130693436,-0.676805710532063,0.933694276975976,-0.27693731788517,-0.264830583857441,-0.0974408126174608
1.3,2.16392062922711,1.40532459220449,2.52966702584615,-0.131299478238753,-0.0227964900196518,-0.0109634408372323,-0.587472726162392,-1.03575057997785,1.98970323423935,-0.24117788927797,-0.160391160005811,-0.0667521667815494,5.29956461164203,0.0042087777215781,6.20041277531269e-05,0.00369011461926709,-0.587472726162392,-1.03575057997785,1.98970323423935,-0.24117788927797,-0.160391160005811,-0.0667521667815494,0.224294778127001,-1.39020752415691,0.695168022652318,0.339411852409964,0.00473744976487213,0.155789248993342
1.4,2.13070380945809,1.29904839149714,2.62065971105906,-0.183607412513353,-0.0505331786650496,-0.0253099656958941,-0.569199403667944,-1.05689122974807,1.97773008214019,0.0998976273659621,-0.000138676667452334,0.0866063835744376,5.19277370051024,-0.00198578919126865,-0.0035977092513618,-0.00289977707750524,-0.569199403667944,-1.05689122974807,1.97773008214019,0.0998976273659621,-0.000138676667452334,0.0866063835744376,0.467621768417137,-1.90861311945925,0.387946884582881,-0.160094842387942,-0.275835186722815,-0.122316437191113
1.5,2.0769063529701,1.20598200120387,2.7208177689722,-0.0573616272802202,-0.00143375320322536,0.0309645004945415,-0.580268442441774,-1.20316580282888,1.90012633176148,-0.169299226943254,-0.174310250001053,-0.0730052443749247,5.19166604541753,-0.00030072906736102,-0.00237228753436429,0.00201008786853868,-0.580268442441774,-1.20316580282888,1.90012633176148,-0.169299226943254,-0.174310250001053,-0.0730052443749247,0.0332850691020897,-0.594532759177206,0.556243688579061,-0.0242696736791757,-0.182784125751537,0.0848485454577035
1.6,2.03734110298043,1.08631714388817,2.81568782410927,-0.173474274742837,-0.0786601113428082,-0.0382195854738746,-0.523708957080645,-1.39199395042752,1.88408231058895,-0.103140039489702,-0.128935030888872,0.0380516732564154,5.01128659814062,0.00411906121463644,-0.000692747552946622,-2.17764005871655e-05,-0.523708957080645,-1.39199395042752,1.88408231058895,-0.103140039489702,-0.128935030888872,0.0380516732564154,0.70907501301494,-1.75832941950638,0.0316189599695029,0.33214528739998,-0.0525395584640327,-0.000955562065252434
1.7,1.99850919311854,0.898487150708935,2.87933692978725,-0.175322263705004,-0.0883177802522853,-0.0161041441343999,-0.57982251901346,-1.43954894648055,1.72439905751606,0.0769841592369879,-0.0921167611839365,-0.0239253649432455,5.05300416248895,0.000380937553413713,-0.00231880872332799,0.00185507862094164,-0.57982251901346,-1.43954894648055,1.72439905751606,0.0769841592369879,-0.0921167611839365,-0.0239253649432455,0.849215755831854,-1.77665093186134,0.102302877277591,0.0306977768434361,-0.178174136525453,0.0781753739662053
1.8,1.93527854814884,0.801151568410494,2.93293686088433,-0.0978438093839618,-0.0794463530981448,-0.0371955810173301,-0.509176081860242,-1.61624311712564,1.76498905828404,-0.0725224840041654,-0.161795042297096,0.0210286796301096,4.92100375858288,0.00160159777281841,-0.00167701804494726,0.000714241325591344,-0.509176081860242,-1.61624311712564,1.76498905828404,-0.0725224840041654,-0.161795042297096,0.0210286796301096,0.741062576490691,-0.989686182688607,-0.0459609031166046,0.129065021783331,-0.128453824093997,0.03000256595051
1.9,1.96997912424766,0.684741669771687,3.09675241339834,-0.118412397366361,-0.0736987396616547,0.0227951208287787,-0.367222806720968,-1.7216109109495,1.64240131941701,0.0208240079127766,-0.108121106453973,0.0339451726940176,4.81862230156938,0.00100180044940253,-0.00298739159333226,-0.00272427548873785,-0.367222806720968,-1.7216109109495,1.64240131941701,0.0208240079127766,-0.108121106453973,0.0339451726940176,0.730407943637101,-1.122147525546,-0.26621811295386,0.0807283869032701,-0.229558643232159,-0.115162053382995
2,1.96976699745352,0.507113859070383,3.10990960462764,-0.0996121223325072,-0.0780451206672356,0.0121733427639842,-0.333879961962195,-1.83060183231869,1.50064143876486,-0.0154886303513412,-0.186025153597425,-0.0605115515565939,4.85172017274051,0.00213383399671365,-0.00131598762039651,0.00225322978651018,-0.333879961962195,-1.83060183231869,1.50064143876486,-0.0154886303513412,-0.186025153597425,-0.0605115515565939,0.76447830810302,-0.955747374119691,-0.18405202530098,0.172175821138307,-0.101518091609302,0.0948129176435634
2.1,1.94149110104033,0.336800780314825,3.13280134660584,-0.129307801820021,-0.136963286975488,-0.0463361785114493,-0.282925549025357,-1.98065969534516,1.50899448935748,0.0211626337727957,-0.13691322938169,0.0372211109376067,4.75484251355846,0.00395696524055843,-0.000783895355088695,0.000419528451478782,-0.282925549025357,-1.98065969534516,1.50899448935748,0.0211626337727957,-0.13691322938169,0.0372211109376067,1.22938792720652,-1.28457605667715,-0.468020606208642,0.318834475385512,-0.0596442447967625,0.0173545770766467
2.2,1.93897334274592,0.154031429917214,3.22260553304647,-0.112936911552483,-0.121674404625462,-0.00496326143395835,-0.242691132122343,-2.04332668857844,1.41452539496602,0.116624554843933,-0.120928783657072,1.54477555400455e-05,4.70814529607902,0.00179393551952163,-0.00227395308962906,0.000234859379339262,-0.242691132122343,-2.04332668857844,1.41452539496602,0.116624554843933,-0.120928783657072,1.54477555400455e-05,1.13033478901504,-1.06681081733965,-0.522869847971679,0.144635806502075,-0.174846934133009,0.00950509791798976
2.3,1.95865977663055,0.0405529276602223,3.30061939739469,-0.0372310170256268,-0.0934501168373336,0.0146009872536531,-0.0736539575674673,-2.12378168612435,1.34905463025393,0.0617394010601744,-0.160541714348105,0.0224468697739873,4.60067985516653,0.000720395404068024,-0.00211867072998651,-0.00174797347787633,-0.0736539575674673,-2.12378168612435,1.34905463025393,0.0617394010601744,-0.160541714348105,0.0224468697739873,0.862931297954934,-0.32993280914874,-0.655137115423441,0.0580552284403714,-0.162907118827656,-0.0741830472959288
2.4,1.99117002558042,-0.149822435237972,3.33478140190872,-0.0725458972777145,-0.136100850160231,0.00731242096169757,0.022183434231355,-2.30445235105028,1.21180382736724,0.00765319648382998,-0.177406853957613,-0.037667902338324,4.60816664317477,0.00551889468275249,0.000247533281173791,0.00145424796664629,0.022183434231355,-2.30445235105028,1.21180382736724,0.00765319648382998,-0.177406853957613,-0.037667902338324,1.25204421787302,-0.65888307545882,-0.702911682956003,0.445253139580681,0.0187940083854095,0.0608827200855931
2.5,2.03939789307154,-0.367497217401219,3.35097359761948,-0.0826075842110851,-0.144387234311727,-0.0131524594452573,0.0974717518748396,-2.2960524208888,1.18977738073026,0.228496544031924,-0.0760354916491446,0.0418614837280657,4.54648538420036,0.00147807430719711,-0.00211423011394283,-0.00135445305091051,0.0974717518748396,-2.2960524208888,1.18977738073026,0.228496544031924,-0.0760354916491446,0.0418614837280657,1.29390952980827,-0.767378306564264,-0.842333299108635,0.1189663793113,-0.162357765650121,-0.0576970718324589
2.6,2.05726886432886,-0.510326104059178,3.41260083024901,0.0168580706754688,-0.108309060299947,0.0242536606817707,0.206087686011481,-2.35080773608718,1.0708295290461,0.0739289365792354,-0.17514497980671,-0.0218935375392839,4.48864740369513,0.00195265720049616,-0.000986298937330026,-7.72431764062938e-05,0.206087686011481,-2.35080773608718,1.0708295290461,0.0739289365792354,-0.17514497980671,-0.0218935375392839,0.966329181540109,0.174818839691214,-0.886577543061795,0.157744088221728,-0.0761293804528348,-0.00375405308935723
2.7,2.11127922674683,-0.673124679625138,3.43819059231211,-0.0335685579366005,-0.153543491914499,0.00326618316891216,0.375263008182112,-2.48773423841148,1.04171169721303,0.104080908324577,-0.132155197144263,0.0104476247802912,4.42682790081958,0.00531496820318804,0.000558312836134062,-0.000690931944803201,0.375263008182112,-2.48773423841148,1.04171169721303,0.104080908324577,-0.132155197144263,0.0104476247802912,1.35428646016894,-0.292726865113329,-1.06543367455293,0.428627416231802,0.042946375880328,-0.0296784236557021
2.8,2.19239089683537,-0.919922903158943,3.46942691236019,-0.0223807129682782,-0.14935048256431,0.0062584004010227,0.418929912616279,-2.44354487679528,0.884032226231559,0.256689402445581,-0.0762609488651451,-0.00957824956877075,4.45907224551238,0.00204979997047781,-0.00101069495310583,7.9725731477302e-05,0.418929912616279,-2.44354487679528,0.884032226231559,0.256689402445581,-0.0762609488651451,-0.00957824956877075,1.3278738523069,-0.191271203596741,-0.993341476396536,0.165464447610597,-0.077854100020376,0.0028415224341995
2.9,2.18374732810123,-1.08890455673096,3.42981556084965,0.021179437100499,-0.165534460612252,-0.0339776631422016,0.51755699019235,-2.53786853273605,0.839051046322976,0.104833203008249,-0.170319577538449,-0.0205544288164092,4.45147705778357,0.00574079999333035,0.00193521033071544,0.0024674406223082,0.51755699019235,-2.53786853273605,0.839051046322976,0.104833203008249,-0.170319577538449,-0.0205544288164092,1.4722539385211,0.138611340768427,-1.03071487986559,0.462982446642146,0.148854765457443,0.103684210112657
3,2.28658833711871,-1.25618778040578,3.49345888662758,3.72468874835774e-05,-0.181375736326008,-0.0100039017857729,0.699815701520268,-2.52552561380979,0.8487159316996,0.30266688597816,-0.0209562268340143,0.0620312483354984,4.32815217360225,0.00296271522972646,7.100905487531e-05,-0.00267689516166443,0.699815701520268,-2.52552561380979,0.8487159316996,0.30266688597816,-0.0209562268340143,0.0620312483354984,1.56137448627825,-0.0152979215717693,-1.2956896557251,0.238592172374509,0.00560268070359737,-0.113363651704874
3.1,2.40297452354766,-1.41566426522302,3.55793560429086,0.1097208734004,-0.107478516147042,0.0438178143053466,0.837111275458348,-2.47620727754531,0.647888192841161,0.217911332634066,-0.0749776196151854,-0.0402899478947044,4.28137867434689,0.000970399438163262,-0.000941405529238732,-0.000304254131926108,0.837111275458348,-2.47620727754531,0.647888192841161,0.217911332634066,-0.0749776196151854,-0.0402899478947044,0.871070083346468,0.976722946652057,-1.34784527392749,0.0789932009098327,-0.0726078883040001,-0.0131026688088533
3.2,2.4886324251461,-1.56661401693922,3.51109371668755,0.0830290088536283,-0.143160224127846,-0.00349091365915835,1.04829704539276,-2.54759207876785,0.664966765488653,0.132607909343657,-0.130385254772815,0.00290736480709841,4.25748651524869,0.00615054450337647,0.00357131309125466,-0.000175218398518898,1.04829704539276,-2.54759207876785,0.664966765488653,0.132607909343657,-0.130385254772815,0.00290736480709841,1.21311859018335,0.701947134956716,-1.41116798501272,0.49604985330007,0.274710794634877,-0.0075530603874389
3.3,2.59072241036392,-1.86289605415072,3.50204305377246,-0.00258658216761595,-0.22987742974042,-0.0537236686763614,1.02154339000235,-2.52873494410656,0.471602649530954,0.316804999609738,0.00794130990048558,-0.0438956860344617,4.53004152183386,0.0072664413841855,0.00358841294711731,0.00445732417262969,1.02154339000235,-2.52873494410656,0.471602649530954,0.316804999609738,0.00794130990048558,-0.0438956860344617,2.06017026912687,-0.134254993393031,-0.988278012932495,0.586099473778995,0.276024308977169,0.1879771967856
3.4,2.67724525886648,-1.97202060322633,3.48998350915249,0.131397976512355,-0.136001403466179,-0.0365772372978936,1.21054413086752,-2.35858713749539,0.61774672366353,0.425397137999082,0.0504073195494958,0.0964812358511205,4.14281472967248,-0.00107079037736449,-0.000425379949835717,-0.00305943433294109,1.21054413086752,-2.35858713749539,0.61774672366353,0.425397137999082,0.0504073195494958,0.0964812358511205,1.15265663259177,1.04413158985599,-1.67164467180425,-0.087093905637314,-0.0327709687548379,-0.129008326093507
3.5,2.79116221817481,-2.03846513612272,3.58497462433521,0.197081403635271,-0.118611784909159,0.0289291574982722,1.40732649996176,-2.42635945622018,0.301001252543047,0.0861034868174426,-0.0909377305662074,-0.0693879331751369,4.22296886792061,0.00554082591728155,0.00412526781236498,0.00182405136805362,1.40732649996176,-2.42635945622018,0.301001252543047,0.0861034868174426,-0.0909377305662074,-0.0693879331751369,0.931847529230762,1.68144011728859,-1.58575027422284,0.447912591541353,0.317614632890936,0.0772762177714318
3.6,2.99232803036004,-2.25984226367956,3.49502951618171,0.0828299431471414,-0.170279054405955,-0.0264901395788248,1.5857339203563,-2.28484678456244,0.440830752136955,0.380503982208187,0.0994254751040566,0.0476685619682281,4.2411385972983,0.00434847745059566,0.00375758176197272,-0.000536099419482032,1.5857339203563,-2.28484678456244,0.440830752136955,0.380503982208187,0.0994254751040566,0.0476685619682281,1.45054203555134,0.663595680003512,-1.4790579774822,0.350455476289353,0.288977446088689,-0.0222460674776197
3.7,3.15265495416308,-2.40418361742575,3.57539627266419,0.202803186525833,-0.0977231236826206,-0.0015801336520208,1.61700150232454,-2.13436549456885,0.13369487941725,0.341247885268497,0.0893185430455432,-0.016574804654653,4.19668897515092,0.000267362985779128,0.00134203746528123,0.00100851614907492,1.61700150232454,-2.13436549456885,0.13369487941725,0.341247885268497,0.0893185430455432,-0.016574804654653,0.804809401030616,1.68928980818151,-1.62786243157695,0.0222266729956594,0.103557651633454,0.043117870877209
3.8,3.25492644867529,-2.4459978225701,3.45559799407515,0.220179715997709,-0.0903095624793274,-0.0132203148149519,1.81977261525972,-2.04567455670629,0.223294545830388,0.185560661127426,0.00545926385486158,0.0262487004148075,4.11462542051913,0.00403717067964883,0.00498853926066563,-0.000221506929412227,1.81977261525972,-2.04567455670629,0.223294545830388,0.185560661127426,0.00545926385486158,0.0262487004148075,0.7479499487076,1.78757792783364,-1.81214369778505,0.3259214212085,0.383965510111156,-0.00862752847985924
3.9,3.50781369854015,-2.56006627115384,3.55883964320523,0.198027258811288,-0.0918436414122742,0.0376380107267643,1.94489305517422,-1.83554177249239,0.0823571845817179,0.379023603517859,0.195911950683226,0.02543691768111,4.07258376958387,-2.77928040337664e-05,0.0021553743183256,-0.00234592592382895,1.94489305517422,-1.83554177249239,0.0823571845817179,0.379023603517859,0.195911950683226,0.02543691768111,0.671613771782251,1.62886968139692,-1.8576750101816,-0.00143423999175535,0.166418019702546,-0.0981709480724646
4,3.6647979651737,-2.63267232431402,3.50234149323331,0.284104612229221,-0.0194281304644545,0.0181033140819704,1.9949097567807,-1.68007339123183,-0.115290960500717,0.203344642735638,0.0816624747833742,-0.0368513177457215,4.08079849150089,0.000814405229859264,0.00259356498692792,0.00126622505888472,1.9949097567807,-1.68007339123183,-0.115290960500717,0.203344642735638,0.0816624747833742,-0.0368513177457215,0.110761355438901,2.29006016605788,-1.9770553639822,0.0668154211398573,0.200705002199784,0.054341003729131
4.1,3.80405145720713,-2.69963341757327,3.40654082893047,0.217181356015512,-0.0703019565532054,-0.013042445688044,2.05299394086372,-1.46424616205728,-0.0301595020391539,0.23131864769446,0.0958682371469292,0.0333243939170773,4.02702009728592,0.00293036418706033,0.0057581573621388,-0.00024224393233395,2.05299394086372,-1.46424616205728,-0.0301595020391539,0.23131864769446,0.0958682371469292,0.0333243939170773,0.575045445179846,1.72811608723189,-1.9645872651079,0.236842835596255,0.443572796819993,-0.00925630010154673
4.2,3.96018090737584,-2.76696833624525,3.45304669810819,0.216477644589405,-0.0803506690720997,-0.01001961450756,2.02757606405369,-1.3190362334895,-0.39645942916006,0.309916279176947,0.224561703524105,-0.017819026928518,4.17518088000862,0.00080059383571337,0.00317704610685757,0.00199914657175513,2.02757606405369,-1.3190362334895,-0.39645942916006,0.309916279176947,0.224561703524105,-0.017819026928518,0.672530000343958,1.78693235734723,-1.68084766583495,0.0655417199757503,0.245783524826996,0.0853633440364728
4.3,4.08256526594871,-2.77585634646011,3.27464349956945,0.28498251955289,8.33162158677958e-05,-0.0168296527298236,2.12966787182686,-1.08436184684373,-0.355262566250746,0.242974803799339,0.146066714215407,0.0467592460510239,4.04845657835345,-0.000934801211289681,0.00285494676068789,-0.00102083817063322,2.12966787182686,-1.08436184684373,-0.355262566250746,0.242974803799339,0.146066714215407,0.0467592460510239,0.0376614322989767,2.27606016383623,-2.03966317239926,-0.0747638957799066,0.220771984404172,-0.0420832951774669
4.4,4.26051420097716,-2.76350758812311,3.27630722176237,0.276251926017219,-0.0205299037304686,0.0184764709815159,2.17963896756579,-0.855947119351977,-0.434244998267811,0.16959317248565,0.155680324238617,-0.0153271242119905,3.98847987828519,0.000553414910433362,0.00471911139325646,0.000194673193171285,2.17963896756579,-0.855947119351977,-0.434244998267811,0.16959317248565,0.155680324238617,-0.0153271242119905,0.117321478173325,2.17826796993388,-2.13710802370693,0.045718857010461,0.365465740030701,0.00918515969785179
4.5,4.43393082049864,-2.77125019518643,3.24609846370994,0.245051831283639,-0.0192736224043032,-0.0201311933673533,2.16377826721081,-0.660244137867855,-0.667388353570767,0.222590457022918,0.229417974446652,-0.000346908956150757,4.07508470702733,7.40414626220467e-05,0.00346738465332133,0.00127455040402378,2.16377826721081,-0.660244137867855,-0.667388353570767,0.222590457022918,0.229417974446652,-0.000346908956150757,0.192152491901789,1.97381690375882,-1.90478743308671,0.00677772153342978,0.268908026328405,0.0546835433147683
4.6,4.5732481128498,-2.74486101627062,3.11682086557897,0.282601004918545,0.0295243729428283,-0.0118264856836758,2.18954879943099,-0.427507875431908,-0.759811797371893,0.207496672301566,0.198619259699494,0.0283916018607275,4.04401019072468,-0.00197688559626264,0.00282313911283069,-0.00064843600266561,2.18954879943099,-0.427507875431908,-0.759811797371893,0.207496672301566,0.198619259699494,0.0283916018607275,-0.20259964169678,2.25793412731271,-2.04618904450647,-0.158782926065498,0.219497558760691,-0.0265832202839608
4.7,4.74035438006443,-2.67190841511447,3.03873877885384,0.303847307281729,0.0412355511226461,0.0155098168664981,2.20535033076807,-0.161263450981842,-0.815464552506154,0.126771049174956,0.199819696214731,-0.00156156133437777,3.97164208028305,-0.0020452827817488,0.00312272360432368,-0.000674366339340934,2.20535033076807,-0.161263450981842,-0.815464552506154,0.126771049174956,0.199819696214731,-0.00156156133437777,-0.349274318410867,2.37144712035512,-2.23702111046396,-0.164259682093056,0.243559669571933,-0.0278063968674934
4.8,4.93163422725502,-2.5737133928964,3.01994339555046,0.301352287444906,0.0763331062057019,0.0253456537535929,2.2073671209276,0.110601467671708,-0.974500010080949,0.13453755827785,0.239984869372938,0.0146166319880997,3.93825919798895,-0.00348407094029514,0.00137647225830895,-0.00198407440903448,2.2073671209276,0.110601467671708,-0.974500010080949,0.13453755827785,0.239984869372938,0.0146166319880997,-0.632651073457476,2.32255653393473,-2.31033162012423,-0.280486241807077,0.109303253129812,-0.0832301402294174
4.9,4.99921622647834,-2.55759150022383,2.84204933793021,0.236047054238211,0.031176995137379,-0.0442322916017872,2.01562834743613,0.260330436903094,-1.17980402732983,0.00131434700408084,0.114436358154164,-0.0804503947050106,4.07003157634378,0.00261168298846528,0.00565587536716515,0.00586062007012834,2.01562834743613,0.260330436903094,-1.17980402732983,0.00131434700408084,0.114436358154164,-0.0804503947050106,-0.16228894695579,1.91269124367739,-1.8995068021142,0.210919970010251,0.439095787082829,0.247557074583727
5,5.10656413883124,-2.45876698744974,2.72808174218193,0.21024564817332,0.0148293267214318,-0.0516519564596378,2.04254182634662,0.496851534041807,-1.28464761743309,0.278505503145259,0.320696081127006,0.118993510984341,4.09855402137839,-0.00471248624703587,0.00175285744214631,-0.00334282467864177,2.04254182634662,0.496851534041807,-1.28464761743309,0.278505503145259,0.320696081127006,0.118993510984341,-0.0303942970257596,1.71459355924781,-1.79427636592166,-0.379977820649272,0.136211872163136,-0.140883750370026
5.1,5.28262930533163,-2.29349277786776,2.60838755813504,0.37754368850602,0.151067342197504,0.060763674366088,2.10845475129313,0.73710307899405,-1.37146567120782,-0.00929039851455832,0.225473812452982,-0.0480243966485659,4.05722872194836,-0.0059517469175787,-0.00104534972995601,-0.000698467080038442,2.10845475129313,0.73710307899405,-1.37146567120782,-0.00929039851455832,0.225473812452982,-0.0480243966485659,-1.31472424887454,2.91684433837001,-2.35292692378899,-0.480188005234729,-0.0747214388345646,-0.0296261079737889
5.2,5.42843798289742,-2.16845196405246,2.46744463412241,0.254640722334213,0.122988445690456,-0.0165094754968777,1.90030862825812,1.13863556393914,-1.28739090701765,-0.080333263277152,0.0935955094317643,-0.00149820522254681,3.86470398911383,-0.0012345987767268,0.0039868973024068,0.000736100962799283,1.90030862825812,1.13863556393914,-1.28739090701765,-0.080333263277152,0.0935955094317643,-0.00149820522254681,-0.885388387511202,1.96190434253799,-2.38633739668347,-0.0999298613047132,0.310665334223912,0.0306726046000467
5.3,5.49564164102882,-1.97511590813547,2.54076414144693,0.201956608002419,0.0607946250494849,-0.00181718428574942,1.83054412223425,1.20131241631785,-1.77868246755286,0.0862677425112342,0.291045866230366,0.0170290960524515,4.08179729027453,-0.00395184143615815,0.00105390269517198,-0.000853419740931002,1.83054412223425,1.20131241631785,-1.77868246755286,0.0862677425112342,0.291045866230366,0.0170290960524515,-0.482939902478322,1.63838761199087,-1.82709754794417,-0.319147298121852,0.0849197897611325,-0.0364825133199899
5.4,5.60732425642538,-1.85900388911636,2.18362713931552,0.287081699301482,0.169299680425162,0.00950269453208215,1.80666735054344,1.41010853411421,-1.7496527656413,-0.0274944224824723,0.193429848124994,-0.00799262426952747,4.14400173110163,-0.00580393286463456,-0.00077055947487771,-0.000112565662170481,1.80666735054344,1.41010853411421,-1.7496527656413,-0.0274944224824723,0.193429848124994,-0.00799262426952747,-1.36155171427545,2.33395320032031,-1.97483307276984,-0.468900554544548,-0.0547377289793078,-0.00553292495090649
5.5,5.6782732123932,-1.7166265295633,2.01960994990203,0.214860612594611,0.115868032910949,-0.0257686616141653,1.55295165599478,1.70365880994861,-1.71651203798709,-0.146174089579995,0.0983593143826656,-0.0142786903799724,4.02875227896194,-0.00147052167132835,0.00327916178262763,0.00185152482941401,1.55295165599478,1.70365880994861,-1.71651203798709,-0.146174089579995,0.0983593143826656,-0.0142786903799724,-0.865533813187762,1.74082972673302,-1.99055355017279,-0.119580181578344,0.256467848316235,0.0771474646804456
5.6,5.71140540462871,-1.50368673596165,2.01520009922018,0.156637201788884,0.0835134103818454,-0.0214140820236615,1.51244743689784,1.80390130225799,-2.02721197315508,0.0201279746433539,0.266844365027317,0.0305176899433307,4.14782141648533,-0.00412178258302687,0.000149939790437631,-0.000468600503757857,1.51244743689784,1.80390130225799,-2.02721197315508,0.0201279746433539,0.266844365027317,0.0305176899433307,-0.655654096886367,1.3084384068285,-1.64447511466717,-0.333363969897554,0.0151221831888068,-0.0208098247815104
5.7,5.82053171943584,-1.32111734314446,1.73930068661696,0.249888611983623,0.190927293097088,0.0153929990725713,1.49456822688298,1.96815239261127,-2.00224293190661,-0.0836181738134991,0.16883538580218,0.00132494139187576,4.21477697148632,-0.00672561097425639,-0.00162301711533003,-0.000769356083079508,1.49456822688298,1.96815239261127,-2.00224293190661,-0.0836181738134991,0.16883538580218,0.00132494139187576,-1.58188899553097,2.06049029750155,-1.79068664926943,-0.543941490895602,-0.120201878378084,-0.0337698181487942
5.8,5.93425911500204,-1.09886128533031,1.61463595578429,0.227485832178186,0.185430791442641,0.0240691451596007,1.27562415887446,2.31162752402041,-1.95959545809973,-0.195416651078348,0.113040493710894,0.0125160621221805,4.1347309079433,-0.00560523495458849,-0.000480036856541605,-0.00171918511378324,1.27562415887446,2.31162752402041,-1.95959545809973,-0.195416651078348,0.113040493710894,0.0125160621221805,-1.52981467681715,1.82871407780674,-1.89170027085152,-0.453804448132235,-0.0323353937007543,-0.0739828626413399
5.9,5.9411911123441,-0.845604690986197,1.59325330045476,0.155592232592014,0.155448169921214,0.0169305735440097,1.10522117778016,2.44443086123279,-2.17698933207263,-0.185885292515797,0.143773227161549,-0.0231555681735671,4.155879121771,-0.00422070735276354,-0.000649591080505212,0.000298911998097007,1.10522117778016,2.44443086123279,-2.17698933207263,-0.185885292515797,0.143773227161549,-0.0231555681735671,-1.29292901094674,1.26632582283861,-1.6976588716849,-0.342456324150381,-0.0452164844947862,0.011138450041285
6,5.93090100256072,-0.661633221474551,1.34200713633237,0.123060593347558,0.154150672367352,-0.0208427829283221,0.948855606787407,2.48886868400543,-2.27305421551175,-0.164775288161561,0.116089616059192,0.000120373327818399,4.25062623366352,-0.00395276390258159,-0.000549756798993919,0.000974028513028415,0.948855606787407,2.48886868400543,-2.27305421551175,-0.164775288161561,0.116089616059192,0.000120373327818399,-1.27338893310855,1.07030217652819,-1.47308046163394,-0.320685885935369,-0.0384743707128723,0.0395741157498827
6.1,5.97088634301621,-0.444596331821759,1.1509420012621,0.14838151463757,0.175425641584219,0.0158602766277409,0.853555143641606,2.63225651914567,-2.2322127788943,-0.149973338752735,0.138615184735462,0.0383324849570336,4.27436701705707,-0.00669853059359878,-0.00254100013605969,-0.00258958523770794,0.853555143641606,2.63225651914567,-2.2322127788943,-0.149973338752735,0.138615184735462,0.0383324849570336,-1.49545084406727,1.24026326444099,-1.48496382026613,-0.542248014042094,-0.191825648637229,-0.110813127830191
6.2,5.97028775674527,-0.239013220126729,0.999389632772507,0.125454597628661,0.169906748838259,0.00890044194293099,0.630015408101745,2.75303554490892,-2.32322958123933,-0.306886419061236,0.0348819497241553,-0.0603289966913244,4.32646092197913,-0.00313989155922364,-0.000515853032208838,0.00237144834413746,0.630015408101745,2.75303554490892,-2.32322958123933,-0.306886419061236,0.0348819497241553,-0.0603289966913244,-1.46120641536381,1.06974067865504,-1.34870062403059,-0.256074590812241,-0.0351661499883914,0.0984737835947553
6.3,5.92716664048334,-0.0253623913080907,0.8366130036087,0.0328426218565837,0.123984257971391,-0.0393682625749851,0.460494422357112,2.83422535233204,-2.35202830734289,-0.181190915013031,0.108301197416588,0.0417997868889347,4.2981432239414,-0.00340551096000684,-0.00111594647690908,-0.00017121912944456,0.460494422357112,2.83422535233204,-2.35202830734289,-0.181190915013031,0.108301197416588,0.0417997868889347,-1.05056938299405,0.323873188923084,-1.28430056692908,-0.276486374434232,-0.0832525742923629,-0.00868141093472355
6.4,5.90569455404198,0.200176880704387,0.679015448007014,0.0787884407756881,0.162764901092573,0.0104435563332887,0.412972079174893,2.77060712558835,-2.3756422891591,-0.204401617863484,0.0796398656960047,-0.00787601861299853,4.34629353429778,-0.00491723397850423,-0.00233327704013419,-0.00017893324176106,0.412972079174893,2.77060712558835,-2.3756422891591,-0.204401617863484,0.0796398656960047,-0.00787601861299853,-1.41130785699357,0.669464730197893,-1.25891252220373,-0.399270726838704,-0.176097154998532,-0.00898618771597127
6.5,5.90935266636901,0.373755996187958,0.47081093196584,0.0537516289285783,0.155004303951963,-0.0150853302894756,0.20567102648377,2.88980549199051,-2.43639719000476,-0.285778465029037,0.0232422143762313,-0.0111179706201527,4.44266027982005,-0.00308840380894376,-0.00133759539975615,0.0011659107831522,0.20567102648377,2.88980549199051,-2.43639719000476,-0.285778465029037,0.0232422143762313,-0.0111179706201527,-1.36241639518745,0.497978885885322,-1.04388569302795,-0.251734486862387,-0.0999348984291896,0.0478198912142445
6.6,5.86394722034251,0.6088605694759,0.343274676387653,0.0111136485413184,0.140720990865415,-0.00894663364011237,0.0755754133671167,2.93266968661676,-2.37694594666698,-0.218741154187746,0.063527745667326,0.026044088066385,4.37611182082318,-0.00399779527843949,-0.00234967999354254,-0.000885140746697925,0.0755754133671167,2.93266968661676,-2.37694594666698,-0.218741154187746,0.063527745667326,0.026044088066385,-1.22656562659381,0.108244954144849,-1.14482611444213,-0.324885010512398,-0.17834192501633,-0.0385742906388101
6.7,5.83961417209759,0.838039819111466,0.228656012124361,0.0404373433269597,0.175117424701919,0.0217369312374637,-0.0042124545688198,2.89878539901803,-2.44194971416204,-0.260617787194461,0.025388286790139,-0.00694843722401991,4.45349399968597,-0.00464247080434178,-0.00326943909800425,-0.000752264950130032,-0.0042124545688198,2.89878539901803,-2.44194971416204,-0.260617787194461,0.025388286790139,-0.00694843722401991,-1.55800048931,0.326290380843611,-1.04640460292499,-0.37746410194362,-0.248897251070118,-0.0328745550596762
6.8,5.77594274669327,0.992518738854173,0.00743491583492562,-0.0235547305900022,0.131347049169822,-0.0234769342018549,-0.280880161891303,2.92472812587039,-2.48520128986504,-0.330065052168769,-0.0452363114161789,-0.0315242573648622,4.49643970626795,-0.000981253801760768,-0.000859202115547645,0.00256802347460187,-0.280880161891303,2.92472812587039,-2.48520128986504,-0.330065052168769,-0.0452363114161789,-0.0315242573648622,-1.18211566967018,-0.18410609642615,-0.897055053620559,-0.0820984734958624,-0.0639449821377556,0.107363558609315
6.9,5.69416079711011,1.22237482371762,-0.103723209191809,-0.0450988288836651,0.126139215756819,-0.0069296000114738,-0.296718684683504,2.85373527497378,-2.39858315597811,-0.164492835512012,0.0676488088085516,0.0662016321111886,4.40995639895633,-0.00458445147139298,-0.00356170882665843,-0.0028426186399789,-0.296718684683504,2.85373527497378,-2.39858315597811,-0.164492835512012,0.0676488088085516,0.0662016321111886,-1.11118954199328,-0.389942239743048,-1.0690581391813,-0.371998778926882,-0.272621894901462,-0.120723076391667
7,5.68232085419027,1.41230692632386,-0.234744579814695,0.0291511254117186,0.189743037088497,0.0515353728171165,-0.369946118053132,2.79574716143465,-2.49821669910507,-0.318715219597463,-0.0430451712776117,-0.0415648960256741,4.5772147801173,-0.0040000537119492,-0.00389476563506783,-0.000419039200793916,-0.369946118053132,2.79574716143465,-2.49821669910507,-0.318715219597463,-0.0430451712776117,-0.0415648960256741,-1.73730527525484,0.177566828223855,-0.823687019951764,-0.326283765578486,-0.297725838517319,-0.0183872874539121
7.1,5.61015807905015,1.56133363008848,-0.448943985905822,-0.0736056035164523,0.126205798784528,-0.0170118343068491,-0.706641019553409,2.90253347464583,-2.49450627225969,-0.324317695224294,-0.0789080554360076,-0.00694818826221555,4.59621188839207,-0.00108181883458035,-0.00168771563947524,0.00119260577059771,-0.706641019553409,2.90253347464583,-2.49450627225969,-0.324317695224294,-0.0789080554360076,-0.00694818826221555,-1.16525947002328,-0.656275824007311,-0.715379210636046,-0.0900448389380685,-0.128769182919784,0.0498141979768175
7.2,5.46026668796086,1.79367537538005,-0.53672924348941,-0.0843001769242939,0.115971192441255,0.00967214359388802,-0.705311253835404,2.67236807284951,-2.3799910016531,-0.202838175217378,0.00445898013718662,0.0382079031462487,4.44205978405737,-0.00331843914745396,-0.0034616606838707,-0.00222154661169722,-0.705311253835404,2.67236807284951,-2.3799910016531,-0.202838175217378,0.00445898013718662,0.0382079031462487,-1.01706043896503,-0.757918568254579,-1.01689315384225,-0.270187914678867,-0.265654708779994,-0.0940420927780869
7.3,5.39604644538164,1.88677591624134,-0.696223613256776,-0.0609171059650963,0.13632172690922,0.0184420167121581,-0.793699791020392,2.54880373398498,-2.58638662498716,-0.318939670028109,-0.0921225028209206,-0.0503624463170976,4.63030856507726,-0.000914693279960953,-0.00213612572618193,0.00158987460599753,-0.793699791020392,2.54880373398498,-2.58638662498716,-0.318939670028109,-0.0921225028209206,-0.0503624463170976,-1.24557221237015,-0.586850510260413,-0.652315468761227,-0.0770808520936329,-0.163813393293236,0.0668917468636552
7.4,5.3553470707881,2.06025825674648,-0.900192676294601,-0.0893327907709468,0.130637928800893,0.0155376726322772,-0.911018724535131,2.59422364233798,-2.4371523514589,-0.192456604248866,-0.0109378544045543,0.0660310189997201,4.6154306768832,-0.00397419258934899,-0.00439619413839321,-0.00374617493577736,-0.911018724535131,2.59422364233798,-2.4371523514589,-0.192456604248866,-0.0109378544045543,0.0660310189997201,-1.18473893582221,-0.842031237310445,-0.694289474659787,-0.322745175610905,-0.338148777941747,-0.158076772454738
7.5,5.23077341251918,2.21987014549214,-0.994149889306933,-0.0677927050133802,0.141808633457988,0.0483465185921503,-1.05668314264532,2.41272014669748,-2.48039154469343,-0.350379925914476,-0.139455481814319,-0.0716597319893945,4.64153415861034,-0.000728243872156888,-0.00240832042384754,0.00128135541068194,-1.05668314264532,2.41272014669748,-2.48039154469343,-0.350379925914476,-0.139455481814319,-0.0716597319893945,-1.27707777042776,-0.691368430453036,-0.641224757698625,-0.0621808516681302,-0.185537755241344,0.0541594448995474
7.6,5.0514841715498,2.26215470416308,-1.21550448530768,-0.20686576974274,0.0286970273868915,-0.064742121680694,-1.29392866861707,2.2929590311376,-2.57589607228995,-0.267967759606103,-0.101496598146193,-0.0065775108817567,4.67403774520357,0.00341549592734124,3.58889300375955e-05,0.00341587693017556,-1.29392866861707,2.2929590311376,-2.57589607228995,-0.267967759606103,-0.101496598146193,-0.0065775108817567,-0.386176750301726,-1.8990281062578,-0.664997258419215,0.273451731303041,0.00223438328504884,0.144394638665136
7.7,4.92343318398381,2.41129144005464,-1.36426342905007,-0.154044372499576,0.0728386055405202,-0.00134940894231198,-1.07092916958205,1.82730875824231,-2.36112037709861,-0.0551021941296152,0.0121612488544068,0.075104881804604,4.4601596184514,-0.00236002935833312,-0.00298142359907533,-0.00346521001941428,-1.07092916958205,1.82730875824231,-2.36112037709861,-0.0551021941296152,0.0121612488544068,0.075104881804604,-0.643328515583177,-1.36782996768877,-1.01868241451895,-0.192107637802682,-0.230090530892677,-0.145831469650984
7.8,4.88562819870597,2.34585366088363,-1.50383793652266,-0.106285883485938,0.0873391726391391,0.00633946390464778,-1.24827618415994,1.79173272886031,-2.74351773344886,-0.327484918185137,-0.1478917948034,-0.106359568984805,4.80676550284714,0.00291488523328398,-0.000199860173301259,0.00477929955300371,-1.24827618415994,1.79173272886031,-2.74351773344886,-0.327484918185137,-0.1478917948034,-0.106359568984805,-0.827356616614196,-1.02512549073236,-0.287154986316285,0.232041100516207,-0.0167292234210365,0.202067178674548
7.9,4.80230025161287,2.50880058688804,-1.74963253635401,-0.18239169027723,0.0617850093827645,-0.0262745944151076,-1.29570898825751,1.86443542517556,-2.42520800206753,-0.060120571741343,0.0158618161052195,0.122229667748121,4.68884771671352,-0.00218025366443987,-0.00316443335017367,-0.00450557717530503,-1.29570898825751,1.86443542517556,-2.42520800206753,-0.060120571741343,0.0158618161052195,0.122229667748121,-0.613917837211128,-1.68539931251122,-0.605451901985676,-0.177007389908993,-0.244211650069763,-0.189585603852124
8,4.6868322027663,2.63759381579294,-1.77599456948652,-0.0880699238196453,0.121708492917698,0.0675804818315122,-1.32519937544954,1.49421750598741,-2.51672922292246,-0.284134317001313,-0.134385216671097,-0.0928458516328438,4.71202668875595,0.000767912730677607,-0.00190497946589024,0.00127614313751711,-1.32519937544954,1.49421750598741,-2.51672922292246,-0.284134317001313,-0.134385216671097,-0.0928458516328438,-1.08114668188109,-0.90397546216644,-0.491913700858316,0.0588647842779312,-0.148682847053588,0.0544005777671127
8.1,4.59222959432067,2.61633409116209,-1.95959231454357,-0.193739668907003,0.0552060924053425,-0.0260857995449473,-1.53526848142914,1.63064217508344,-2.6299442467638,-0.158116577916817,-0.0774201374417308,0.0354647661472935,4.86927284249048,0.000924930972705965,-0.00127964130540514,-0.000408114704468383,-1.53526848142914,1.63064217508344,-2.6299442467638,-0.158116577916817,-0.0774201374417308,0.0354647661472935,-0.576025633144002,-1.86057019157149,-0.268210592836471,0.073074163277656,-0.0998481908320006,-0.0165891130879774
8.2,4.4215851330572,2.77319055772045,-2.13904900312471,-0.146860057678839,0.0802027532264917,0.0355373713504541,-1.47042405201299,1.17485940483786,-2.38488612645646,-0.141882607821461,-0.0657214395032041,0.0029907060274656,4.68897851698121,-5.37952845171769e-05,-0.00214377017520486,-0.00178631885261189,-1.47042405201299,1.17485940483786,-2.38488612645646,-0.141882607821461,-0.0657214395032041,0.0029907060274656,-0.694017103237891,-1.39784286121522,-0.562813740028362,-0.00626229772408415,-0.166983789049607,-0.0747083634336229
8.3,4.36590735935655,2.7111607251102,-2.18306545181467,-0.132923109088436,0.0978265049566442,0.0395522582034861,-1.53212272980992,1.20911604227865,-2.62866036253252,-0.167738467301301,-0.0920499900958958,-0.0159068884327267,4.89302333383077,-0.000250337173282369,-0.00212905612542227,-0.00106746038369513,-1.53212272980992,1.20911604227865,-2.62866036253252,-0.167738467301301,-0.0920499900958958,-0.0159068884327267,-0.895351630747866,-1.33341140551343,-0.156655042804427,-0.0220702354074558,-0.166075082745089,-0.0443508788179453
8.4,4.19748809139932,2.76014356609302,-2.47612638361392,-0.192597933562424,0.0413082388089208,-0.0084945267648941,-1.74725584546311,1.02117164546313,-2.50950631715438,-0.210198396862936,-0.130488824954914,-0.0358231657789489,4.91374628183587,0.00359439475794133,5.34029737672458e-05,0.00211743337256218,-1.74725584546311,1.02117164546313,-2.50950631715438,-0.210198396862936,-0.130488824954914,-0.0358231657789489,-0.414301358129795,-1.8776233039643,-0.17244350459695,0.288297395948619,0.00186876630665769,0.0900501404333214
8.5,4.0103297753884,2.76528055064021,-2.56546577554316,-0.218294529727894,0.0198735763453571,-0.0166470571433094,-1.6559946376393,0.679059557300615,-2.44222532842205,-0.0387990428113351,-0.0415232881938462,0.0386448186994452,4.82112438119354,0.00174890996104028,-0.000591276934511782,-0.00104375143402833,-1.6559946376393,0.679059557300615,-2.44222532842205,-0.0387990428113351,-0.0415232881938462,0.0386448186994452,-0.221800436837968,-2.0847697577918,-0.398437918232153,0.140008223773478,-0.0472749506560214,-0.0433309400130341
8.6,3.95095574330934,2.70594052158034,-2.68542860156687,-0.138129914390122,0.0708546337660949,0.0336020342163323,-1.59939001543748,0.441147027576818,-2.53369845738923,-0.0929385386972874,-0.0614745271706264,-0.0180969490550033,4.91628771791444,0.000810574115021208,-0.00132745402777057,-0.000727239720253914,-1.59939001543748,0.441147027576818,-2.53369845738923,-0.0929385386972874,-0.0614745271706264,-0.0180969490550033,-0.64359751298816,-1.37625696745946,-0.0955139764339545,0.0639581785491202,-0.104686510474904,-0.0299869875210969
8.7,3.87225542523988,2.65895315104792,-2.86987424663102,-0.158687453541633,0.064153793446142,0.0159964841392859,-1.76497551065702,0.52429568798593,-2.51316988153561,-0.121739175116702,-0.0875528906517269,-0.00721608023001548,5.01915543454744,0.00146130890838106,-0.0009478954272417,-0.000406363712227634,-1.76497551065702,0.52429568798593,-2.51316988153561,-0.121739175116702,-0.0875528906517269,-0.00721608023001548,-0.610013084548468,-1.59623872485537,0.0817941281923353,0.116690148387216,-0.0752304817289915,-0.0164551221186613
8.8,3.64998101132971,2.68178561796257,-3.04618337360268,-0.216806869883741,0.00863542175308879,-0.0203960295732794,-1.88639691938225,0.232331670987012,-2.45145493109203,-0.123323512740557,-0.109450030349314,-0.0344471256913441,5.02862516815193,0.00496150966837918,0.00103810631205854,0.00259478921419617,-1.88639691938225,0.232331670987012,-2.45145493109203,-0.123323512740557,-0.109450030349314,-0.0344471256913441,-0.128919218956155,-2.16125900351668,0.0114369458743671,0.399118383730704,0.0775714969039874,0.110157627365793
8.9,3.49548923114832,2.60534994071891,-3.15410216117681,-0.213739019362052,0.0024205596292,-0.0242183042396413,-1.74865048546375,-0.131266378104224,-2.39976557068862,0.0459313600508818,-0.0186962408654485,0.043276812697994,4.99796578199753,0.00233111517837513,0.000150412635756895,-0.000905873322265831,-1.74865048546375,-0.131266378104224,-2.39976557068862,0.0459313600508818,-0.0186962408654485,0.043276812697994,-0.0749830204465409,-2.11909576754289,-0.0415580307451648,0.187380940825902,0.00994300224392477,-0.0375870909609957
9,3.44501011620419,2.47685866864919,-3.27615278172231,-0.132919587595016,0.052463097175641,0.0238962465420855,-1.72174270756592,-0.301769149698019,-2.43742215894777,-0.040360237881744,-0.0459679688664277,-0.0229901435622775,5.06694177593205,0.00179280683785134,-0.000457627655587445,-4.53598414631345e-05,-1.72174270756592,-0.301769149698019,-2.43742215894777,-0.040360237881744,-0.0459679688664277,-0.0229901435622775,-0.494482916524967,-1.35523085135216,0.220674544991969,0.143623476357463,-0.0377510555670561,-0.00130180951178662
9.1,3.28709015095257,2.34373656422838,-3.48868243430167,-0.217428846336095,-0.0117019339463007,-0.0520866383877475,-1.96506328241567,-0.295623253059016,-2.45395696901901,-0.0951444355808153,-0.109476350674452,-0.0448231578209853,5.23069540072962,0.00682952580049028,0.00210992003969019,0.0045955466588513,-1.96506328241567,-0.295623253059016,-2.45395696901901,-0.0951444355808153,-0.109476350674452,-0.0448231578209853,0.00187911199729208,-2.25989101931064,0.404381359173613,0.55003716794372,0.160225058276282,0.19449692171265
9.2,3.14407615289565,2.41530790872321,-3.56896511389749,-0.174913108787802,0.0234447196159035,0.00206662094031102,-1.71640727007887,-0.66737172427907,-2.18566211607169,0.192635302102307,0.0557138051307484,0.120320951215803,5.0247650103929,-0.00129739475586178,-0.00143473418122184,-0.0057896641744347,-1.71640727007887,-0.66737172427907,-2.18566211607169,0.192635302102307,0.0557138051307484,0.120320951215803,-0.228377474540156,-1.74932077512882,0.0834712913870845,-0.1049618878986,-0.111480051758165,-0.243749498829084
9.3,3.07722156819136,2.17817854925324,-3.63918378255979,-0.0908402753878337,0.0556088684275498,0.0389324744480197,-1.86685548931264,-0.743808630089889,-2.45427530707319,-0.176247748762621,-0.119968898416224,-0.14546640917558,5.26687044054108,0.00496344192982364,0.00112176216520049,0.005047556182504,-1.86685548931264,-0.743808630089889,-2.45427530707319,-0.176247748762621,-0.119968898416224,-0.14546640917558,-0.545418367549714,-0.977542310581869,0.66409312471219,0.399031451609923,0.0826705920854192,0.2135129543105
9.4,2.9425680168379,2.15843751333935,-3.84966964553243,-0.206348587524064,0.0114894025768931,-0.0379228947037095,-1.94085191643588,-0.564285722314627,-2.15685143887866,0.129139301704308,0.0234688417775851,0.128174139696256,5.1973363598205,0.000579882337787214,-0.000774151875406446,-0.00427552492605767,-1.94085191643588,-0.564285722314627,-2.15685143887866,0.129139301704308,0.0234688417775851,0.128174139696256,-0.197554776200091,-2.12377358731681,0.363484103721039,0.0466180531610756,-0.0600806919068992,-0.17990814298735
9.5,2.74141568763941,2.15597019015053,-3.90555200720827,-0.114067354290814,0.0427867419204879,0.0451874004339802,-1.92616001369839,-1.14387425897207,-2.26110206597501,-0.0737229183346686,-0.0913759322863102,-0.108009370233071,5.27821369389806,0.00423897172037943,0.0010557350240733,0.00297723011120378,-1.92616001369839,-1.14387425897207,-2.26110206597501,-0.0737229183346686,-0.0913759322863102,-0.108009370233071,-0.393869304475405,-1.22057198825844,0.668226480959605,0.340860230932475,0.0779009683254362,0.126106141135828
9.6,2.65530991180765,1.88362088942023,-4.04199166826601,-0.172517810180427,0.0112917588661153,-0.0311016373803531,-1.97277204908942,-0.970698313157052,-2.11401972940287,0.11281731978346,0.00859287089017252,0.0737135544412832,5.27463045025907,0.00143150050874532,-5.76444266213129e-05,-0.00201732388024938,-1.97277204908942,-0.970698313157052,-2.11401972940287,0.11281731978346,0.00859287089017252,0.0737135544412832,-0.173605747734588,-1.8063962595441,0.582001690966916,0.115194041797403,-0.00540780094201187,-0.0846802835388919
9.7,2.50772283605982,1.9042776537905,-4.12102687383009,-0.0876017235733622,0.0610807789505692,0.0516050572863792,-1.92519596747036,-1.29371005692173,-2.10066180294711,0.00957817084694271,-0.0347974938270516,-0.0328925550239071,5.30094785530119,0.00131724118383424,-0.000491673948718422,-0.000884821183658547,-1.92519596747036,-1.29371005692173,-2.10066180294711,0.00957817084694271,-0.0347974938270516,-0.0328925550239071,-0.595984211768722,-0.959576501734445,0.731546775266457,0.105545365183348,-0.0403402773478102,-0.0369090761355336
9.8,2.37992136870162,1.67006224196095,-4.25676415378566,-0.14810466481162,0.0204459136594448,-0.0122032563525826,-2.12392850003639,-1.19290511090222,-2.06264476902707,-0.00479458332726626,-0.0696924786412307,-0.0265890629633469,5.38971715006264,0.00393577390929184,0.00111582476828396,0.00183749048551806,-2.12392850003639,-1.19290511090222,-2.06264476902707,-0.00479458332726626,-0.0696924786412307,-0.0265890629633469,-0.237361877950812,-1.58787613803881,0.8491984942518,0.316934921889555,0.0840290582971674,0.0779330034116379
9.9,2.17559477719193,1.66305004923738,-4.35466847399219,-0.139035885399099,0.01635356051701,0.00127728105788812,-2.03238533931825,-1.48933023396173,-1.92413577534431,0.12817009775856,0.00792639185782326,0.0463961732662734,5.35733543999565,0.00119158819351176,-3.0546510101047e-05,-0.00225336677441095,-2.03238533931825,-1.48933023396173,-1.92413577534431,0.12817009775856,0.00792639185782326,0.0463961732662734,-0.171627581887614,-1.48514918153902,0.799856170007335,0.0958116616357521,-0.00358515897600834,-0.0947198700876641
10,2.066696187382,1.42975818062667,-4.42899175300832,-0.0920996937545205,0.0363458702732092,0.0214568672734282,-2.05258134777488,-1.62405413600683,-1.92748612833161,0.0113721679852787,-0.0472755512606997,-0.0555353822673388,5.42175983343775,0.00300963821284221,0.000673684694717987,0.00161651565154154,-2.05258134777488,-1.62405413600683,-1.92748612833161,0.0113721679852787,-0.0472755512606997,-0.0555353822673388,-0.370873378196531,-1.00546219022022,0.980431756296801,0.242192045713051,0.0497046123459706,0.068552418126825
10.1,1.93949641272253,1.29289104209843,-4.537562843933,-0.124851570210829,0.022080065423697,-0.0100516446742873,-2.11817563553741,-1.57703234171314,-1.79581735192196,0.107540156213331,-0.00656605231972231,0.0403114598436352,5.42233868505985,0.00162689313728964,0.000109883229643115,-0.00143015830316674,-2.11817563553741,-1.57703234171314,-1.79581735192196,0.107540156213331,-0.00656605231972231,0.0403114598436352,-0.251130147363421,-1.34800400000552,0.947641290126795,0.13097850323362,0.00747224015063299,-0.0600288331307019
10.2,1.73551109843566,1.18282435348642,-4.62931466595722,-0.111338641790432,0.00909393768085661,-0.000681008557807387,-2.16352011699936,-1.84334192536357,-1.79564027291579,0.0325421725191615,-0.0550222816982624,-0.0530621082387774,5.52201700122381,0.00422302680918066,0.00155138506627406,0.00255469573398779,-2.16352011699936,-1.84334192536357,-1.79564027291579,0.0325421725191615,-0.0550222816982624,-0.0530621082387774,-0.100646155679775,-1.22702059251623,1.1651983063682,0.340163473254253,0.117622005593901,0.10809023493967
10.3,1.58765008908906,0.965850660211722,-4.72734447855457,-0.131950143714269,-0.00951484819150872,-0.0353140179324994,-2.12572925896387,-1.92375093088241,-1.61345608390253,0.159135595232693,0.0127689592931767,0.0421843174592254,5.50045863835551,0.00266488053476135,0.000979245874520144,-0.000308772623564914,-2.12572925896387,-1.92375093088241,-1.61345608390253,0.159135595232693,0.0127689592931767,0.0421843174592254,0.0525942882791939,-1.45012514441207,1.09479490111681,0.214764795657884,0.0746482861059146,-0.0127661190462758
10.4,1.50914027747903,0.85992772757418,-4.71894708999783,-0.0316877114212343,0.0615855063115926,0.046969326782529,-2.01611305903435,-2.04268453615696,-1.55218705273441,0.141205995013025,0.0294540246783726,0.0148777368226856,5.4440253118096,-0.000870219597591663,-0.00144830892457911,-0.00291949873009362,-2.01611305903435,-2.04268453615696,-1.55218705273441,0.141205995013025,0.0294540246783726,0.0148777368226856,-0.652850664496636,-0.376027056145305,1.05195360169649,-0.0705043697102798,-0.112783618141037,-0.122935783830126
10.5,1.3743734861145,0.631626484299852,-4.82847841728201,-0.0693077379080734,0.0304592767076129,-0.000279018035704716,-2.3087845230615,-1.88343955863493,-1.57761580388761,-0.0364567991250096,-0.103154591417438,-0.0783398383472806,5.58616877651425,0.00459306737043772,0.00164807438486539,0.00372844515865539,-2.3087845230615,-1.88343955863493,-1.57761580388761,-0.0364567991250096,-0.103154591417438,-0.0783398383472806,-0.339647693199165,-0.77361493078639,1.3303449579526,0.369997488005022,0.125250264518542,0.157564961665898
10.6,1.11518405205395,0.615351850128812,-4.91719238033697,-0.124803197442341,-0.0142953185647282,-0.028137165525323,-2.24340134404437,-2.02688751554984,-1.35644018146469,0.213999536546351,0.0376190975045476,0.0832992112068356,5.54824309848133,0.00117902401461205,0.000226912049858629,-0.00259694998900271,-2.24340134404437,-2.02688751554984,-1.35644018146469,0.213999536546351,0.0376190975045476,0.0832992112068356,0.118466061583436,-1.38516579447897,1.19905479291666,0.0950318663306528,0.0172150109277146,-0.109375004268616
10.7,0.960756380913283,0.379032256938397,-4.947845177471,-0.0477857131867481,0.0130365930176164,0.0068507413351188,-2.18154328009623,-2.35673735610963,-1.37953341268791,0.0536116304953867,-0.0451703811514702,-0.0844281689421255,5.64354001520589,0.00396126968955833,0.00153274798793235,0.00368912440590987,-2.18154328009623,-2.35673735610963,-1.37953341268791,0.0536116304953867,-0.0451703811514702,-0.0844281689421255,-0.143275898746912,-0.54015013665036,1.46323757665185,0.319079236771726,0.116447980464228,0.155854265501542
10.8,0.878446726050063,0.11287543369998,-5.01996219202529,-0.0855038911353675,-0.00392395162967173,-0.0424099013060622,-2.21961391544614,-2.17992010133599,-1.14305580813282,0.200077698838705,0.0277598463789166,0.0747648908822663,5.57082345609925,0.00159618336389225,0.000549854332053338,-0.00151251020610956,-2.21961391544614,-2.17992010133599,-1.14305580813282,0.200077698838705,0.0277598463789166,0.0747648908822663,0.00317962544130159,-0.952485041705351,1.29085843758995,0.128678613302689,0.0421062830419519,-0.063649091411145
10.9,0.700393461971264,0.0514191641053787,-5.00899276695687,-0.022245821330991,0.0232937838990671,0.018608537181555,-2.19662036859003,-2.36895693367143,-1.18384872123332,0.105746392405653,-0.0115776705132515,-0.0440370551973338,5.64012820962147,0.00189778567031842,0.000563708409282907,0.00121583844906355,-2.19662036859003,-2.36895693367143,-1.18384872123332,0.105746392405653,-0.0115776705132515,-0.0440370551973338,-0.257956663113004,-0.255762072308551,1.46440592697441,0.152719873703501,0.0422445093506965,0.0514609340008851
11,0.578230007620616,-0.17597247560348,-5.08442952072227,-0.0445357919119586,0.0147298500516721,-0.020896658892992,-2.26370374979711,-2.22701133462837,-0.993617006806618,0.134165019885943,-0.00384006779067458,0.0241707206092592,5.60584186825065,0.00190558827185909,0.000466036063972376,-0.000143939962012743,-2.26370374979711,-2.22701133462837,-0.993617006806618,0.134165019885943,-0.00384006779067458,0.0241707206092592,-0.175370620814145,-0.495599977862045,1.38935167831719,0.153517452668607,0.0353313658607163,-0.00592920944892035
11.1,0.420840551985655,-0.222761108497001,-5.04981781272899,-0.000792492230471981,0.0423085314880238,0.0317279238421423,-2.22219441042619,-2.28363944471062,-0.953432725531101,0.161671914181511,0.0155614431612119,0.0147586004211465,5.60208126709633,-0.000562484041888937,-0.000972813778382006,-0.00219203506211724,-2.22219441042619,-2.28363944471062,-0.953432725531101,0.161671914181511,0.0155614431612119,0.0147586004211465,-0.473369931805168,-0.0239077687535317,1.38413272294297,-0.0456059558826799,-0.0755550436640389,-0.0923621741736894
11.2,0.290044527280935,-0.40389847017807,-5.0898897847634,0.019399090924661,0.0501666410057065,0.0299186061784188,-2.32810255857648,-2.18849256306498,-0.872436644979184,0.0598092204982187,-0.0434295603614947,-0.0330691844433918,5.62991942119049,0.000896422138921866,-0.000364079153536656,0.000152104838815734,-2.32810255857648,-2.18849256306498,-0.872436644979184,0.0598092204982187,-0.0434295603614947,-0.0330691844433918,-0.570806265124163,0.201431903869756,1.43355709516299,0.0719836638458726,-0.0287697412179346,0.00653383319963497
