time,x,y,z,roll,pitch,yaw,xdot,ydot,zdot,p,q,r,thrust,roll angle,pitch angle,yaw angle,_xdot,_ydot,_zdot,_p,_q,_r,_xddot,_yddot,_zddot,_phiddot,_thetaddtot,_yawddot
0,1.01841953230695,1.01841953230695,0.0184195323069548,0.0184195323069548,0.0184195323069548,0.0184195323069548,0.0184195323069548,0.0184195323069548,0.0184195323069548,0.0184195323069548,0.0184195323069548,0.0184195323069548,8.81892998056724,-0.00336981862990841,0.000571754644206968,-0.00174784408762178,0.0184195323069548,0.0184195323069548,0.0184195323069548,0.0184195323069548,0.0184195323069548,0.0184195323069548,-0.330736035846866,0.318825186012761,7.82187647937528,-0.271759684791622,0.0439812452052599,-0.0737486991382062
0.1,0.620366420226373,0.620366420226373,0.0203664202263731,0.0203302817266337,0.0199416926328773,0.0199135939176922,-0.0803254378520739,0.116116259074079,4.314913130027,-0.139699363720716,0.0342508824965069,-0.0306549703038711,5.59586444059379,-0.000683765529019686,-0.00106659230027394,0.000509942330217002,-0.0803254378520739,0.116116259074079,4.314913130027,-0.139699363720716,0.0342508824965069,-0.0306549703038711,-0.227607217709261,0.223027368895269,1.37719129617343,-0.0551453090234612,-0.0820426124405913,0.0215164681241342
0.2,0.631785472404612,0.719916868280255,1.98747483578418,-0.0619219984215495,0.0183248167359772,-0.0125905237744349,-0.0602778983491853,0.0631951867855656,1.15289605091632,-0.0424094435665628,-0.040481194190195,0.00937401200163546,6.79174563056618,0.000709842154394869,0.00047097565982809,0.000151647340970921,-0.0602778983491853,0.0631951867855656,1.15289605091632,-0.0424094435665628,-0.040481194190195,0.00937401200163546,-0.258987391573447,-0.8373851770031,3.74518153466049,0.0572508959736686,0.0362417955283071,0.00640023916139612
0.3,0.643522601081282,0.707700960431924,0.797119206325703,-0.0201465245845492,-0.00879892385635508,0.0100802280780684,-0.095606199181367,-0.101049408390877,2.54687680534717,0.020819556347519,0.0234407365908396,0.00645481621579995,6.46789408308188,-0.00254734943495984,-0.00056060967353439,-0.000780647502984999,-0.095606199181367,-0.101049408390877,2.54687680534717,0.020819556347519,0.0234407365908396,0.00645481621579995,0.116417464961935,-0.25943323088177,3.1226624038683,-0.205431105076992,-0.0431197496967713,-0.0329382080808814
0.4,0.602237045987226,0.616180341085067,1.49275179553814,-0.0134591885905013,-0.00177017388551091,-0.010660702358412,-0.0832686005244214,-0.0944783230044369,2.35600735007248,-0.137462647597693,-0.0348510710925143,-0.0314212115989565,6.1207955295695,0.000372136114720053,-6.54101879041222e-05,0.001994815711626,-0.0832686005244214,-0.0944783230044369,2.35600735007248,-0.137462647597693,-0.0348510710925143,-0.0314212115989565,0.0199101484318175,-0.164978535338374,2.43046311738486,0.0300098721983627,-0.0050360154304264,0.0841707280285976
0.5,0.65414690646703,0.668150338291553,1.59874858605862,-0.0397696949158815,0.0182250581468409,0.0172520684435338,-0.0136654615822626,-0.0234357589468096,2.16786496849894,0.0195626826451655,0.0223403148319015,0.0691573374914347,6.18117689943025,-0.00324209022942175,-0.00276416429363577,-0.00407121568077858,-0.0136654615822626,-0.0234357589468096,2.16786496849894,0.0195626826451655,0.0223403148319015,0.0691573374914347,-0.216601231682414,-0.495327794009836,2.54052734627618,-0.26145870243778,-0.212560213555937,-0.171781197075808
0.6,0.641279821947649,0.656629220902937,1.62247197860419,-0.00559880770887958,0.0102264778388044,0.0312088759862363,-0.0931374773793458,-0.132521042698502,2.33114666727159,-0.165485174157447,-0.118227275128909,-0.0932779751289226,6.02208460139783,-0.0004679405492962,0.000212012014966214,0.00295939683223472,-0.0931374773793458,-0.132521042698502,2.33114666727159,-0.165485174157447,-0.118227275128909,-0.0932779751289226,-0.121001220734684,-0.0712430265070344,2.23335065176324,-0.0377453861590892,0.0162149353214883,0.124870590926372
0.7,0.644018105917826,0.646498111552439,1.86409300588351,-0.0577365366780234,-0.0187313107897742,-0.00622395302626579,-0.0450847845533322,-0.0713344159860146,2.30903444980686,-0.0295911651070227,0.0274126251076368,0.0886490162511874,5.81926622727673,-0.0025283860515637,-0.00267854284922415,-0.00387967736811803,-0.0450847845533322,-0.0713344159860146,2.30903444980686,-0.0295911651070227,0.0274126251076368,0.0886490162511874,0.213444816339181,-0.672936778639159,1.80710097649267,-0.203944734546641,-0.205849281403405,-0.163709730370879
0.8,0.625361884084347,0.631899263385819,1.96152012635802,-0.0327280796757069,0.0107702564225082,0.0419681191806294,-0.0747788573389567,-0.174364448243502,2.17913872675248,-0.145750831724169,-0.122331523961954,-0.0879285819355162,5.84830988658921,-0.000832989359915719,-0.00110668311252119,0.00220885948884645,-0.0747788573389567,-0.174364448243502,2.17913872675248,-0.145750831724169,-0.122331523961954,-0.0879285819355162,-0.109736689192588,-0.387685028004997,1.8796780236418,-0.0671551227919718,-0.0852748907896981,0.0931930099847717
0.9,0.623839580594023,0.597750699152271,2.05384683446136,-0.0782366593925831,-0.0437389335710293,-0.0223856829954847,-0.0605668181700857,-0.195718261446395,2.3051423317858,-0.0731252133010963,-0.0522286970709109,0.0546374771634092,5.61146958514619,-0.00124933586130009,-0.00103364906954398,-0.00150879273346865,-0.0605668181700857,-0.195718261446395,2.3051423317858,-0.0731252133010963,-0.0522286970709109,0.0546374771634092,0.469465272732703,-0.887880675134984,1.3679082964794,-0.10083689313647,-0.0792435819731215,-0.0636910823309804
1,0.575374899810589,0.529335381372676,2.19843649523774,-0.0970345812312386,-0.0628434650885883,-0.00545668962105633,-0.110518944057119,-0.323929932786991,2.11418684635576,-0.128191943788451,-0.0947384677512933,-0.063540589002747,5.61348841346938,0.00128973506919057,-0.000219487257435513,0.00327080363193626,-0.110518944057119,-0.323929932786991,2.11418684635576,-0.128191943788451,-0.0947384677512933,-0.063540589002747,0.695815379080222,-1.09150929242522,1.34210550055033,0.104018019905164,-0.0169036312572116,0.137967210989709
1.1,0.566465316188468,0.481861183328032,2.26368592776437,-0.11260170783743,-0.072469904961766,-0.043302075821147,-0.0330030932074262,-0.392638023552055,2.20446847018651,-0.0119255174154663,-0.0480960688333393,0.0558907803781583,5.44320546718192,-0.00110808582093714,-0.00150204054888009,-0.00059540836120693,-0.0330030932074262,-0.392638023552055,2.20446847018651,-0.0119255174154663,-0.0480960688333393,0.0558907803781583,0.729568428932316,-1.25599901019038,0.979075003249465,-0.0895366170864869,-0.11512191491975,-0.0251912162488505
1.2,0.630248886128551,0.475093047693251,2.4699942047912,-0.0293854551395908,-0.0190641536898634,0.0457573818394564,0.0810121246406053,-0.417794007902918,2.12010026112729,-0.079193994553735,-0.0758958658514387,0.00398159745853143,5.38438734966105,-0.00367388777336169,-0.0034339347042719,-0.00228798025842058,0.0810121246406053,-0.417794007902918,2.12010026112729,-0.079193994553735,-0.0758958658514387,0.00398159745853143,0.21945431333252,-0.306682655250672,0.9521695804372,-0.296295362561465,-0.264118789658654,-0.0966186910867779
1.3,0.633026305357107,0.401134599728664,2.5294217760367,-0.0974344653599746,-0.0702436715536921,-0.0106367174896235,0.079708031849352,-0.574563694979265,2.04425081849097,-0.228180441679395,-0.192796582852815,-0.0664334368846432,5.28879439079495,0.00356246070059543,0.00131832488392763,0.003652247858751,0.079708031849352,-0.574563694979265,2.04425081849097,-0.228180441679395,-0.192796582852815,-0.0664334368846432,0.727889933880964,-1.03679264897478,0.691458073982062,0.287294188483105,0.101411617325349,0.15399894669765
1.4,0.664684976038744,0.333395847884211,2.63995662944015,-0.146680129896783,-0.107580722008146,-0.0221540681888265,0.13609825233477,-0.562215051670427,2.02146228675668,0.0932929025769622,0.0189870001324602,0.0854827349682221,5.16644084887525,-0.00264772536656369,-0.00287042977236183,-0.00299661006558676,0.13609825233477,-0.562215051670427,2.02146228675668,0.0932929025769622,0.0189870001324602,0.0854827349682221,1.06383837894376,-1.53414235229093,0.352829297302046,-0.213902484035591,-0.220151732550985,-0.126624986065138
1.5,0.669188297479576,0.285632636229119,2.73842276889152,-0.0302634650621537,-0.0381410451633606,0.0292073109419764,0.166397628125862,-0.675345084870886,1.93478463525187,-0.178485972744602,-0.1713961917189,-0.0755142492133424,5.17852256606432,-0.000862931544161288,-0.00175934288483926,0.00220833558732029,0.166397628125862,-0.675345084870886,1.93478463525187,-0.178485972744602,-0.1713961917189,-0.0755142492133424,0.403735594700519,-0.301730564740153,0.534773564695497,-0.0694883251464578,-0.135502124982837,0.0930133611645093
1.6,0.69111840092518,0.213278937371272,2.82892343031802,-0.146499871104863,-0.120202825373404,-0.0370774982254659,0.283551640009252,-0.832319813298274,1.92047813128382,-0.110880882169093,-0.128520283589323,0.0421526673292753,4.97753767700628,0.00323534345782983,0.000808027043234774,-0.000257774689112638,0.283551640009252,-0.832319813298274,1.92047813128382,-0.110880882169093,-0.128520283589323,0.0421526673292753,1.12628072823475,-1.495984323283,-0.0326257139369481,0.260520187680908,0.0627512504423167,-0.011122999973022
1.7,0.728506010652391,0.0700209129835642,2.90616064347515,-0.149493437104221,-0.131855985840365,-0.0120580365208896,0.251660103707804,-0.850175259048926,1.74520610583005,0.0535350196983276,-0.0516877177207374,-0.0294966783678665,5.00815950860419,-0.00045440472072416,-0.00133649069679291,0.00194134621669178,0.251660103707804,-0.850175259048926,1.74520610583005,0.0535350196983276,-0.0516877177207374,-0.0294966783678665,1.28411780622915,-1.5073960428948,0.00862746436997597,-0.0367630670849795,-0.102640007621869,0.0816013881199359
1.8,0.726684337435478,0.0238979031894115,2.95276202122773,-0.0787724860069579,-0.104004317543143,-0.03935451202551,0.36248598676958,-0.998488985513883,1.76965717032817,-0.0979184809968697,-0.137056622162063,0.0224445923313652,4.88885514908314,0.00076546812026188,-0.000675281803921748,0.000767047336907537,0.36248598676958,-0.998488985513883,1.76965717032817,-0.0979184809968697,-0.137056622162063,0.0224445923313652,0.980888202367796,-0.808636782474672,-0.115280635142055,0.0613562098541442,-0.0514602903110873,0.0320490305699373
1.9,0.831840300444043,-0.0426419121643988,3.11303492165682,-0.102258321498716,-0.103261285921132,0.0250875739994231,0.548109101346611,-1.08233019941842,1.63453969968105,-0.00787944289508766,-0.0792412254459932,0.0347503560655303,4.779951039742,-8.40225036243446e-05,-0.00137749696542656,-0.00285024670661309,0.548109101346611,-1.08233019941842,1.63453969968105,-0.00787944289508766,-0.0792412254459932,0.0347503560655303,1.00443808209957,-0.950979690724018,-0.35069402459245,-0.00698563036266139,-0.105705184288392,-0.120651144239654
2,0.910215278045857,-0.171668865182605,3.13063022639769,-0.0864894768814726,-0.104333539041027,0.0131334824284011,0.59933736632601,-1.17436418898719,1.48713286202077,-0.0588733482874411,-0.127397922231362,-0.0637517290421038,4.79669481057554,0.00131625712182466,-0.000149202957601899,0.00237500078360572,0.59933736632601,-1.17436418898719,1.48713286202077,-0.0588733482874411,-0.127397922231362,-0.0637517290421038,1.00616033717323,-0.815549510141679,-0.304441373826766,0.10628600379505,-0.0116335385208797,0.099793697624997
2.1,0.94892702851185,-0.292352728309115,3.14865629001816,-0.123744718017687,-0.147243953419097,-0.0453302222239099,0.678633491668252,-1.30364047823981,1.46672048426214,-0.0136127346546256,-0.0900392808002317,0.0394518216387041,4.70632524230536,0.00298501975978926,0.000513608076583421,0.000262889966514325,0.678633491668252,-1.30364047823981,1.46672048426214,-0.0136127346546256,-0.0900392808002317,0.0394518216387041,1.31633944864725,-1.22270095845649,-0.570398170507191,0.240146360405811,0.0401373227468578,0.0106110692642804
2.2,1.02009628717661,-0.423064134223873,3.22772815493681,-0.107038351425912,-0.134566586495335,-0.0018260616700177,0.746527241685653,-1.34517874560391,1.35857394404861,0.070847799427936,-0.0648033344940329,-0.00396361782137941,4.64970895242714,0.00067721506775293,-0.00059792730662109,0.000259604689074092,0.746527241685653,-1.34517874560391,1.35857394404861,0.070847799427936,-0.0648033344940329,-0.00396361782137941,1.23866107317208,-0.995758240594031,-0.64739351269402,0.0544772039922389,-0.0458542656938568,0.0104349724329313
2.3,1.1181241178821,-0.482073770601626,3.30258833854465,-0.0378124751903142,-0.0987471280959265,0.012839879083418,0.920532427482152,-1.42158605932416,1.27420155591045,0.00515528786332983,-0.0833853725598912,0.0223051518320539,4.55599191081336,-0.000158307069856994,-0.000966017501561757,-0.00167387179033386,0.920532427482152,-1.42158605932416,1.27420155591045,0.00515528786332983,-0.0833853725598912,0.0223051518320539,0.902027291692694,-0.332910402271962,-0.748887121623092,-0.0129606493422387,-0.0741285005435047,-0.0711433538704682
2.4,1.21782361482027,-0.624625538021329,3.32545089196938,-0.081229487800648,-0.128435019211829,0.00777823508426712,1.03412722403009,-1.59737545824942,1.12687662283928,-0.042928072423678,-0.116076299707585,-0.0366203311816985,4.55492739448717,0.00466705926808157,0.00171415589765088,0.00136709880371565,1.03412722403009,-1.59737545824942,1.12687662283928,-0.042928072423678,-0.116076299707585,-0.0366203311816985,1.16867724324382,-0.730107268791814,-0.804968564553469,0.37647276435324,0.131772960783786,0.0571407213197756
2.5,1.34149246015211,-0.792030958572636,3.33703005384584,-0.0913140097102518,-0.139092446484495,-0.0096379585377225,1.11758530618114,-1.57849925366462,1.0775918246663,0.176933192904824,0.00370540419107659,0.0393324775280768,4.49282386437327,0.000322981572442036,-0.000533618786982908,-0.00141145244029849,1.11758530618114,-1.57849925366462,1.0775918246663,0.176933192904824,0.00370540419107659,0.0393324775280768,1.23266465372398,-0.831294518391388,-0.948208286115067,0.025618831408833,-0.0406866469212097,-0.0601562058373404
2.6,1.43347977526098,-0.882151980106095,3.38405393425003,0.00393066511806603,-0.0915210680965314,0.0223847430977737,1.21613119651545,-1.63991835996127,0.955857130072011,0.00348476659834752,-0.0860808981318,-0.0239845931813535,4.4413615077435,0.00125795291241323,7.3363272469098e-05,7.32106627777003e-05,1.21613119651545,-1.63991835996127,0.955857130072011,0.00348476659834752,-0.0860808981318,-0.0239845931813535,0.810830721786821,0.0530769385215977,-0.96452067160482,0.101591117365561,0.00553742542396786,0.00256441331097448
2.7,1.55081088198016,-0.999914668572888,3.4007042997147,-0.0576646947271226,-0.126972893423531,0.00315125565668494,1.38868669511965,-1.78944110773035,0.901971145695185,0.0507028972695102,-0.0579910041958646,0.0130683509353671,4.38877839999505,0.00451251345528908,0.00201375480532248,-0.000768995323846308,1.38868669511965,-1.78944110773035,0.901971145695185,0.0507028972695102,-0.0579910041958646,0.0130683509353671,1.11126060087198,-0.502375301281599,-1.11757672966484,0.363697358230758,0.155054948987025,-0.0329970165257588
2.8,1.70388416789078,-1.20199268642179,3.41768313467468,-0.0432560845365157,-0.124539743372807,0.00985370843237091,1.42192108465453,-1.74240305781737,0.740740373396736,0.195557062303597,0.0185581767388648,-0.0119295919566259,4.41174903640983,0.00109669753140919,0.000273408894933392,8.72503955151077e-05,1.42192108465453,-1.74240305781737,0.740740373396736,0.195557062303597,0.0185581767388648,-0.0119295919566259,1.09871900474783,-0.370742683674672,-1.06302997306154,0.0884270484232947,0.0210420614224563,0.00313686660078707
2.9,1.76219306175578,-1.32087077242355,3.36875392704877,-0.00609728268611481,-0.126677558599195,-0.0340421569988357,1.49202636710554,-1.86310455217178,0.683797602746836,0.0343427084969079,-0.0765643363235999,-0.0211840454670344,4.4057399958294,0.00529589180614398,0.00275498684483797,0.00260721255283692,1.49202636710554,-1.86310455217178,0.683797602746836,0.0343427084969079,-0.0765643363235999,-0.0211840454670344,1.11073955579439,-0.0915834805600424,-1.06928780083193,0.426885981200423,0.212032875509834,0.109559344272181
3,1.91980352002975,-1.45280304180352,3.41759249010535,-0.0355357434648704,-0.137285838932164,-0.00660165225609627,1.65596037033049,-1.86943253480402,0.665006063504137,0.251283643878245,0.0582327000995316,0.0645268126775333,4.31523403882929,0.00215941127992012,0.00126927017900563,-0.00274003895551775,1.65596037033049,-1.86943253480402,0.665006063504137,0.251283643878245,0.0582327000995316,0.0645268126775333,1.17832707578547,-0.314411256557455,-1.26613260263805,0.173591271018494,0.0979178442850101,-0.116065772107847
3.1,2.0990547732341,-1.57259964989175,3.4623571799117,0.0788723021956381,-0.0644724272063893,0.04558244490682,1.76804627753033,-1.83266874482045,0.495340664353148,0.14609309459572,0.0220244762398289,-0.042258210695522,4.26052531924756,0.000411657397222306,-4.4478422957552e-05,-0.000169645654148146,1.76804627753033,-1.83266874482045,0.495340664353148,0.14609309459572,0.0220244762398289,-0.042258210695522,0.516124656112485,0.695618902741566,-1.33308819998112,0.0336764477853109,-0.00360563667600818,-0.00748029869042941
3.2,2.24081926321231,-1.6820044860779,3.41741007869481,0.0400302344216768,-0.0870086027682438,-0.0047188340577297,1.93864530817854,-1.95231128425659,0.510031349458366,0.0708042667718368,-0.0403856734118446,0.00538152958610642,4.24694887066475,0.00596672403503719,0.0040592070693193,2.56394353792834e-05,1.93864530817854,-1.95231128425659,0.510031349458366,0.0708042667718368,-0.0403856734118446,0.00538152958610642,0.73911455716307,0.336437917626743,-1.35501223897191,0.481002636783291,0.312303656067402,0.000830135617376773
3.3,2.38589531730505,-1.95399075655356,3.39526440643678,-0.0460930149701372,-0.17126049756063,-0.0475618409163803,1.87941787477764,-1.95321762354155,0.312970902200647,0.269912908433459,0.0846283897906546,-0.0395544501457742,4.50791521312353,0.00683408609081015,0.00413046346192954,0.00440216695305716,1.87941787477764,-1.95321762354155,0.312970902200647,0.269912908433459,0.0846283897906546,-0.0395544501457742,1.51340043353348,-0.48792441815982,-0.93550017382465,0.551032629038666,0.317755116330909,0.185521138883176
3.4,2.52501849290785,-2.02762723355349,3.37241690804982,0.0913175382777663,-0.0781372430427539,-0.0293363000604591,2.00446746304748,-1.81552770247024,0.452671111935983,0.36661798229446,0.13286972702399,0.0952298214149324,4.14633227568821,-0.00152215265045434,5.37142841936791e-05,-0.00304154961025225,2.00446746304748,-1.81552770247024,0.452671111935983,0.36661798229446,0.13286972702399,0.0952298214149324,0.666513727300615,0.736980556333264,-1.57708408444725,-0.123452973944433,0.00421627201452151,-0.128429281562757
3.5,2.6726662276912,-2.07209353573481,3.45396568354136,0.149176226469622,-0.0530954493410947,0.0296839300740768,2.1675448719005,-1.92830182953343,0.174099408965503,0.0210808816987977,-0.0129041656310472,-0.0691555795217353,4.23748641919087,0.00588478663118221,0.00420548748655058,0.00201033035246404,2.1675448719005,-1.92830182953343,0.174099408965503,0.0210808816987977,-0.0129041656310472,-0.0691555795217353,0.407196115282075,1.27222648770155,-1.44096208044211,0.475269301360293,0.323565622884064,0.084888164250746
3.6,2.91258827399986,-2.27269852709669,3.36974035010975,0.0284391457918376,-0.10220769773387,-0.0234612465815823,2.28512654187041,-1.83186812825043,0.314292560402111,0.35317141440269,0.165087712745238,0.0520026500183514,4.27326308001172,0.00414176217159869,0.00383920601810518,-0.000724745642975401,2.28512654187041,-1.83186812825043,0.314292560402111,0.35317141440269,0.165087712745238,0.0520026500183514,0.877109313130228,0.222508186139167,-1.3115131485725,0.333730635757737,0.295292827248538,-0.0305066337724165
3.7,3.09830931535813,-2.39795359796813,3.43922095868253,0.161422288126067,-0.0308465139451504,0.00548397836063752,2.27529252511196,-1.70100163134062,0.0597701706819818,0.287630050440429,0.155558594379134,-0.0206611935326338,4.1960978791108,0.000278477653844039,0.00125590443827026,0.000992466773265472,2.27529252511196,-1.70100163134062,0.0597701706819818,0.287630050440429,0.155558594379134,-0.0206611935326338,0.248063416390067,1.35019255553343,-1.53084580112535,0.022864975167077,0.0967555707913706,0.0420739161869068
3.8,3.23599301110403,-2.41671212576371,3.33461361515482,0.16546537273933,-0.0188382208780212,-0.0118812839486981,2.408045842684,-1.67913906016616,0.145545691159664,0.142442367437459,0.064172620776282,0.0257701740479919,4.142884226523,0.00460793445494494,0.00460970163832201,-0.000233030158119084,2.408045842684,-1.67913906016616,0.145545691159664,0.142442367437459,0.064172620776282,0.0257701740479919,0.170151991789783,1.36283484981946,-1.63885024434751,0.371736810529323,0.354673190318693,-0.00955973934297555
3.9,3.50076598961803,-2.53174352230601,3.43081824482188,0.14473132710873,-0.0195831699679623,0.0404676985858116,2.48205808994974,-1.49770091097481,0.0351072510720065,0.359513691860637,0.240734982173823,0.0250753130568409,4.10996531720481,8.63881315827974e-05,0.00187291472038229,-0.00257360142627915,2.48205808994974,-1.49770091097481,0.0351072510720065,0.359513691860637,0.240734982173823,0.0250753130568409,0.111186025084196,1.19100570755704,-1.67757092211076,0.00736842629415279,0.144380251769778,-0.10828610199374
4,3.67751726062397,-2.58731063509218,3.37943918194193,0.239484895578852,0.0498718459282964,0.0222949047241779,2.47573027790968,-1.38036625355331,-0.125753235501972,0.165496952029203,0.130444285121145,-0.0423248396387478,4.09381777173179,0.00124938189786073,0.00192366372557135,0.00125242609090899,2.47573027790968,-1.38036625355331,-0.125753235501972,0.165496952029203,0.130444285121145,-0.0423248396387478,-0.439711766317342,1.93280343196347,-1.86592672185481,0.101300245249069,0.148687686212382,0.053183321542943
4.1,3.82972317553598,-2.64629061653701,3.29571863830785,0.16203467197186,0.00297869438116771,-0.0131336287875327,2.46109816439253,-1.22509384392472,-0.0236703821948896,0.210015130822375,0.12660641492153,0.0323794883043859,4.04231646915938,0.00373474815076289,0.0049561397316537,-0.000346438190690711,2.46109816439253,-1.22509384392472,-0.0236703821948896,0.210015130822375,0.12660641492153,0.0323794883043859,-0.0066348690198677,1.30446565464581,-1.83130241946024,0.301340746789783,0.381498189342924,-0.0142859180237345
4.2,3.98397049074938,-2.72205134062152,3.34952787753623,0.167103697859027,-0.0119807004749307,-0.00633357708775766,2.38897284365504,-1.10758191276743,-0.389458002976396,0.305234356555149,0.246963477595983,-0.0209137764072543,4.19153463089441,0.00121361774151694,0.00233823902889337,0.00182777858367899,2.38897284365504,-1.10758191276743,-0.389458002976396,0.305234356555149,0.246963477595983,-0.0209137764072543,0.107862737273271,1.39367633455168,-1.54429481820414,0.0982132021809843,0.18063460525093,0.0774457648645739
4.3,4.12029451722701,-2.72246961659697,3.17010013334939,0.241755360325066,0.0661794285583998,-0.0132999357919558,2.42122051126226,-0.922575035872713,-0.328547935522466,0.224321904977553,0.164511658192594,0.0418469891428392,4.06251700699838,-0.000128654202329162,0.00178361563427725,-0.00104445227068925,2.42122051126226,-0.922575035872713,-0.328547935522466,0.224321904977553,0.164511658192594,0.0418469891428392,-0.495775763241389,1.95195874467623,-1.93851721844806,-0.0102377197399653,0.137746287375947,-0.0438120809010238
4.4,4.29226632943926,-2.71825150415893,3.18063574303202,0.226768887502655,0.0456778122350437,0.0197591975098491,2.41156261699379,-0.732916312372503,-0.37139565005859,0.16959615249308,0.159733681519572,-0.0171803192966828,3.98566153813756,0.00155627269478269,0.00363167720555896,0.000174035687487202,2.41156261699379,-0.732916312372503,-0.37139565005859,0.16959615249308,0.159733681519572,-0.0171803192966828,-0.390007998573482,1.78483773311827,-2.05086089737772,0.12572327970138,0.2807752156556,0.00753715006197397
4.5,4.45654290128978,-2.73315513066044,3.16970396323926,0.202526657306672,0.0408865680684578,-0.0181842300280858,2.34539307694187,-0.577840543870528,-0.625877938238028,0.235210255740489,0.229081061259567,-0.00217813516297425,4.08074965587512,0.000732209116617424,0.00220810385415833,0.00125028073355654,2.34539307694187,-0.577840543870528,-0.625877938238028,0.235210255740489,0.229081061259567,-0.00217813516297425,-0.296879959333279,1.64731525217816,-1.82199112635777,0.0591382991395733,0.171019924518031,0.052866291291032
4.6,4.59140256795381,-2.71302823342505,3.03064429714988,0.245740701987075,0.0876459923479524,-0.00886822131362024,2.31621789218582,-0.378722123176054,-0.685948332503097,0.208240869575952,0.186983694527524,0.0263807110550892,4.03410342090373,-0.00092179813747557,0.00156146435319281,-0.000669850616955611,2.31621789218582,-0.378722123176054,-0.685948332503097,0.208240869575952,0.186983694527524,0.0263807110550892,-0.667590483802301,1.96878941533255,-2.01422211538837,-0.0743592731925791,0.121343165238104,-0.0282934205782295
4.7,4.74797914340713,-2.65029085574691,2.97260103279574,0.262653677025527,0.0945089447303839,0.0184344895171881,2.27933827412528,-0.147483337865923,-0.735434823398255,0.147648962310141,0.183019901408619,-0.0035557587905439,3.94801709916925,-0.000936885642632889,0.00185730125309611,-0.000650176003035128,2.27933827412528,-0.147483337865923,-0.735434823398255,0.147648962310141,0.183019901408619,-0.0035557587905439,-0.757249788749003,2.03654624219924,-2.21879402056862,-0.075715588328366,0.144848017111147,-0.0275999499037644
4.8,4.92311121814967,-2.56468906262056,2.96277820927626,0.269107552645812,0.126340889554104,0.0273839359891586,2.2403061384309,0.086524388434595,-0.911909357529608,0.162334153018406,0.21784847312095,0.0135901126215426,3.92213912908447,-0.00257256689994581,1.62284682760177e-05,-0.00195238975257402,2.2403061384309,0.086524388434595,-0.911909357529608,0.162334153018406,0.21784847312095,0.0135901126215426,-1.00959072751102,2.05869652420989,-2.30832041635262,-0.207739333571298,0.00323771521931854,-0.0826926584957236
4.9,4.97627499851869,-2.56336369121418,2.77692721259297,0.208360416255536,0.0775562241832287,-0.0415687264585658,2.00316018991208,0.208453528294057,-1.09675427012844,0.0242526277613724,0.083188464930382,-0.0812934958469753,4.03951734794911,0.00355186640099616,0.00410549257853725,0.00588731761051002,2.00316018991208,0.208453528294057,-1.09675427012844,0.0242526277613724,0.083188464930382,-0.0812934958469753,-0.54243443771502,1.69520348554092,-1.92946374661483,0.285948300396184,0.318276504939336,0.247906042324394
5,5.06534405847569,-2.47879800198331,2.68043304552537,0.180790629205037,0.0548869439790717,-0.0530557500098264,1.99052499283152,0.422129384156151,-1.21439833869601,0.307349114407418,0.275858897049579,0.118092560967536,4.05794061137097,-0.00348238097826396,0.000577933600926372,-0.00308511665396802,1.99052499283152,0.422129384156151,-1.21439833869601,0.307349114407418,0.275858897049579,0.118092560967536,-0.359971848221658,1.4804681047478,-1.8384153093022,-0.28089249884718,0.0447034443040848,-0.130748367696304
5.1,5.2272076954568,-2.32757458927934,2.56295931304981,0.354287043705386,0.184589695344103,0.0670031892438097,2.02310159522538,0.637701561282253,-1.31725858081839,0.0344157899700481,0.192695020565723,-0.0435237973940086,4.01571989879863,-0.00499318076378934,-0.00249261028980037,-0.00115015375216507,2.02310159522538,0.637701561282253,-1.31725858081839,0.0344157899700481,0.192695020565723,-0.0435237973940086,-1.56601269152828,2.68746233384826,-2.40532744298924,-0.403762866472637,-0.187896804719401,-0.0494030332974959
5.2,5.35487794847476,-2.21785111292958,2.41619443952569,0.238285203489499,0.158026661380893,-0.0113015637533286,1.78409940746528,1.002074542822,-1.23077852959583,-0.0432837772781148,0.0421347927879166,-0.0130101751764225,3.81907602787093,-0.000185964767428323,0.00254701523645512,0.00109289700940188,1.78409940746528,1.002074542822,-1.23077852959583,-0.0432837772781148,0.0421347927879166,-0.0130101751764225,-1.14760069826369,1.81596905445029,-2.48015444519756,-0.0158506736491169,0.198475384672967,0.0450604080751524
5.3,5.39506359347556,-2.0489899227065,2.49139003557705,0.185654245216115,0.0856870089632123,-0.00742951760424216,1.69368183345622,1.06386652767422,-1.72642676139879,0.132755579769707,0.234319970734394,0.0233219876565868,4.02833884752707,-0.00300704085059728,2.15577137175997e-05,-0.000820248778511168,1.69368183345622,1.06386652767422,-1.72642676139879,0.132755579769707,0.234319970734394,0.0233219876565868,-0.666591792163919,1.49217230726743,-1.9208218000842,-0.243249505900165,0.00378552841601735,-0.0356870860491616
5.4,5.49368414228155,-1.94228140449244,2.14349673748962,0.277628221122177,0.188307918186168,0.0156271270999056,1.64879973633013,1.2532291389055,-1.72674631944434,0.0166241982023853,0.14941913320963,-0.00849278231556613,4.09800646355111,-0.00492431885700152,-0.00218250846681082,-0.000359250392979967,1.64879973633013,1.2532291389055,-1.72674631944434,0.0166241982023853,0.14941913320963,-0.00849278231556613,-1.51044107534378,2.222994569001,-2.06716519578695,-0.398305230793463,-0.164946203099298,-0.0164906397607856
5.5,5.54616324570094,-1.81869299217281,1.96448976064691,0.206667922313724,0.137424089910249,-0.0237055277144179,1.37929593860482,1.53236025238896,-1.69059567854189,-0.100297000991662,0.0329573865373322,-0.02124834942385,3.98064997681468,-0.000577127159412479,0.00204992214212206,0.0020946154709154,1.37929593860482,1.53236025238896,-1.69059567854189,-0.100297000991662,0.0329573865373322,-0.02124834942385,-1.02840238901687,1.65850025968391,-2.09157643255103,-0.0477282543731401,0.160371720261337,0.0869049277095497
5.6,5.55819042717447,-1.62336203934928,1.9638087281422,0.151972405465687,0.0927118036498012,-0.0254826414317245,1.32229789303416,1.63042115605303,-2.01077087350521,0.0708712118534449,0.20378821493115,0.0343634718280334,4.09703803534971,-0.0034058332075666,-0.000733226885763979,-0.000453750203838458,1.32229789303416,1.63042115605303,-2.01077087350521,0.0708712118534449,0.20378821493115,0.0343634718280334,-0.718005530454377,1.259189103116,-1.74515074454336,-0.275572730785303,-0.0544411191139922,-0.0206095338147873
5.7,5.65121298210286,-1.45345335437489,1.68809888937815,0.250594667522807,0.197081659253464,0.0192932729873108,1.30268553939612,1.79058312348524,-2.01030302292411,-0.0379336034914437,0.116402001234336,0.000369148298319272,4.17031858037509,-0.00597867719894042,-0.00278717951086461,-0.000915466534721949,1.30268553939612,1.79058312348524,-2.01030302292411,-0.0379336034914437,0.116402001234336,0.000369148298319272,-1.62176199715343,2.03740402994154,-1.88629498967475,-0.483720486186316,-0.211325544571628,-0.0403059501283241
5.8,5.74942268223463,-1.24692769653828,1.54902095178232,0.228404169098296,0.192740491969326,0.0264107696603347,1.08405107565997,2.13035202925243,-1.96869759496343,-0.145090699085977,0.0443925945027291,0.00782928017203605,4.0792437970445,-0.00486220588028877,-0.00137026320894697,-0.00160803146872952,1.08405107565997,2.13035202925243,-1.96869759496343,-0.145090699085977,0.0443925945027291,0.00782928017203605,-1.57041812124815,1.80643157273793,-2.01054413946875,-0.393787628909078,-0.102353049811503,-0.0696150505962693
5.9,5.74150658038826,-1.00726572683066,1.52705076403219,0.1614479042669,0.152303400996712,0.0170229564467106,0.910551750395714,2.26082926152103,-2.20542038938334,-0.132249668334289,0.0819275641711149,-0.0222278171497458,4.1170432777701,-0.00375010298642282,-0.00137504953010802,0.000250043777402713,0.910551750395714,2.26082926152103,-2.20542038938334,-0.132249668334289,0.0819275641711149,-0.0222278171497458,-1.25534305394567,1.30242850143417,-1.77706932560163,-0.304275401778724,-0.102613984400223,0.00881856666539078
6,5.71735347272786,-0.836531932702839,1.26722718059346,0.133615286961922,0.149760115748392,-0.0197532637798271,0.764356742587742,2.31766801098717,-2.30715071366242,-0.12101068019085,0.0573270726478377,-0.00246584978618438,4.23353311897253,-0.00352183224753658,-0.00130610323311167,0.0010533318078124,0.764356742587742,2.31766801098717,-2.30715071366242,-0.12101068019085,0.0573270726478377,-0.00246584978618438,-1.22951034038216,1.15247630796074,-1.51233084774817,-0.285541095209934,-0.0980658245580843,0.0427118627580229
6.1,5.7474552938954,-0.629210472810716,1.06844840816986,0.15761809645756,0.168889252444636,0.0151873718379616,0.67278737700415,2.47791348082436,-2.25447363511939,-0.105238092167549,0.0763204625823263,0.0386335429550234,4.24059156844589,-0.00625742796328098,-0.00308961456240316,-0.00253397739662712,0.67278737700415,2.47791348082436,-2.25447363511939,-0.105238092167549,0.0763204625823263,0.0386335429550234,-1.42796458432789,1.30972458904657,-1.55312371121805,-0.506149739290248,-0.235415420044988,-0.108633157163713
6.2,5.73583417415622,-0.429178451858534,0.9209673976337,0.137741259005315,0.158023272155599,0.0107477042700999,0.461688836379557,2.60208256130887,-2.36631689464652,-0.25996610031396,-0.0215352282714875,-0.0604241488189136,4.31245391137035,-0.0029022144504331,-0.000984825701665473,0.00234753297173493,0.461688836379557,2.60208256130887,-2.36631689464652,-0.25996610031396,-0.0215352282714875,-0.0604241488189136,-1.35706577320658,1.16973511928902,-1.37322767945782,-0.236363124017175,-0.0725597084403205,0.0973360328287511
6.3,5.68563958179726,-0.224165074727991,0.745418285439294,0.0489633569505248,0.111367015081369,-0.0394345857446886,0.306683895292167,2.70040533681291,-2.38362999794557,-0.142382520870741,0.0518890165007677,0.0399292112970538,4.29167818792938,-0.0032329307718847,-0.00147615439856943,-3.66882170542338e-05,0.306683895292167,2.70040533681291,-2.38362999794557,-0.142382520870741,0.0518890165007677,0.0399292112970538,-0.935481813574443,0.457338367157788,-1.29003978475298,-0.261863447037559,-0.112091548794774,-0.00310249610494123
6.4,5.65837702951582,-0.00260184040315847,0.588117146476452,0.0939479255363598,0.146557111477198,0.00913775236314692,0.271787469579868,2.65931666762294,-2.40778529980671,-0.166052497765753,0.0275374283323879,-0.00609522482344376,4.3438602096344,-0.00480533494312045,-0.00255317102809268,-0.000140822112304754,0.271787469579868,2.65931666762294,-2.40778529980671,-0.166052497765753,0.0275374283323879,-0.00609522482344376,-1.2704936966406,0.80341743811383,-1.25331534586491,-0.389473631974007,-0.194094910023764,-0.00745173668452398
6.5,5.65633957507333,0.169685805921878,0.377087534684025,0.07106610677555,0.137368848559501,-0.0140073583550172,0.0843600820220543,2.79110182723977,-2.46444934355361,-0.250250006411445,-0.0251622051081538,-0.0113011804325563,4.44508648303569,-0.00309392442807531,-0.00146276505808949,0.00119502830394244,0.0843600820220543,2.79110182723977,-2.46444934355361,-0.250250006411445,-0.0251622051081538,-0.0113011804325563,-1.20536166018754,0.648205288215424,-1.02580347788452,-0.251360467596462,-0.110493436849126,0.0489907022153683
6.6,5.60985763150551,0.403055321298069,0.247119063895484,0.0295389677654507,0.121826664088774,-0.00884151271803255,-0.0262268310334073,2.85390460686044,-2.40118659020736,-0.187701788368927,0.0181814104387671,0.0257156801974167,4.38123950469613,-0.00404962989860244,-0.00237437717677473,-0.000802736934829133,-0.0262268310334073,2.85390460686044,-2.40118659020736,-0.187701788368927,0.0181814104387671,0.0257156801974167,-1.06207067439625,0.26819761738206,-1.11626005043525,-0.328193086017253,-0.1810410234008,-0.0351444674032507
6.7,5.58531001973502,0.633471004556757,0.131238959609042,0.0587594364075246,0.154476335837729,0.0216636472826295,-0.0878154755908869,2.83995382011049,-2.46480232696723,-0.231119874798864,-0.0156462318914785,-0.00596625658961034,4.46493887015026,-0.00479690361089586,-0.00318107157878361,-0.000713517245349012,-0.0878154755908869,2.83995382011049,-2.46480232696723,-0.231119874798864,-0.0156462318914785,-0.00596625658961034,-1.3826417272667,0.494578022531363,-1.00168512765555,-0.388974693029878,-0.242772821902587,-0.0312821259283616
6.8,5.52210231681886,0.790496367921455,-0.0921795918821831,-0.00391939070234995,0.110137809583434,-0.022610157315831,-0.342563102864303,2.88455733757641,-2.49807374441973,-0.305821371203757,-0.0822643727648447,-0.0313902288539443,4.51657203469214,-0.00118746301670696,-0.000659439826344275,0.00257761046722834,-0.342563102864303,2.88455733757641,-2.49807374441973,-0.305821371203757,-0.0822643727648447,-0.0313902288539443,-0.99341955389471,-0.0129481811099501,-0.831657073112112,-0.0977598644829274,-0.0491129098925077,0.10772425696606
6.9,5.44441485225748,1.02442028676397,-0.201900540834093,-0.0258377943181235,0.104538440594446,-0.0065711234867359,-0.337332965536986,2.83546401434699,-2.39845447500326,-0.143000121046018,0.0355414242558862,0.0657385149641381,4.42243979401043,-0.00488385887307238,-0.00333092500768042,-0.00278274286111764,-0.337332965536986,2.83546401434699,-2.39845447500326,-0.143000121046018,0.0355414242558862,0.0657385149641381,-0.924120293185231,-0.222439090261685,-1.01634220239183,-0.395194119776464,-0.255294936568323,-0.118244778010231
7,5.43640489204963,1.22030216374457,-0.329258976596741,0.0479091338400597,0.167517516484817,0.0507830072638379,-0.391665394977385,2.79452614362554,-2.50149313600037,-0.301222680513323,-0.0718359927487253,-0.0408134604279998,4.60006782604091,-0.00434689067328735,-0.00354627289293176,-0.000359143305345063,-0.391665394977385,2.79452614362554,-2.50149313600037,-0.301222680513323,-0.0718359927487253,-0.0408134604279998,-1.55261586545955,0.362256330110253,-0.749059080739713,-0.353166643800652,-0.271169892368583,-0.0159166706662414
7.1,5.36932572199081,1.37525643669626,-0.545919096351391,-0.0546860344590369,0.104326155207499,-0.015653224495554,-0.707324747560496,2.92123320602095,-2.48172243056126,-0.311074417114106,-0.103370414166891,-0.006092472948816,4.61842685939261,-0.00145159329407618,-0.00125960151934134,0.00112505484706866,-0.707324747560496,2.92123320602095,-2.48172243056126,-0.311074417114106,-0.103370414166891,-0.006092472948816,-0.968245327788456,-0.489779629450446,-0.637100593485858,-0.118836493643965,-0.0960068276989007,0.0468956888733949
7.2,5.22815627386442,1.61629188097926,-0.627000950631647,-0.0663764447315571,0.0941516350582338,0.010704232720332,-0.683606969027295,2.71033908287043,-2.3580591172157,-0.191457005970979,-0.0149107043042724,0.0362382227168142,4.46014282796526,-0.00378683848030146,-0.00300869098053734,-0.0021487511333431,-0.683606969027295,2.71033908287043,-2.3580591172157,-0.191457005970979,-0.0149107043042724,0.0362382227168142,-0.830391366209918,-0.60058510374475,-0.948778645385062,-0.306970030302603,-0.230851464961789,-0.0910514281912459
7.3,5.1721317243671,1.71859299837428,-0.783259419973992,-0.0434943199822849,0.115036080823443,0.016924230499309,-0.756627442397314,2.60064312851248,-2.56103488722937,-0.31321384556982,-0.107897297180159,-0.0492027720295293,4.65373416553463,-0.00136474259721849,-0.00160521302281183,0.0016260415427824,-0.756627442397314,2.60064312851248,-2.56103488722937,-0.31321384556982,-0.107897297180159,-0.0492027720295293,-1.06032274857303,-0.422699205763157,-0.572792208455901,-0.112260304499943,-0.122865208747241,0.0683233435726158
7.4,5.13897526153996,1.90027393967813,-0.984740555423771,-0.0730701864214131,0.1105021443024,0.0166878940226374,-0.854049843872511,2.66384772238187,-2.40049786867274,-0.188057277799363,-0.0227050363059336,0.0664892828255869,4.63415060464754,-0.00451232938978737,-0.00388206009810892,-0.00380540505535068,-0.854049843872511,2.66384772238187,-2.40049786867274,-0.188057277799363,-0.0227050363059336,0.0664892828255869,-1.00792375017884,-0.693549915674534,-0.622808615549911,-0.365168004473728,-0.298455755006733,-0.160684607663349
7.5,5.02579691814086,2.07097724783142,-1.07168502814137,-0.0526869238296058,0.121766422194777,0.0477734344562886,-0.983123811164034,2.49566062589927,-2.43833978515566,-0.351218326494937,-0.148883671864956,-0.0733312817185056,4.66039065240164,-0.00123109173323735,-0.00176718137233026,0.00139989103509115,-0.983123811164034,2.49566062589927,-2.43833978515566,-0.351218326494937,-0.148883671864956,-0.0733312817185056,-1.10585368311666,-0.544287456217183,-0.571071332209987,-0.101621925676891,-0.135865277135733,0.0590395796697253
7.6,4.85731195630781,2.12380090741637,-1.28860941323724,-0.192821161323535,0.00998720664452271,-0.0644016553660166,-1.20399325477403,2.38980829784651,-2.52524067275495,-0.269782453296646,-0.104462427635525,-0.00426060508893949,4.68525324474635,0.00292435020394059,0.000695914569422057,0.00329385274659307,-1.20399325477403,2.38980829784651,-2.52524067275495,-0.269782453296646,-0.104462427635525,-0.00426060508893949,-0.207222204431307,-1.78602272403566,-0.613610835939811,0.23478098962009,0.0533529659384515,0.139110646670334
7.7,4.74110122609795,2.28419736743184,-1.43099802697604,-0.140943375653378,0.0561306743804836,-0.000236488092577821,-0.961106233668559,1.93490283143386,-2.30591414695601,-0.0581247116786588,0.0127427015353746,0.0721006914752843,4.46841466955826,-0.0029831191371327,-0.00239220155270383,-0.00337863637335981,-0.961106233668559,1.93490283143386,-2.30591414695601,-0.0581247116786588,0.0127427015353746,0.0721006914752843,-0.496692169677338,-1.2553033185476,-0.975724189073643,-0.241504436821119,-0.184337933922849,-0.142324894749085
7.8,4.71633710607054,2.23028334606243,-1.5658285050797,-0.0945453843920788,0.0715156151434272,0.00270424210931366,-1.1334491170648,1.90672058183281,-2.68907596152682,-0.338260981371709,-0.146870232394198,-0.104772130802785,4.81728991856627,0.00247568335215907,0.000480008118042113,0.00487630661491211,-1.1334491170648,1.90672058183281,-2.68907596152682,-0.338260981371709,-0.146870232394198,-0.104772130802785,-0.682898965076784,-0.911398644079956,-0.242966491479859,0.197687526566617,0.0361784573491415,0.206011039334834
7.9,4.6427739353454,2.40301953589026,-1.80722963404215,-0.173009878305114,0.0474035014662189,-0.0249180850816737,-1.16548739573729,1.99004170274473,-2.3661346951436,-0.0651865295556553,0.021913875120405,0.124226816334584,4.69695269688773,-0.00278768006607801,-0.00256134651952784,-0.00467189242980106,-1.16548739573729,1.99004170274473,-2.3661346951436,-0.0651865295556553,0.021913875120405,0.124226816334584,-0.478647640990752,-1.60571539771514,-0.566730392089706,-0.225243149871568,-0.197303331614603,-0.19676091409096
8,4.54165408502408,2.54375113718497,-1.82652022602952,-0.0783086158423658,0.108292082986168,0.066154033306939,-1.18410858281719,1.62164656493753,-2.44935655829809,-0.298543180105756,-0.12805432424617,-0.0967508255534281,4.71266611384681,0.00025578584224997,-0.00122974488788934,0.00152495905820822,-1.18410858281719,1.62164656493753,-2.44935655829809,-0.298543180105756,-0.12805432424617,-0.0967508255534281,-0.964609950206973,-0.802853049009693,-0.468595275438634,0.0185561794298059,-0.0959980616471912,0.0647401119058661
8.1,4.46020850951964,2.53208264734424,-2.00327730130124,-0.187110626178453,0.0435184601628505,-0.0276261532605902,-1.38639004078663,1.76998710396568,-2.57217168570229,-0.170619935061009,-0.0656812237403546,0.0408346365286602,4.87346223570385,0.000458453937744234,-0.000675034418256181,-0.000593096195871896,-1.38639004078663,1.76998710396568,-2.57217168570229,-0.170619935061009,-0.0656812237403546,0.0408346365286602,-0.466560505230132,-1.80092959951109,-0.242267221337626,0.0362409169649987,-0.0526233537038767,-0.0245569233673568
8.2,4.30250443888563,2.70208062929799,-2.18158125398729,-0.141060709099949,0.0708321692976105,0.0368817775492648,-1.31294630997716,1.3135843390362,-2.3137495280156,-0.154531310250502,-0.0548112097868698,-0.00118072706569971,4.68355471026333,-0.000601160986448431,-0.0015303209938886,-0.0016575258259535,-1.31294630997716,1.3135843390362,-2.3137495280156,-0.154531310250502,-0.0548112097868698,-0.00118072706569971,-0.607346395388177,-1.34025984106358,-0.559185289361785,-0.0496467734324741,-0.119034915896247,-0.069434051831844
8.3,4.26003310619771,2.64915789678487,-2.21539600159664,-0.127794660123022,0.0889094475238774,0.0364406808305621,-1.37282139160103,1.35117882875226,-2.5690294222064,-0.18585163112961,-0.0777948367940228,-0.0131943104910814,4.89337793892314,-0.000679325455310491,-0.00156038546659625,-0.00105534981660028,-1.37282139160103,1.35117882875226,-2.5690294222064,-0.18585163112961,-0.0777948367940228,-0.0131943104910814,-0.815888461500327,-1.27786694908064,-0.141392411965578,-0.0558893567472615,-0.121466947975267,-0.0439965609026715
8.4,4.10276347718488,2.7085173600707,-2.507536076754,-0.190595419147942,0.0346865675052532,-0.00840834375673749,-1.58077788715098,1.16795550451953,-2.44121784733638,-0.225066452904888,-0.116033611951373,-0.0355500271038821,4.90196835725169,0.00318558717413004,0.000639287784818915,0.00210131037948581,-1.58077788715098,1.16795550451953,-2.44121784733638,-0.225066452904888,-0.116033611951373,-0.0355500271038821,-0.349444702280073,-1.85442006503999,-0.189387247975693,0.256000992527762,0.0477870717208564,0.0892197996892212
8.5,3.92925305315004,2.72503313783748,-2.58885549252037,-0.215829715180655,0.0142564422102571,-0.0167315271646866,-1.48810042044184,0.821505177424905,-2.38419817052965,-0.0543135944233681,-0.0241020679447159,0.0382824903868965,4.80980705795135,0.00130255097227898,-6.16640253463523e-05,-0.00102319303508487,-1.48810042044184,0.821505177424905,-2.38419817052965,-0.0543135944233681,-0.0241020679447159,0.0382824903868965,-0.168403667041242,-2.05758748042902,-0.414525041053889,0.104562682831842,-0.00566624082444684,-0.0426079675004779
8.6,3.88123983532363,2.67326311329658,-2.70762672240325,-0.137148101120619,0.0671443196612446,0.0319216499793444,-1.43022869277294,0.587952562931461,-2.47594232436713,-0.112198190086899,-0.0440514837720428,-0.0176497128811005,4.90747871685705,0.000451804096232803,-0.00085204817759369,-0.00067202892183294,-1.43022869277294,0.587952562931461,-2.47594232436713,-0.112198190086899,-0.0440514837720428,-0.0176497128811005,-0.609179684920075,-1.3620234034436,-0.109114381378772,0.0356149681850634,-0.06719280127367,-0.0277889228149641
8.7,3.81416991933994,2.63752078988063,-2.88806524875532,-0.160133914774515,0.0617777503058603,0.0146213703247423,-1.5963557160016,0.666470460688203,-2.45686409433689,-0.138714985669,-0.0702168118095424,-0.00592408817654904,5.00920635196171,0.00115091919129087,-0.000482537271129109,-0.000405013690737765,-1.5963557160016,0.666470460688203,-2.45686409433689,-0.138714985669,-0.0702168118095424,-0.00592408817654904,-0.587186795113422,-1.60619686481596,0.0613695303759165,0.0921839340132861,-0.0385149654326018,-0.0165172047158315
8.8,3.60270592038692,2.66793279949697,-3.05965101311122,-0.218450849587046,0.00723853083360833,-0.0209939902104614,-1.71870273835162,0.367283778867313,-2.3959859646753,-0.139448319352872,-0.0907139537452558,-0.0342942166298991,5.00784961904659,0.00466796001497369,0.00147486240383947,0.00261839879915743,-1.71870273835162,0.367283778867313,-2.3959859646753,-0.139448319352872,-0.0907139537452558,-0.0342942166298991,-0.116325490249705,-2.16861373060381,-0.0325865334591153,0.375908284433361,0.112088984661162,0.111046544961501
8.9,3.45887367717647,2.59752128328759,-3.16346131268246,-0.215912763798621,0.00269245110570981,-0.0247320868459655,-1.58380580331465,0.00587720117015955,-2.35754003636173,0.0294841445394495,0.000760895925523433,0.0439444898381402,4.98402041592601,0.00203006713718723,0.000516852595101494,-0.000910966013675755,-1.58380580331465,0.00587720117015955,-2.35754003636173,0.0294841445394495,0.000760895925523433,0.0439444898381402,-0.0790183329872416,-2.13424258713422,-0.0734398934847782,0.163479564394888,0.0390621350870491,-0.0378959637325193
9,3.41831604383865,2.47871393093673,-3.28742813083935,-0.136379240331547,0.0540877432918229,0.0226320970526751,-1.56221986467381,-0.168825563050765,-2.39228421646173,-0.0588288230900882,-0.0279355475051937,-0.0229511264007537,5.05401638344435,0.00158106885018594,-0.000123422188748911,1.29366324588778e-05,-1.56221986467381,-0.168825563050765,-2.39228421646173,-0.0588288230900882,-0.0279355475051937,-0.0229511264007537,-0.510141893230486,-1.38615611647649,0.189532633379503,0.126945701315505,-0.0111269105112503,0.00108137266224124
9.1,3.26898811797959,2.35267798387019,-3.49484156937814,-0.222667840788689,-0.00945269794838594,-0.0534000361301019,-1.80881187765945,-0.17212061035711,-2.41355445377091,-0.110422068002443,-0.0909872384118095,-0.0433224236880264,5.21051801316706,0.00668401512083861,0.00241502917915809,0.00459022547183774,-1.80881187765945,-0.17212061035711,-2.41355445377091,-0.110422068002443,-0.0909872384118095,-0.0433224236880264,-0.0268946579033522,-2.30314972856802,0.353305066135068,0.538655668375174,0.184605223036994,0.194210734002686
9.2,3.13484674937518,2.42914448595292,-3.57310322027998,-0.179850472963848,0.0270015187597003,0.00185063849692776,-1.56813942409459,-0.549196605007225,-2.15428095068863,0.179535599206066,0.0741046834810231,0.120464734201221,5.01565310505018,-0.0015425599324679,-0.00119332617425521,-0.00578443115248617,-1.56813942409459,-0.549196605007225,-2.15428095068863,0.179535599206066,0.0741046834810231,0.120464734201221,-0.263137978126277,-1.79491478047955,0.0559081495867169,-0.124461157772321,-0.0920157173597909,-0.243576283096692
9.3,3.0750193282722,2.19721650631365,-3.64432695653898,-0.0957572229440131,0.0600937683421443,0.0368706656894228,-1.72290201002211,-0.632158085423615,-2.41630495002846,-0.195142394410131,-0.103476605913377,-0.145108231647847,5.24966617971509,0.00491418635606473,0.00134884553003151,0.00512919538458198,-1.72290201002211,-0.632158085423615,-2.41630495002846,-0.195142394410131,-0.103476605913377,-0.145108231647847,-0.590245136213065,-1.02630646595759,0.622367215109342,0.395396125004589,0.100970326261215,0.216927080355481
9.4,2.94829731556471,2.18282884598254,-3.84913954921997,-0.214541936584239,0.0161558528482045,-0.0391455212878092,-1.80254024243324,-0.459875143049158,-2.13336157546101,0.119061114300886,0.0413291927974192,0.130333623632165,5.19081901883403,0.000473434292352736,-0.000585413606450379,-0.0043179166441089,-1.80254024243324,-0.459875143049158,-2.13336157546101,0.119061114300886,0.0413291927974192,0.130333623632165,-0.250245581595985,-2.20214312719933,0.332305021117079,0.038271687224443,-0.0446847917335599,-0.181714903742009
9.5,2.75394290723179,2.1851264356306,-3.90848312605509,-0.11951991446338,0.0491980973014678,0.0443984908837148,-1.79669734050675,-1.05335838150846,-2.22706140014487,-0.087743453558206,-0.0751327698792549,-0.108572384239129,5.25783327704163,0.00417213461480403,0.00117732992062647,0.00304291817694782,-1.79669734050675,-1.05335838150846,-2.22706140014487,-0.087743453558206,-0.0751327698792549,-0.108572384239129,-0.457296451642639,-1.27539483688036,0.618014721989953,0.335718343906929,0.0880170615725722,0.128874133162271
9.6,2.67336206587095,1.91245659810511,-4.03815209145813,-0.180318320917076,0.017942510382415,-0.0328469785083309,-1.85103958791737,-0.879874533392292,-2.10112381755705,0.101204923100034,0.023515005963957,0.0755804082713221,5.26901364494963,0.00141656753953648,5.78306069985707e-05,-0.00202124697328528,-1.85103958791737,-0.879874533392292,-2.10112381755705,0.101204923100034,0.023515005963957,0.0755804082713221,-0.247969710249618,-1.88279072496746,0.555501882274534,0.114200135052374,0.00429427711439645,-0.084837104665464
9.7,2.53084751260093,1.94045479516952,-4.12422519607496,-0.0951535541814597,0.0682421264149995,0.050754267861743,-1.81454137441698,-1.21536306581307,-2.07540989181221,-0.0008312394281733,-0.0203185456986196,-0.0325131660242889,5.28859892069656,0.00130313798439011,-0.00042594718952005,-0.000861526487688196,-1.81454137441698,-1.21536306581307,-2.07540989181221,-0.0008312394281733,-0.0203185456986196,-0.0325131660242889,-0.66607998921041,-1.04007108852644,0.694841919551008,0.104597200590544,-0.0345737234258175,-0.0359059401966863
9.8,2.40640275053942,1.70610526486355,-4.25289844112963,-0.15581164011609,0.0282260009866107,-0.0137952841641987,-2.01730039298485,-1.1249536464021,-2.04875201624973,-0.0147039628415989,-0.0564756865731333,-0.0255775325626876,5.37901418154622,0.00398469132984543,0.00115582820195359,0.00186646380696675,-2.01730039298485,-1.1249536464021,-2.04875201624973,-0.0147039628415989,-0.0564756865731333,-0.0255775325626876,-0.322939061968742,-1.66515545760485,0.813471274746547,0.32105554739093,0.0878151581659623,0.0791862782100675
9.9,2.20762152914309,1.70052848482457,-4.35422746889177,-0.147207351563712,0.0243892641611317,0.000124889722753509,-1.93926232212704,-1.42648107085906,-1.91195538155818,0.120981959576994,0.0203007735821455,0.0475870711606392,5.34996890115044,0.0012177480523377,-3.08720486254471e-05,-0.00225385092006945,-1.93926232212704,-1.42648107085906,-1.91195538155818,0.120981959576994,0.0203007735821455,0.0475870711606392,-0.257919572179084,-1.5694591184813,0.771065378439467,0.0980759361863504,-0.00291053239177062,-0.0947005025787363
10,2.10001172544844,1.46926030370771,-4.42816048629656,-0.0994784795270535,0.04490984756936,0.0205176449970729,-1.96800101255719,-1.57126921739456,-1.91597470094857,0.00307638677957299,-0.0365616972897873,-0.0549732782378109,5.41283615091231,0.00308412072535265,0.000642068277385394,0.00163516492522185,-1.96800101255719,-1.57126921739456,-1.91597470094857,0.00307638677957299,-0.0365616972897873,-0.0549732782378109,-0.461453355423888,-1.08484171124896,0.951289887778108,0.248322952204031,0.0478778793256185,0.0693864693583353
10.1,1.97554491357507,1.33231711891749,-4.53596420669866,-0.133332897934107,0.0304509537122354,-0.0114431526244802,-2.04264349868169,-1.53181279767926,-1.78904182795808,0.101864725513809,0.00308239357805837,0.0413259540952809,5.41724322297247,0.0017280670583523,6.78458140159278e-05,-0.00141143750160813,-2.04264349868169,-1.53181279767926,-1.78904182795808,0.101864725513809,0.00308239357805837,0.0413259540952809,-0.343401650405444,-1.43648156729569,0.923344891536985,0.13927253487777,0.00486457320043784,-0.0591850416236564
10.2,1.77319902538473,1.22313410640823,-4.62921226976728,-0.118976463762476,0.0177773737691374,-0.0016476919550065,-2.09766460833638,-1.80805027945686,-1.78800869043176,0.0280781580377163,-0.0461080737793147,-0.0520099211694834,5.51453785767264,0.00431343799308211,0.00145525168735711,0.00255119060866045,-2.09766460833638,-1.80805027945686,-1.78800869043176,0.0280781580377163,-0.0461080737793147,-0.0520099211694834,-0.196828412464866,-1.3087842949497,1.13937684894253,0.34755357758479,0.110770799908652,0.108000711633964
10.3,1.62637373922943,1.0045585789276,-4.72626715548605,-0.139536455640183,-0.000726114128367733,-0.0363196161176938,-2.07065034937193,-1.89495990783646,-1.6111649425323,0.15491721627324,0.0194274409223428,0.0427663051443282,5.49678666456658,0.00278651727459301,0.000873867170274692,-0.000288338555862731,-2.07065034937193,-1.89495990783646,-1.6111649425323,0.15491721627324,0.0194274409223428,0.0427663051443282,-0.0476218271197816,-1.52830982002622,1.07671923945047,0.224689314928728,0.06709779994503,-0.0118416702187805
10.4,1.54785616956689,0.898692772566003,-4.71979490298209,-0.0392396118600457,0.0700013334689405,0.0460138462617397,-1.97154137670026,-2.01967365847317,-1.5473771658484,0.138389777032356,0.035217985250269,0.0160039564527753,5.44048999654489,-0.000737924370954001,-0.00155075847627965,-0.00292742063731052,-1.97154137670026,-2.01967365847317,-1.5473771658484,0.138389777032356,0.035217985250269,0.0160039564527753,-0.740036075278254,-0.461384113616977,1.03597607027641,-0.0597547375383277,-0.120196761370418,-0.123206815616564
10.5,1.41232942048012,0.669895151990402,-4.82821059448055,-0.0764868892212328,0.0388251822851691,-0.00112463109870543,-2.26728874995795,-1.87316630299518,-1.57423983160449,-0.0382074207739442,-0.0975960940991707,-0.0778230430729111,5.58193284200085,0.00474741612357932,0.00150334337692976,0.00374378328130735,-2.26728874995795,-1.87316630299518,-1.57423983160449,-0.0382074207739442,-0.0975960940991707,-0.0778230430729111,-0.433022409421114,-0.852570573275579,1.31283740872598,0.382511668269495,0.11451543686234,0.15827606961188
10.6,1.15491793628435,0.650332111326042,-4.91755830181153,-0.131919704446229,-0.00587653028305576,-0.0296937114634004,-2.21337893515085,-2.02174946247005,-1.35536694520344,0.213969055572013,0.0411296595727244,0.084347863951602,5.54719571062238,0.00133121297979435,7.21968255534319e-05,-0.0025729565926547,-2.21337893515085,-2.02174946247005,-1.35536694520344,0.213969055572013,0.0411296595727244,0.084347863951602,0.0212747036866017,-1.46060299852027,1.18780465708888,0.107413370318355,0.00578132100163632,-0.108297338741004
10.7,0.99847552496081,0.412597619490007,-4.94925990726608,-0.0538408553223861,0.021156567888222,0.00634421880883321,-2.16285292191598,-2.35618090085387,-1.3773862683961,0.053781429795748,-0.0426962119042977,-0.0831532849895983,5.64129174922622,0.00409318881710139,0.00134618633316855,0.00365210875167243,-2.16285292191598,-2.35618090085387,-1.3773862683961,0.053781429795748,-0.0426962119042977,-0.0831532849895983,-0.234480275995099,-0.608670331818275,1.45371296806186,0.32975161289075,0.102422446657036,0.154354581162217
10.8,0.913629945030095,0.144743122764158,-5.02073997460426,-0.0918512350694325,0.00367163938275691,-0.0432812404664203,-2.20776622701069,-2.18690093700961,-1.14189469823999,0.200279785112313,0.0283420046275975,0.0746846052544806,5.57045478753574,0.00178603685546634,0.00038184281231853,-0.00146792337442177,-2.20776622701069,-2.18690093700961,-1.14189469823999,0.200279785112313,0.0283420046275975,0.0746846052544806,-0.0849086429671848,-1.01914864668955,1.28387185423645,0.144087226634596,0.0295519248294304,-0.0617072178002109
10.9,0.734153146252296,0.0809725365602252,-5.01058511184355,-0.0282196863066158,0.030401848160335,0.017611802007614,-2.19227952608695,-2.3803598132061,-1.18133154401694,0.108815236075832,-0.0109990741235315,-0.0423026139399853,5.6391797023182,0.00204403849396545,0.00037786282992909,0.00118025496429819,-2.19227952608695,-2.3803598132061,-1.18133154401694,0.108815236075832,-0.0109990741235315,-0.0423026139399853,-0.337036203702623,-0.324215312048498,1.45865927646129,0.164546152437916,0.0282090906385301,0.0500153575836239
11,0.60984633938505,-0.148814309107239,-5.08551650569064,-0.0494058761122524,0.0216975651658676,-0.0213792585877933,-2.26446989684874,-2.24739044034338,-0.991405177507124,0.136212155774598,-0.00461396304698723,0.0241443623935981,5.60565992771138,0.00208054696041312,0.000276696213602795,-0.000120809995880988,-2.26446989684874,-2.24739044034338,-0.991405177507124,0.136212155774598,-0.00461396304698723,0.0241443623935981,-0.254723292758488,-0.548359700817672,1.38500382238622,0.16769088607335,0.0210222856131446,-0.00490093785296972
11.1,0.450944534694541,-0.19977028109803,-5.05126680330151,-0.00583310697033856,0.0487588982298173,0.0306148466750364,-2.23027212559417,-2.30475543056469,-0.949441162236772,0.165520184043599,0.0139146747973529,0.0160219296739726,5.60089503210197,-0.000389818958445654,-0.0011493384933636,-0.00220003728235411,-2.23027212559417,-2.30475543056469,-0.949441162236772,0.165520184043599,0.0139146747973529,0.0160219296739726,-0.543705334430307,-0.0820221599294138,1.37828662115387,-0.0316414115823549,-0.08892533109877,-0.0926519659279253
11.2,0.317096360711888,-0.382050520160729,-5.09076459629327,0.0153303891041663,0.0561529434039393,0.0295141311379227,-2.34018488392529,-2.21733274183459,-0.869422562132162,0.0642621863729464,-0.0451679033554416,-0.0324772325486264,5.62947657513384,0.00105385259675274,-0.000556682256192104,0.000142056570518056,-2.34018488392529,-2.21733274183459,-0.869422562132162,0.0642621863729464,-0.0451679033554416,-0.0324772325486264,-0.63663506870589,0.153877383926562,1.42988627967082,0.0847033693466723,-0.043432734460687,0.00615249123390814
