time,x,y,z,roll,pitch,yaw,xdot,ydot,zdot,p,q,r,thrust,roll angle,pitch angle,yaw angle,_xdot,_ydot,_zdot,_p,_q,_r,_xddot,_yddot,_zddot,_phiddot,_thetaddtot,_yawddot
0,3.01841953230695,4.01841953230695,0.0184195323069548,0.0184195323069548,0.0184195323069548,0.0184195323069548,0.0184195323069548,0.0184195323069548,0.0184195323069548,0.0184195323069548,0.0184195323069548,0.0184195323069548,9.11546034209866,-0.00904175593849124,0.00451078692913629,-0.00188963241251346,0.0184195323069548,0.0184195323069548,0.0184195323069548,0.0184195323069548,0.0184195323069548,0.0184195323069548,-0.341856804069002,0.329545460227661,8.41473601204278,-0.729173967847815,0.346983712520799,-0.0797313284103749
0.1,1.82036642022637,2.42036642022637,0.0203664202263731,0.0198934902426829,0.0192872052418885,0.0188228171131203,-0.0863673118120487,0.121956139102191,4.64098828828792,-0.391249488496755,0.200877790769519,-0.0339449077792764,5.49927100769457,-0.000455830579885019,-0.00114260326047313,0.000537159506186082,-0.0863673118120487,0.121956139102191,4.64098828828792,-0.391249488496755,0.200877790769519,-0.0339449077792764,-0.216156351961782,0.214754568125049,1.18432050520886,-0.0367634582867945,-0.0878896093789901,0.0226648721734624
0.2,1.96107745686163,2.72064522931136,2.13636572677587,-0.177729275468597,0.0947655961280591,-0.0159966561162249,-0.0577580437938376,0.0610753868567855,1.07627395074861,-0.0531678187244385,-0.025267251941232,0.0103051500604185,6.68393984548487,0.000302836337668724,0.000394359058315838,0.00024861941058123,-0.0577580437938376,0.0610753868567855,1.07627395074861,-0.0531678187244385,-0.025267251941232,0.0103051500604185,-1.28263961178248,-2.34315802576238,3.28826910415393,0.0244516643314333,0.0303856260805614,0.0105109693776102
0.3,1.97460784727724,2.70253016467973,0.78016024839314,-0.0402017348552206,0.00816753122007265,0.010154645150429,-0.298135502243927,-0.398226811758315,2.48957507719317,-0.0192473971079232,0.0349951482592361,0.00846892520919869,6.46595066704728,-0.00488507592332147,0.0011387467129985,-0.000921630176585798,-0.298135502243927,-0.398226811758315,2.48957507719317,-0.0192473971079232,0.0349951482592361,0.00846892520919869,-0.100252019282933,-0.520789699089698,3.11102162124606,-0.393948995571428,0.0876152309920643,-0.0388664235575687
0.4,1.8371211294835,2.47026323389799,1.54076862433059,-0.047688957207639,0.014347237050886,-0.0102915525761775,-0.220818330928469,-0.287056291343139,2.34797338616217,-0.264754704043128,0.0515940015314494,-0.0347160971258179,6.08087976779179,0.000165648481860858,0.000160509930299342,0.00208287390600745,-0.220818330928469,-0.287056291343139,2.34797338616217,-0.264754704043128,0.0515940015314494,-0.0347160971258179,-0.18024060649634,-0.577937502372882,2.33668253345246,0.0133523282421927,0.0123343445712793,0.0879107907277083
0.5,1.9149519126537,2.56601930048884,1.61858528521958,-0.11654266781249,0.0694303379150874,0.014959360212497,-0.162093685580705,-0.250697376597095,2.1194571999436,-0.0220637393435516,0.0540937928852766,0.0710459134017083,6.14734148049259,-0.00364226363912505,-0.00285077240931463,-0.00406887032860734,-0.162093685580705,-0.250697376597095,2.1194571999436,-0.0220637393435516,0.0540937928852766,0.0710459134017083,-0.825672400947839,-1.44212623002047,2.37186217842492,-0.293654741207831,-0.219095983112896,-0.17163185193818
0.6,1.88858083224142,2.52684490025741,1.626293003155,-0.0502582733563775,0.0417170842391465,0.0306991743012423,-0.313449866920703,-0.468859929518761,2.29430255260693,-0.217834813107639,-0.100954965823391,-0.0933448180582182,6.00304686154394,-0.00154869474856985,0.00111459794338543,0.00297594931838338,-0.313449866920703,-0.468859929518761,2.29430255260693,-0.217834813107639,-0.100954965823391,-0.0933448180582182,-0.481332742186756,-0.61821703928364,2.17050136560272,-0.12500905041293,0.0854864524875479,0.125629515008332
0.7,1.84830986520507,2.45146427887465,1.89786013384999,-0.109855910322853,0.00801351156220469,-0.00597162941619382,-0.28503730629554,-0.437009281707131,2.2662226178904,-0.112347530603223,0.0886123303501226,0.0888929307037522,5.79801730759673,-0.00244975387783067,-0.00281828795695387,-0.00391374988865277,-0.28503730629554,-0.437009281707131,2.2662226178904,-0.112347530603223,0.0886123303501226,0.0888929307037522,-0.0999540412341829,-1.27075796580911,1.71576254218082,-0.197452344283074,-0.216347443195591,-0.165080911824395
0.8,1.81059898313924,2.40885314485039,1.96918220376348,-0.101756882560074,0.0592140583339891,0.0401183728342821,-0.338729359559767,-0.586154637644531,2.13000745676451,-0.183717465073042,-0.105336523439359,-0.0887178189543352,5.82535797669557,-0.000734595597707174,-0.00131933589819355,0.00236509376378118,-0.338729359559767,-0.586154637644531,2.13000745676451,-0.183717465073042,-0.105336523439359,-0.0887178189543352,-0.637897455341729,-1.21005384880874,1.7601356407803,-0.0593392937627646,-0.101811713899025,0.0998796786317112
0.9,1.78450165834215,2.33048997749783,2.06443187908245,-0.132405493250109,-0.0130121158800028,-0.0247817358593496,-0.369704962872421,-0.680058859007602,2.24905095017943,-0.107822922951558,-0.0349512425465413,0.0580908623579416,5.60488594601257,-0.00157277971876414,-0.000674257097667403,-0.00153783819494043,-0.369704962872421,-0.680058859007602,2.24905095017943,-0.107822922951558,-0.0349512425465413,0.0580908623579416,0.107866869486476,-1.48303065637678,1.30071422915515,-0.126736708934303,-0.0512855220585036,-0.0648192277413647
1,1.69849834473905,2.20481588508894,2.21032441708287,-0.151582590726574,-0.0301708688605583,-0.00423382542061072,-0.450589300940973,-0.859267590241872,2.05977522909296,-0.181995276066934,-0.0565689676499056,-0.0640361679622311,5.59358397671611,0.0018988387977643,-0.000793186965924693,0.00326194965903129,-0.450589300940973,-0.859267590241872,2.05977522909296,-0.181995276066934,-0.0565689676499056,-0.0640361679622311,0.326450515514544,-1.69069057260471,1.2438555385407,0.153125091239874,-0.0610673320095533,0.137697412015157
1.1,1.65965997131946,2.10559130526733,2.26863460107678,-0.178565000616187,-0.0301136316155661,-0.0443695666009222,-0.407014320060478,-0.981593942522272,2.12875276448173,-0.024389066477572,-0.0455349551114454,0.0558242602695303,5.44815642434899,-0.000600924325166687,-0.00185334500218701,-0.000521438932231045,-0.407014320060478,-0.981593942522272,2.12875276448173,-0.024389066477572,-0.0455349551114454,0.0558242602695303,0.23669998486822,-1.94779244371612,0.90819534297013,-0.0483971574524211,-0.141770218525692,-0.0219528423180199
1.2,1.68820767152779,2.04162706891541,2.46350907925058,-0.0788080213878628,0.0104603309110201,0.0450780031242782,-0.323039696020991,-1.05842892754477,2.06560992970991,-0.0949603993112996,-0.0683523235132312,0.00579336231680032,5.38172275955128,-0.00330070106780589,-0.00339643979553563,-0.00229793444954571,-0.323039696020991,-1.05842892754477,2.06560992970991,-0.0949603993112996,-0.0683523235132312,0.00579336231680032,-0.0739389651735091,-0.851565030304195,0.91945149908797,-0.266183008026943,-0.261214256234456,-0.096927669497971
1.3,1.6547945462312,1.90607548202733,2.53571243492941,-0.149400387406144,-0.0388645033450419,-0.0109734965437527,-0.365540404919041,-1.27088883750794,1.97188420645962,-0.247562513905901,-0.169588865922612,-0.0664047754619988,5.29153282678943,0.0045907392804341,0.000407964319517866,0.00368001815667308,-0.365540404919041,-1.27088883750794,1.97188420645962,-0.247562513905901,-0.169588865922612,-0.0664047754619988,0.389311459857407,-1.57960592701757,0.647273082908136,0.370220700924869,0.0313519297516565,0.155279899393787
1.4,1.64191745194145,1.7796067012664,2.61650002430315,-0.201894117473626,-0.0693273739472856,-0.0252749433269298,-0.33333232186063,-1.30559776281586,1.94941564243738,0.10471566935205,0.00378073534634044,0.0863841426871608,5.1971372687266,-0.00172490990655351,-0.00330490136410903,-0.00288946941955223,-0.33333232186063,-1.30559776281586,1.94941564243738,0.10471566935205,0.00378073534634044,0.0863841426871608,0.652505118065056,-2.10147685277685,0.34868964326059,-0.139193314843467,-0.253159346006332,-0.121994630589872
1.5,1.60886337265465,1.6641903643087,2.71911823848057,-0.0714715408644999,-0.0141507057606483,0.0305939243190404,-0.329720661407182,-1.47021803811781,1.87957623279263,-0.167895461832343,-0.171710354369709,-0.0727204856126938,5.17905106951944,5.40456756177107e-05,-0.00214354017899957,0.00201182859993231,-0.329720661407182,-1.47021803811781,1.87957623279263,-0.167895461832343,-0.171710354369709,-0.0727204856126938,0.168753123897687,-0.734861277714826,0.520623466589605,0.00438787237802742,-0.165232480214902,0.084817101581028
1.6,1.59135019252445,1.51903691049178,2.82083644755753,-0.188267308630266,-0.0924097812921332,-0.0382376029054697,-0.255664668476063,-1.67621904235727,1.84432724948976,-0.0967074283713116,-0.12766481269688,0.0381339781697523,5.01143740696052,0.00457641229802236,-0.000258706400650606,-2.15947825998739e-05,-0.255664668476063,-1.67621904235727,1.84432724948976,-0.0967074283713116,-0.12766481269688,0.0381339781697523,0.836176373876762,-1.90921336781606,-0.00623883790229662,0.368923045240037,-0.0190348156142862,-0.00107336533659798
1.7,1.57501827581507,1.30980253423582,2.86229568611488,-0.188186719191089,-0.101971253821601,-0.0162263892102852,-0.301532517325714,-1.73357469794968,1.68504291223708,0.0895684119909714,-0.0814647725772319,-0.0238723011853207,5.06236154153885,0.000757848097372445,-0.00196227855325364,0.00186227638029148,-0.301532517325714,-1.73357469794968,1.68504291223708,0.0895684119909714,-0.0814647725772319,-0.0238723011853207,0.981579958572737,-1.91029057696931,0.0843068582633517,0.0610677582683323,-0.150719930372141,0.0783402275660045
1.8,1.53520275029851,1.18683901260657,2.9266250950648,-0.107179406560698,-0.0890382577356814,-0.0375186337447351,-0.217478482992573,-1.92764294622088,1.72875450926967,-0.0616741639827576,-0.152799743451881,0.0212541281017659,4.91312249377062,0.00206669807808081,-0.00131014319623341,0.000725590991882971,-0.217478482992573,-1.92764294622088,1.72875450926967,-0.0616741639827576,-0.152799743451881,0.0212541281017659,0.828702316347419,-1.08300253211955,-0.0788413566789199,0.166501159034589,-0.100156013640716,0.0303484120297866
1.9,1.59384221911644,1.04385072833649,3.08963375731438,-0.127993164963014,-0.0832055571777588,0.0227339808367251,-0.0645290453548641,-2.04353408750823,1.5891345337488,0.037035797894833,-0.0971810685428122,0.0342734872975393,4.82390657996301,0.00148095132050813,-0.00244652764945032,-0.00272873767909018,-0.0645290453548641,-2.04353408750823,1.5891345337488,0.037035797894833,-0.0971810685428122,0.0342734872975393,0.823055482828162,-1.21308904045079,-0.274209869079208,0.119341673822743,-0.187926592645526,-0.1154909149994
2,1.6168447940655,0.843235761678872,3.08671407797813,-0.106089577481228,-0.0861291699874436,0.0121630502608753,-0.0229625520253428,-2.16211896310114,1.45727274413669,0.00321557694790123,-0.166280663665163,-0.0605280747368929,4.85736185094741,0.0025922284884128,-0.000953825170167114,0.00226496318610741,-0.0229625520253428,-2.16211896310114,1.45727274413669,0.00321557694790123,-0.166280663665163,-0.0605280747368929,0.843438893814389,-1.01851553080384,-0.185702958134062,0.209180262837,-0.0737033318485043,0.095171064168166
2.1,1.61202736923057,0.647347748988709,3.11156181164213,-0.133366301595196,-0.140678276101758,-0.0464702895629743,0.0385998038267706,-2.32357865057828,1.46603382962067,0.0412033475244104,-0.123017589171519,0.037585061508627,4.76807431190342,0.00448566394789194,-0.000339943714623038,0.000412370285503688,0.0385998038267706,-2.32357865057828,1.46603382962067,0.0412033475244104,-0.123017589171519,0.037585061508627,1.26489939912436,-1.32822703702739,-0.451903343973335,0.361407264391441,-0.0254318172440395,0.0169192679132792
2.2,1.63442616330075,0.438001796542747,3.19706865468284,-0.115630644223622,-0.126445857400905,-0.0049828076862771,0.0874047772382598,-2.39196850697239,1.36526890382597,0.141329668841079,-0.101865286210834,-5.10409248530748e-05,4.72607213330734,0.00228700548812656,-0.00171374091634116,0.000236799568652076,0.0874047772382598,-2.39196850697239,1.36526890382597,0.141329668841079,-0.101865286210834,-5.10409248530748e-05,1.17859368137126,-1.09640989598933,-0.495933567388246,0.184400572675901,-0.131761474771486,0.00946031298563873
2.3,1.68094540892506,0.298040570499894,3.27431653994597,-0.0363222521256844,-0.095319325691421,0.0142691012632134,0.260034735237016,-2.47876253055895,1.31088259647577,0.0869441407756698,-0.134860802564093,0.022562549913869,4.60535031498001,0.00118997042749626,-0.00170634665752062,-0.00173659988120189,0.260034735237016,-2.47876253055895,1.31088259647577,0.0869441407756698,-0.134860802564093,0.022562549913869,0.880734063118567,-0.321945749955353,-0.647158489917311,0.0959261329981084,-0.131196566829922,-0.0738137750325114
2.4,1.73617414748831,0.0822474220558331,3.30780274259043,-0.070037175138966,-0.133689351398152,0.007163425889799,0.362543181986944,-2.66453445955055,1.17836177200657,0.0337481218235788,-0.155742612810046,-0.0373201036614745,4.62894170338616,0.0060733864321166,0.000698276900820901,0.00141967090112972,0.362543181986944,-2.66453445955055,1.17836177200657,0.0337481218235788,-0.155742612810046,-0.0373201036614745,1.23558095986348,-0.639031524424411,-0.657219899079578,0.490000754568552,0.0534332554988271,0.0593292026660981
2.5,1.80884888495078,-0.16064984438908,3.31707627586177,-0.0779985509682537,-0.14244477275042,-0.0129955341552367,0.442862695240734,-2.65691042552112,1.15984848644828,0.260640754605382,-0.0515785505162208,0.0411760764830912,4.5756516874211,0.00192969771357357,-0.0015343585284473,-0.00137733535409653,0.442862695240734,-2.65691042552112,1.15984848644828,0.260640754605382,-0.0515785505162208,0.0411760764830912,1.28582586390778,-0.729836019792729,-0.778923392511993,0.15538508451542,-0.117753821568117,-0.0587434196028436
2.6,1.85329568930813,-0.328629883418141,3.38203326959,0.0255282420353046,-0.103545283579285,0.0234771621516497,0.550182336324844,-2.71188963158146,1.05126654878322,0.103187557069563,-0.142976615196359,-0.0224357144051762,4.5011375342415,0.00240973101945894,-0.00064022039524932,-5.75865715996503e-05,0.550182336324844,-2.71188963158146,1.05126654878322,0.103187557069563,-0.142976615196359,-0.0224357144051762,0.924524568210117,0.251559839713671,-0.858858822560689,0.194628643375672,-0.0495281776462094,-0.00297971235380043
2.7,1.92986235359801,-0.516304384044255,3.41044289592386,-0.0240104529860194,-0.144076635948283,0.00290138747989298,0.721470616313549,-2.84564434430506,1.03995604866729,0.13580253004056,-0.107998023861464,0.0108845011729444,4.45155301306632,0.00581299568863852,0.00106928500332589,-0.000764507149432921,0.721470616313549,-2.84564434430506,1.03995604866729,0.13580253004056,-0.107998023861464,0.0108845011729444,1.27854266729037,-0.210038411265017,-1.00167953431128,0.468791667281131,0.0822513304447577,-0.0328159670910609
2.8,2.0344800966907,-0.785918778019014,3.44147153529824,-0.0100951270821916,-0.141383103557253,0.00627833163747157,0.763943794023577,-2.79612746921214,0.875698452438366,0.291989569540874,-0.0436687990644356,-0.0112721579886778,4.49509359928252,0.00239634746286394,-0.000523835128062493,7.70095255955913e-05,0.763943794023577,-2.79612746921214,0.875698452438366,0.291989569540874,-0.0436687990644356,-0.0112721579886778,1.26731049272871,-0.0828006293367,-0.90996999802563,0.193421809640973,-0.0404089696179313,0.00271560330749708
2.9,2.05063696761071,-0.977349370119938,3.40275503861203,0.0371450351296124,-0.152403309109662,-0.0350796805737701,0.855897265005214,-2.88338070733399,0.855673684934821,0.135649811966429,-0.137294850187214,-0.0208046829155519,4.47764504169035,0.00613311430813899,0.00222940780262946,0.00244698261469742,0.855897265005214,-2.88338070733399,0.855673684934821,0.135649811966429,-0.137294850187214,-0.0208046829155519,1.36942893063709,0.284713962322457,-0.964615732423514,0.494601774842256,0.171495016048978,0.102835313337531
3,2.17333938303048,-1.16599946295754,3.47583299942255,0.0159988544012721,-0.166036479143296,-0.0100053636074595,1.03426764723123,-2.8606132192249,0.869470664976461,0.337023332141014,0.00601454909043214,0.0614115288208348,4.36604945862528,0.00330197343666333,0.000608389847088772,-0.00269256824372859,1.03426764723123,-2.8606132192249,0.869470664976461,0.337023332141014,0.00601454909043214,0.0614115288208348,1.44433532178013,0.125253029800827,-1.19909071831363,0.265933519477783,0.0469391606649228,-0.113987664579841
3.1,2.31213697682648,-1.34529930799076,3.54198272415848,0.129103547171878,-0.0929795924454067,0.0428502362985592,1.16498591910077,-2.79912912379725,0.676883198781283,0.250672776008408,-0.0358960034804982,-0.0409191380727355,4.30488923725391,0.00122397570908292,-0.000666484818762645,-0.000296317345788745,1.16498591910077,-2.79912912379725,0.676883198781283,0.250672776008408,-0.0358960034804982,-0.0409191380727355,0.744516810886752,1.14140836367306,-1.30875497084442,0.0993844638286598,-0.0514177499933172,-0.0127129786667517
3.2,2.41886234890384,-1.51400889446642,3.50101713383514,0.103935292056665,-0.121639149072543,-0.00409655697453967,1.36277921761339,-2.84712598123556,0.73707727630034,0.163752038754745,-0.101141221105372,0.00280621543767881,4.26912664468356,0.0063673793009026,0.00383323236387192,-0.000106176577412641,1.36277921761339,-2.84712598123556,0.73707727630034,0.163752038754745,-0.101141221105372,0.00280621543767881,1.03405595791583,0.881600309213274,-1.38057069523195,0.513488387933945,0.294864919430624,-0.00456837673722994
3.3,2.53611583986153,-1.82230641606136,3.50847718926541,0.0193566858086135,-0.210238681297802,-0.0539132562925918,1.32471218824196,-2.81662655897071,0.51926821836947,0.347375653660194,0.0376969368212351,-0.0424932091447737,4.5724300636231,0.00734514670488621,0.00389796923479046,0.00467307669330605,1.32471218824196,-2.81662655897071,0.51926821836947,0.347375653660194,0.0376969368212351,-0.0424932091447737,1.91487956916499,0.0739231504729596,-0.868174775230955,0.592390488822001,0.299843545773843,0.197169649815692
3.4,2.64185010365169,-1.9479828284183,3.4918548078202,0.154922214563713,-0.114332414042642,-0.0359073440415672,1.4932554643707,-2.63024139651763,0.660209282981862,0.451038760063837,0.0830620940858341,0.10133636745099,4.1832177007946,-0.00094795347529518,-0.000226888012925558,-0.00320141296773722,1.4932554643707,-2.63024139651763,0.660209282981862,0.451038760063837,0.0830620940858341,0.10133636745099,0.988778312092961,1.25628116331657,-1.59773378310252,-0.0771579783552912,-0.0175701434069971,-0.134907456904043
3.5,2.76782648357956,-2.02834903109233,3.59011164979066,0.22036174962289,-0.0944774447446869,0.0306337235655778,1.6834105970989,-2.6702402141348,0.408123195417411,0.112596761489394,-0.0601075037818281,-0.072423883622167,4.21903129373516,0.00563810021844941,0.00419380913956103,0.00202878932440878,1.6834105970989,-2.6702402141348,0.408123195417411,0.112596761489394,-0.0601075037818281,-0.072423883622167,0.719915238320258,1.86734033739162,-1.61270396142418,0.455718619661971,0.323017884513096,0.0859930114174361
3.6,2.98543460820807,-2.2560217346807,3.52975844244966,0.108203979084496,-0.144902667580939,-0.0276779046456317,1.83514102257272,-2.50037799139016,0.523427390309274,0.407676423222252,0.123574785480222,0.0525117269777707,4.25118600049811,0.0041689589034016,0.00382363196568918,-0.000293223084618888,1.83514102257272,-2.50037799139016,0.523427390309274,0.407676423222252,0.123574785480222,0.0525117269777707,1.24547247869788,0.884067247345059,-1.44593680976152,0.336008349302708,0.294036839933584,-0.0119126363861238
3.7,3.15365778392334,-2.40386443250777,3.60524386483303,0.229628676444413,-0.0731600066670527,0.000547902788366861,1.84924109373474,-2.34413882940835,0.193755496275984,0.355743551168974,0.115103631102892,-0.0105287085959349,4.21827800448572,0.000210822260491573,0.00135012310721937,0.000847399449041263,1.84924109373474,-2.34413882940835,0.193755496275984,0.355743551168974,0.115103631102892,-0.0105287085959349,0.599428886590273,1.92062353368873,-1.61687071112178,0.0176755073276912,0.104322895323639,0.0363825831375987
3.8,3.26703390170527,-2.46050357942991,3.48208600241635,0.2431096402718,-0.0641232413021886,-0.0101266633758628,2.02818077744234,-2.21179646214451,0.343535064764384,0.205179334867126,0.0289086227607852,0.0234430922384985,4.0939303910782,0.00395042228504329,0.00490172816895056,1.98275957029673e-05,2.02818077744234,-2.21179646214451,0.343535064764384,0.205179334867126,0.0289086227607852,0.0234430922384985,0.529177164807903,1.96574017630182,-1.87924333524893,0.319053380277579,0.377498447835515,0.00158636476323609
3.9,3.52474082824388,-2.56906030886887,3.61715879211063,0.224355020841104,-0.0649074001150114,0.0370143336763866,2.12909269843083,-1.98866772671765,0.152160688732888,0.396629312787436,0.214909832392276,0.0316833869538549,4.06579455016584,-0.000370895716912485,0.00197867869733526,-0.00238577812759537,2.12909269843083,-1.98866772671765,0.152160688732888,0.396629312787436,0.214909832392276,0.0316833869538549,0.446911817444719,1.82688607332598,-1.89890030405704,-0.0290930161740526,0.153083581852835,-0.0998370878390042
4,3.68596650735548,-2.64668715091092,3.5452599419748,0.310533684976863,0.00670475155823169,0.0212435074087853,2.15855668595975,-1.81274886985882,-0.0336204397299027,0.209173246242701,0.0973386605478667,-0.0366952086895911,4.06580792785157,0.000625368079875523,0.00242476299244932,0.00124193583227566,2.15855668595975,-1.81274886985882,-0.0336204397299027,0.209173246242701,0.0973386605478667,-0.0366952086895911,-0.104681563085273,2.48308878874734,-2.06748824590689,0.0515710965284099,0.188207610644062,0.0532838768878702
4.1,3.82990883060659,-2.7161823730241,3.460795131075,0.239195479785837,-0.0443315954115743,-0.0119994121767127,2.18216416791219,-1.56005057434235,0.0614447099040811,0.243159559420334,0.110285200294027,0.0338260880118118,3.98418043982733,0.00260073591906353,0.00543971752223604,-0.000188005074096178,2.18216416791219,-1.56005057434235,0.0614447099040811,0.243159559420334,0.110285200294027,0.0338260880118118,0.365708448400079,1.88362015819611,-2.07611303814073,0.210346699388834,0.419494327993186,-0.00703066823059216
4.2,3.98078753053526,-2.77532361968814,3.51873977252235,0.241623815723065,-0.0538763818613666,-0.00873599001817335,2.14067425245296,-1.41787906651671,-0.370748043016068,0.314375154800123,0.232343690595801,-0.0155569580476742,4.16188808125957,0.000354084718829348,0.00278601754901333,0.00189553831829043,2.14067425245296,-1.41787906651671,-0.370748043016068,0.314375154800123,0.232343690595801,-0.0155569580476742,0.452599753144584,1.9878317120803,-1.73975042816994,0.0295068304043105,0.216265850961585,0.0808954173760658
4.3,4.10650738792711,-2.79338922219604,3.31501818945292,0.307324283100758,0.0243703240175219,-0.0146836471227896,2.22025480117569,-1.15509770095914,-0.302833722846206,0.241003394052886,0.149620383512919,0.0454559951004197,4.02604609194487,-0.00119660318734198,0.00254996652532669,-0.00102774586900792,2.22025480117569,-1.15509770095914,-0.302833722846206,0.241003394052886,0.149620383512919,0.0454559951004197,-0.151233610620629,2.43831679187324,-2.13745621352697,-0.0958622431491367,0.197924776365669,-0.0425222663977359
4.4,4.2833197662224,-2.77656070209974,3.33246599778339,0.296219801569439,0.00216517112146919,0.0193915713723415,2.2425420006232,-0.901208855470955,-0.388048000338191,0.173835305670875,0.161328578094493,-0.0145782811836573,3.94623930595141,0.000105722629759511,0.0042200245834102,0.000123995077464285,2.2425420006232,-0.901208855470955,-0.388048000338191,0.173835305670875,0.161328578094493,-0.0145782811836573,-0.0610140345487565,2.3031176469413,-2.2612818948328,0.00944917724120374,0.327824433483136,0.00601748439231494
4.5,4.44890955295317,-2.77618606075024,3.30349625276854,0.267414355940064,0.00485462504709228,-0.0188704410878585,2.20912342414567,-0.699915163777596,-0.660441501360679,0.217796986532443,0.225542669351712,-0.00110576865492059,4.04516837711355,-0.000405248959685984,0.00294324529244347,0.00123901354667357,2.20912342414567,-0.699915163777596,-0.660441501360679,0.217796986532443,0.225542669351712,-0.00110576865492059,0.00246573901173575,2.13811323643573,-2.00730722730241,-0.0320142478210158,0.229344476377775,0.0529657077906412
4.6,4.5852877575483,-2.75057423776508,3.15851513006324,0.301104447462689,0.0496262365278385,-0.0108681561449331,2.21562116183566,-0.448571677057122,-0.749125146765374,0.199331235553009,0.191887135231941,0.0283097442011845,4.01563092111797,-0.00231028283963889,0.0023870460284934,-0.000697410870916095,2.21562116183566,-0.448571677057122,-0.749125146765374,0.199331235553009,0.191887135231941,0.0283097442011845,-0.354565097125307,2.38586694385697,-2.14951115811358,-0.185842499440456,0.186710626249627,-0.0289057167836097
4.7,4.74830073690406,-2.67380603770345,3.08469222521967,0.320615732673651,0.0596963705890053,0.0170273211878361,2.21065044662498,-0.164851762378899,-0.816387925490567,0.123015515329125,0.194979125502619,-0.00202797354909746,3.93856650563666,-0.00251262333191102,0.00251804821413745,-0.000723086898995486,2.21065044662498,-0.164851762378899,-0.816387925490567,0.123015515329125,0.194979125502619,-0.00202797354909746,-0.488212119332204,2.4745323268701,-2.34758998934634,-0.202230717224806,0.197906409338258,-0.0301483807551204
4.8,4.93059874866238,-2.56818894764338,3.06034145626686,0.319517010729762,0.095397997160828,0.0261564575051007,2.19763608101806,0.117103685804097,-0.992287675013856,0.123655313526657,0.22617430309892,0.0140329685068435,3.911496374048,-0.00392716119433488,0.000799342992783616,-0.00198238501194951,2.19763608101806,0.117103685804097,-0.992287675013856,0.123655313526657,0.22617430309892,0.0140329685068435,-0.771475474331046,2.4379221766465,-2.41672084999603,-0.316520408592798,0.065762159103633,-0.0834685334827746
4.9,4.99156824422084,-2.54728925193535,2.87434827437617,0.250768880978026,0.0457870171092615,-0.0432285020631028,1.9874660783456,0.283079778783321,-1.19982977376599,-0.0106302918475693,0.0996909403658417,-0.0799596278331994,4.0352946322687,0.00213089850577821,0.00518452581129063,0.00579429747413154,1.9874660783456,0.283079778783321,-1.19982977376599,-0.0106302918475693,0.0996909403658417,-0.0799596278331994,-0.270963619976466,2.01630090531316,-2.00003710298513,0.171785778424051,0.403717752835033,0.244431718545729
5,5.09039014078053,-2.44123385616547,2.76023697313779,0.223369300713652,0.0285551333421926,-0.0505800568276813,2.00726912543018,0.521713822547637,-1.33440760731489,0.263218011507389,0.308185865513324,0.117897730554473,4.07836446831426,-0.00506822233534651,0.00110507736029167,-0.00331271220158981,2.00726912543018,0.521713822547637,-1.33440760731489,0.263218011507389,0.308185865513324,0.117897730554473,-0.135457147196969,1.81602081722578,-1.85915434068118,-0.408802484340768,0.0870527582500121,-0.139933592821384
5.1,5.26174356656257,-2.27531046525754,2.62257131443677,0.389282151807233,0.164409730449967,0.0621827322110616,2.06335283740263,0.773575566201958,-1.41617972697303,-0.0211123126998864,0.203786870403727,-0.0470251424892404,4.05696531375926,-0.00640312952147091,-0.0015692864984592,-0.000783307781259192,2.06335283740263,0.773575566201958,-1.41617972697303,-0.0211123126998864,0.203786870403727,-0.0470251424892404,-1.41763785238811,2.99713126240215,-2.4043685384978,-0.517076260211256,-0.114066219278877,-0.0335580381623451
5.2,5.40130254287528,-2.14384700194194,2.48004703542324,0.266350434762377,0.131745085062916,-0.014862257889656,1.83114752620936,1.20021724709818,-1.3205821930404,-0.0981040681091495,0.0747142148190915,-0.00311829084067669,3.84202163739732,-0.00177246596362852,0.00345620133902645,0.000765194390515679,1.83114752620936,1.20021724709818,-1.3205821930404,-0.0981040681091495,0.0747142148190915,-0.00311829084067669,-0.943649269245538,2.03678407105543,-2.46115262415501,-0.143674969688075,0.270703350438354,0.0315581237010777
5.3,5.45283098099452,-1.93386448411523,2.55746004466218,0.210348261983348,0.069483449242272,-0.00157702519607545,1.76573897000143,1.2536609846021,-1.8444207434582,0.0633188246255932,0.269719337216287,0.0178471396698825,4.07462179078521,-0.00422648774147896,0.000511450686035449,-0.000864873883305169,1.76573897000143,1.2536609846021,-1.8444207434582,0.0633188246255932,0.269719337216287,0.0178471396698825,-0.550627113075674,1.70243658910973,-1.85961067656602,-0.341642835062588,0.0439596461539292,-0.0372849079001438
5.4,5.56223167124781,-1.82024555023249,2.18109283230337,0.292093800909341,0.175596439817595,0.0111013104360799,1.73498277684298,1.47088373401245,-1.80455585404981,-0.0412601508801451,0.169808386134295,-0.00802277730356854,4.15392402642978,-0.00624846323369366,-0.00122279657383378,-0.000163846493165602,1.73498277684298,1.47088373401245,-1.80455585404981,-0.0412601508801451,0.169808386134295,-0.00802277730356854,-1.41634027240944,2.37673459152169,-1.97638958183281,-0.505151935599989,-0.0887071077254654,-0.0080115322695253
5.5,5.62677485021403,-1.67083443172623,2.01616650963141,0.222579210832419,0.119990537214437,-0.0245021849483763,1.46938495052453,1.77463811396534,-1.76475194834713,-0.168659733506122,0.0764468092504361,-0.0153091934556816,4.03271161297748,-0.00195028805303231,0.00280250835201698,0.00185626685456919,1.46938495052453,1.77463811396534,-1.76475194834713,-0.168659733506122,0.0764468092504361,-0.0153091934556816,-0.897735194077721,1.8029448802006,-2.00010159515206,-0.15865302232095,0.220583033691462,0.0770525115280332
5.6,5.64909189572092,-1.44829644171813,2.01014315215257,0.159523142119679,0.0869583419929051,-0.0210596315567617,1.43134444713492,1.87680519018944,-2.08213568382451,-0.00547604390755885,0.242199466575684,0.0306520202547406,4.153046959226,-0.00435351048601634,-0.000261115999860789,-0.000473089177395629,1.43134444713492,1.87680519018944,-2.08213568382451,-0.00547604390755885,0.242199466575684,0.0306520202547406,-0.684273037135357,1.33410690645679,-1.64035341309435,-0.35238474192817,-0.0158233874337683,-0.0212615561401802
5.7,5.75356168210012,-1.26152605175835,1.7278179502568,0.250111561768043,0.191720990920286,0.0165400954407042,1.41143195793192,2.03963124890632,-2.05315232157305,-0.10018128551194,0.145049867013133,0.00129828240044674,4.23624824399631,-0.00708808427697165,-0.00202386351126771,-0.000822272823709449,1.41143195793192,2.03963124890632,-2.05315232157305,-0.10018128551194,0.145049867013133,0.00129828240044674,-1.59865936629168,2.07088747729659,-1.75153178166028,-0.573560761310937,-0.15033521871968,-0.0362441128372959
5.8,5.8612290072612,-1.03421681479655,1.59900939327158,0.230163121136307,0.185285118490944,0.0253498009762842,1.18670324361928,2.38749760470451,-2.00298393147422,-0.218819326249626,0.0881512987680714,0.0113078624833525,4.16535952424392,-0.0059724002567843,-0.000915750296821486,-0.00174285446628358,1.18670324361928,2.38749760470451,-2.00298393147422,-0.218819326249626,0.0881512987680714,0.0113078624833525,-1.54196222239699,1.8620538121312,-1.83779905106085,-0.483792842945374,-0.0651816589427909,-0.0751958071297104
5.9,5.85996760783612,-0.774049127029029,1.57610284547983,0.154149308298152,0.153324251515676,0.0173336927452119,1.01533335818268,2.52561488403667,-2.21010001787417,-0.210824192883958,0.115915027120682,-0.0238242312484796,4.18026948150555,-0.00444959671743464,-0.000928359866432214,0.00028838084796327,1.01533335818268,2.52561488403667,-2.21010001787417,-0.210824192883958,0.115915027120682,-0.0238242312484796,-1.28377664849518,1.26161144234235,-1.64551190598233,-0.361270195931883,-0.0660694212514532,0.0105170627218824
6,5.84310085487222,-0.583130024612504,1.32724722981442,0.119526794130554,0.149118232466602,-0.0201791564236718,0.863850240134254,2.56181271181453,-2.3036692053909,-0.185398029232454,0.0934600162013443,-0.000301424624757938,4.27495256683603,-0.00417310519848451,-0.000808585395634565,0.000945602367325056,0.863850240134254,2.56181271181453,-2.3036692053909,-0.185398029232454,0.0934600162013443,-0.000301424624757938,-1.24033589545646,1.04475106791797,-1.41530287221043,-0.338756216014325,-0.057892020680395,0.038235728940355
6.1,5.87893154772391,-0.363511824366721,1.13226253235988,0.145348542206902,0.17110928193578,0.016552803418086,0.775234158925395,2.69867374566403,-2.25754241898091,-0.170861078438115,0.115519957576001,0.0374677163001824,4.3066111971697,-0.0068846824018788,-0.00283494802552253,-0.00260054061517237,0.775234158925395,2.69867374566403,-2.25754241898091,-0.170861078438115,0.115519957576001,0.0374677163001824,-1.47160639425328,1.22332541315846,-1.41205682513491,-0.557538981230162,-0.213999169696272,-0.111383818583296
6.2,5.87503677037299,-0.155356041660872,0.978784601721015,0.121037614889815,0.164083299518563,0.00949473873216427,0.552092633552857,2.81973204116154,-2.33860897378298,-0.327076105876631,0.00924198757702024,-0.0608513503202117,4.36028790982386,-0.00329900151276689,-0.000675352506547468,0.00235786600564696,0.552092633552857,2.81973204116154,-2.33860897378298,-0.327076105876631,0.00924198757702024,-0.0608513503202117,-1.42400052504185,1.0394688880937,-1.26949828396538,-0.269173657711721,-0.047039082522573,0.0978217892602375
6.3,5.82718749011142,0.0625844797196504,0.819368682053662,0.0275735080787045,0.11548220254896,-0.0386110821068715,0.388726133956671,2.89486584495393,-2.35862775241516,-0.201512182004605,0.0876358006495882,0.041138863561037,4.32202323252095,-0.0035080039604607,-0.00123438869001727,-0.000188743598107576,0.388726133956671,2.89486584495393,-2.35862775241516,-0.201512182004605,0.0876358006495882,0.041138863561037,-0.985696194398188,0.276571958002809,-1.2267925427496,-0.284959378088827,-0.0920650396787075,-0.00946674621460147
6.4,5.80286093536892,0.290370398492767,0.663401855133973,0.0722075884023185,0.155041747116528,0.0109603529834475,0.354345637761763,2.81977902239842,-2.38145843982367,-0.222181288699963,0.0596212663095648,-0.00862068502759293,4.37100570972571,-0.00494804937255866,-0.00243986205396889,-0.000170480817967566,0.354345637761763,2.81977902239842,-2.38145843982367,-0.222181288699963,0.0596212663095648,-0.00862068502759293,-1.35326699955206,0.615896171138099,-1.19535526024899,-0.401942926770154,-0.184039208417569,-0.00865027178528635
6.5,5.80605111222431,0.464261528836788,0.453821025188073,0.0471068264423269,0.146353893985616,-0.0145081535294884,0.151093171325091,2.93366382303963,-2.43896777688944,-0.301102357990761,0.00353713858477897,-0.0113079867854549,4.47073794823369,-0.0031276735115431,-0.00137496766350119,0.00115522876144118,0.151093171325091,2.93366382303963,-2.43896777688944,-0.301102357990761,0.00353713858477897,-0.0113079867854549,-1.29626115364491,0.439900783136054,-0.973927030085436,-0.255054560226023,-0.102610565973625,0.047370790412416
6.6,5.75916838691561,0.700140014327889,0.326925984190504,0.00460414582247609,0.130944726162687,-0.00806493231810099,0.0297041419777824,2.96877433509324,-2.36972531143105,-0.234560889397894,0.0462466723633386,0.0254045537817606,4.39745949574064,-0.00398987847071514,-0.00234551778033258,-0.000888464518100625,0.0297041419777824,2.96877433509324,-2.36972531143105,-0.234560889397894,0.0462466723633386,0.0254045537817606,-1.14798386574179,0.049752876317135,-1.09046688394311,-0.32437569748077,-0.177867167203554,-0.0386944190592504
6.7,5.7345496931646,0.929267967192099,0.216212882249521,0.032693616249774,0.165344811675778,0.0223549494834278,-0.0387925046962538,2.92703731936778,-2.43600459232958,-0.27427182470806,0.00959409392338864,-0.00741806478082973,4.47428964233101,-0.00457408925257454,-0.00322247722382063,-0.000739707726911348,-0.0387925046962538,2.92703731936778,-2.43600459232958,-0.27427182470806,0.00959409392338864,-0.00741806478082973,-1.47825217184868,0.259530647881086,-0.988181277473593,-0.372039504302541,-0.24518075231024,-0.0323087414240667
6.8,5.67205258712132,1.08328348269501,-0.00543859692013493,-0.0311879217282038,0.12116633725034,-0.0227035442328957,-0.307295340545754,2.94492358294776,-2.47578655558617,-0.341239597339622,-0.0590375594328764,-0.0316466285244006,4.51538877787391,-0.00090988279830437,-0.000768999218070768,0.00255650592439437,-0.307295340545754,2.94492358294776,-2.47578655558617,-0.341239597339622,-0.0590375594328764,-0.0316466285244006,-1.09713166059183,-0.256765060744225,-0.849792575821327,-0.0764071069864796,-0.0569440791312682,0.106924955141745
6.9,5.59194939147696,1.3114758702314,-0.115515726912213,-0.052279397996902,0.11581488209851,-0.00602582886351562,-0.311834751363838,2.86317003062477,-2.38420514307363,-0.175255332204795,0.0558052990646055,0.0655351760387845,4.42139119127899,-0.00448543845880461,-0.00342310795502387,-0.0028409939081224,-0.311834751363838,2.86317003062477,-2.38420514307363,-0.175255332204795,0.0558052990646055,0.0655351760387845,-1.02320769386989,-0.455927422725236,-1.03845643767927,-0.364075843727577,-0.26192331898501,-0.120602095421281
7,5.58220775443659,1.49902406214878,-0.242813365211962,0.0211805297945455,0.179765079871518,0.0521292344232298,-0.374856724187147,2.79926176283254,-2.48937498504622,-0.327567071215234,-0.0527627397772579,-0.0419113028013948,4.58965476920892,-0.0038550286810074,-0.00373456669783229,-0.00040758769051408,-0.374856724187147,2.79926176283254,-2.48937498504622,-0.327567071215234,-0.0527627397772579,-0.0419113028013948,-1.64877888381404,0.108645029508319,-0.780634127916811,-0.314577378477782,-0.285427035600418,-0.0178445603141856
7.1,5.51309160603692,1.64632933694878,-0.458401717586463,-0.081028074388303,0.116224861634179,-0.0160974398013526,-0.703240052310524,2.89980820724273,-2.48260944613891,-0.331143415160257,-0.0868947540235184,-0.00708982698473054,4.60801945527772,-0.000940985702455745,-0.00149766828416299,0.0011741859925814,-0.703240052310524,2.89980820724273,-2.48260944613891,-0.331143415160257,-0.0868947540235184,-0.00708982698473054,-1.07708571347353,-0.728697845897534,-0.686170813957149,-0.0786874091888554,-0.114186085932871,0.0490955933457663
7.2,5.36752519711743,1.87551592100233,-0.545641571988096,-0.0913610534666245,0.106240827711054,0.0106053705060108,-0.690903932704201,2.65845076249434,-2.36435831110088,-0.209082089464074,-0.00179782544839048,0.0373997198903874,4.44596630897348,-0.00315171060512652,-0.00322218568265478,-0.00221930130301513,-0.690903932704201,2.65845076249434,-2.36435831110088,-0.209082089464074,-0.00179782544839048,0.0373997198903874,-0.930321514071177,-0.821159071831589,-1.00507720980393,-0.256731592745976,-0.247292243029646,-0.0938936235486309
7.3,5.30697321541491,1.96469180728593,-0.700642247256634,-0.0683022369844191,0.127045168103919,0.0189832901128123,-0.770360382139078,2.53073550457865,-2.57835194646551,-0.323369355077683,-0.0955606557537124,-0.0507087430101044,4.63349920547408,-0.000717934006437287,-0.00190093039180619,0.00158440713287373,-0.770360382139078,2.53073550457865,-2.57835194646551,-0.323369355077683,-0.0955606557537124,-0.0507087430101044,-1.15920843333674,-0.654586901902328,-0.639121560916058,-0.0611429655853925,-0.145826551731575,0.0667131066883027
7.4,5.27066551350438,2.13563063537557,-0.906676674949842,-0.0959435682867301,0.122022524491486,0.0163790368379651,-0.879046333441163,2.56853414638288,-2.42836445848689,-0.195019236642462,-0.0135852424153458,0.0655031896635003,4.61741875705846,-0.00380683915666527,-0.00412019862828129,-0.00376246130377917,-0.879046333441163,2.56853414638288,-2.42836445848689,-0.195019236642462,-0.0135852424153458,0.0655031896635003,-1.1042548582545,-0.902871484515599,-0.685983987157249,-0.309214208510747,-0.31700865127332,-0.158720727186999
7.5,5.15163963300448,2.29060921895983,-0.999936087240655,-0.0742018057874139,0.133681344020068,0.0489784821731615,-1.0172747652212,2.38173961412139,-2.47309380771608,-0.353281159424669,-0.139580098822301,-0.0724353083343314,4.64049057578135,-0.000506177053505747,-0.00213886619998088,0.00128172455410768,-1.0172747652212,2.38173961412139,-2.47309380771608,-0.353281159424669,-0.139580098822301,-0.0724353083343314,-1.19843342487168,-0.747604296452691,-0.63713478362742,-0.0441565004510532,-0.164959986456179,0.0542134342094756
7.6,4.97750996722218,2.32899500833795,-1.22049799734047,-0.213104852731982,0.0211539933650807,-0.0640712107275279,-1.24681255036896,2.25771557506477,-2.57117811264953,-0.267899681252156,-0.100697122556332,-0.00700938778412545,4.67503638479654,0.00363789550831007,0.000308577854466915,0.00340126941620348,-1.24681255036896,2.25771557506477,-2.57117811264953,-0.267899681252156,-0.100697122556332,-0.00700938778412545,-0.319520145552637,-1.9610644027614,-0.673480198593444,0.291446721197783,0.0231016660793214,0.143804378447641
7.7,4.85537518813905,2.47416835919006,-1.37004564561788,-0.159277212142581,0.0658861448931269,-0.000694846328073682,-1.01691047437841,1.78060035224426,-2.35865794225202,-0.0540515332777575,0.0140480587020607,0.0743361375661786,4.45944395324953,-0.00215125487473786,-0.00266124978348538,-0.00346642692162531,-1.01691047437841,1.78060035224426,-2.35865794225202,-0.0540515332777575,0.0140480587020607,0.0743361375661786,-0.580756107357798,-1.41417353579457,-1.02311220948395,-0.175209164731385,-0.205570827360586,-0.145867012733399
7.8,4.82279569904099,2.40186230479678,-1.50652819311142,-0.111356133517054,0.0811753571964633,0.00646352709452035,-1.19052800973238,1.74672857646297,-2.74335022150422,-0.326139946671863,-0.142887959441469,-0.106838619596138,4.8031618750729,0.00314479602362139,4.01844366257527e-05,0.00478891886688585,-1.19052800973238,1.74672857646297,-2.74335022150422,-0.326139946671863,-0.142887959441469,-0.106838619596138,-0.767200097724194,-1.07249483274368,-0.294611682311368,0.250730034029641,0.00157533388086894,0.202487435918619
7.9,4.74474074154782,2.56233076831056,-1.75419162879905,-0.186717630893391,0.0566935097134262,-0.0256020495706873,-1.23229111589123,1.81494345286079,-2.42787296664471,-0.0569351511061488,0.0185903166005217,0.12200042309333,4.68838831071857,-0.00199586762131725,-0.00283712511632637,-0.00453668275950183,-1.23229111589123,1.81494345286079,-2.42787296664471,-0.0569351511061488,0.0185903166005217,0.12200042309333,-0.566471082546257,-1.72671865264751,-0.611005869358969,-0.162091175347395,-0.219114737360734,-0.190895681779834
8,4.63567416522767,2.68604496044454,-1.78200192978105,-0.0921329384522253,0.116434092534256,0.0679214658114781,-1.25972982952558,1.4410943654895,-2.52017928142752,-0.282139220574853,-0.126916776438238,-0.0940011299021515,4.70838888165313,0.00100076501156491,-0.00163631468712917,0.00130027983338682,-1.25972982952558,1.4410943654895,-2.52017928142752,-0.282139220574853,-0.126916776438238,-0.0940011299021515,-1.02800703281506,-0.938302084297547,-0.496649680024657,0.0778065929930462,-0.128181238768769,0.0554195983904483
8.1,4.54604492820233,2.65989624106399,-1.96438649239475,-0.197544903873981,0.0517395604310857,-0.025819572166714,-1.46428572733766,1.57745134492427,-2.63379308940178,-0.153066727692438,-0.0712312843434609,0.0355351854509673,4.86634552293682,0.00111202711013071,-0.00102193775957645,-0.000433824227737533,-1.46428572733766,1.57745134492427,-2.63379308940178,-0.153066727692438,-0.0712312843434609,0.0355351854509673,-0.542700842207135,-1.89678448813365,-0.279367313977943,0.0882483599495672,-0.0801094381380072,-0.0176817803117156
8.2,4.38235338740908,2.81313918695671,-2.14598512607547,-0.149448833665063,0.076934301392159,0.0360729589534974,-1.39957630415729,1.11609837836356,-2.3942024069505,-0.138074439780096,-0.0589295336212081,0.00195095024758755,4.69044171966627,0.00015524635951366,-0.00185824633538065,-0.00177251241943006,-1.39957630415729,1.11609837836356,-2.3942024069505,-0.138074439780096,-0.0589295336212081,0.00195095024758755,-0.662125422656938,-1.42155356805652,-0.561121717734606,0.010704942171179,-0.145125643807111,-0.0741384971088573
8.3,4.33099596241688,2.74508221847297,-2.18986066429737,-0.135706786433444,0.0951107693375754,0.0395506584470131,-1.45933391021249,1.15220423420814,-2.63305251330238,-0.162193675744379,-0.0830411135098958,-0.0160845458770359,4.8886096277492,-7.33020899439371e-05,-0.00189963635416368,-0.00107165132771149,-1.45933391021249,1.15220423420814,-2.63305251330238,-0.162193675744379,-0.0830411135098958,-0.0160845458770359,-0.866958549927312,-1.35810809931489,-0.166455960935743,-0.00767720693410422,-0.148513585948142,-0.0445432134833755
8.4,4.1681776001134,2.79098208785039,-2.48198243463349,-0.194313291985037,0.0400169328406371,-0.00813275119982041,-1.67227011913185,0.961593251325472,-2.51969094664662,-0.20514345779939,-0.122854975091861,-0.0363818532563375,4.91415495225169,0.00378968396628664,0.000274701455187481,0.00212100956505221,-1.67227011913185,0.961593251325472,-2.51969094664662,-0.20514345779939,-0.122854975091861,-0.0363818532563375,-0.401215355340427,-1.89457554584642,-0.174374160508361,0.304141991111585,0.0188253486785803,0.090182891584479
8.5,3.9867732472184,2.79118812871189,-2.57414059120033,-0.219867624586701,0.0184396168755256,-0.0164458542432941,-1.58319068610513,0.619747111971598,-2.4528265858196,-0.0321861392511233,-0.0333640026870586,0.0382572455094799,4.82764025573034,0.00192467041460412,-0.000363830159261252,-0.00103633090283098,-1.58319068610513,0.619747111971598,-2.4528265858196,-0.0321861392511233,-0.0333640026870586,0.0382572455094799,-0.208350725482372,-2.10267888663152,-0.388759464385938,0.154252167075843,-0.0298087857126687,-0.0430396208021309
8.6,3.93129542706703,2.72782447840297,-2.69334924187068,-0.138797780995916,0.0702369464790808,0.0336694960618043,-1.52514472472052,0.379612880325376,-2.53949409242029,-0.0865764825792118,-0.0520496417417779,-0.018398004619241,4.91738879266632,0.000964548523429979,-0.0011408715013972,-0.000719632010085048,-1.52514472472052,0.379612880325376,-2.53949409242029,-0.0865764825792118,-0.0520496417417779,-0.018398004619241,-0.637367620684116,-1.38290620593612,-0.093818492090211,0.076463737159803,-0.0903687533457965,-0.029686343898185
8.7,3.85807979615622,2.67585908708378,-2.87595650688079,-0.158997352389022,0.0645491365339632,0.016118826354675,-1.69240191879761,0.465868500431979,-2.52143659210497,-0.115536270200313,-0.0790673677537601,-0.00749295794904097,5.01920608157815,0.00160600129757456,-0.000775379357166141,-0.000403378984982648,-1.69240191879761,0.465868500431979,-2.52143659210497,-0.115536270200313,-0.0790673677537601,-0.00749295794904097,-0.613652833429705,-1.59946330233067,0.0811508987541689,0.128430022550836,-0.0619725222627746,-0.0163480274182046
8.8,3.6399672008885,2.69613217119605,-3.05448746667447,-0.216830452723316,0.00918889643047756,-0.0203028703809132,-1.81666367872349,0.174637378909331,-2.46249849695553,-0.116872702451556,-0.100870675386381,-0.034811744149961,5.03538679155547,0.00510979807927048,0.0011872810967529,0.00260838323078704,-1.81666367872349,0.174637378909331,-2.46249849695553,-0.116872702451556,-0.100870675386381,-0.034811744149961,-0.134337284844032,-2.16429850007144,0.0245435104418856,0.411138276201048,0.0890505213724945,0.110713333885057
8.9,3.48897922473662,2.61606186446996,-3.16358849874162,-0.213246965852215,0.00348389821745353,-0.024131433484433,-1.6797471042468,-0.189178054844758,-2.40703069698959,0.0531854605446283,-0.010482229962628,0.0431653506435958,5.00709873063256,0.00245057042690907,0.000297400432080131,-0.000902785979211555,-1.6797471042468,-0.189178054844758,-2.40703069698959,0.0531854605446283,-0.010482229962628,0.0431653506435958,-0.0852261512114109,-2.11790915269854,-0.0226945425579821,0.197057511942025,0.021280823054199,-0.0374731820051235
9,3.44283559914412,2.48345887466335,-3.2839223633024,-0.131723410432694,0.0539478022723297,0.0239189639030541,-1.65518713626457,-0.358209049017247,-2.44183900579462,-0.0339894131515896,-0.037094170629185,-0.0233319385453991,5.0717260718559,0.00189857187918057,-0.000343713927266057,-2.99364499578636e-05,-1.65518713626457,-0.358209049017247,-2.44183900579462,-0.0339894131515896,-0.037094170629185,-0.0233319385453991,-0.510194752116374,-1.34485643784753,0.230950346867797,0.152202694349982,-0.0289621536819723,-0.000663489645325512
9.1,3.28848040215867,2.34712791286769,-3.49554052838412,-0.216169201462879,-0.00945894634212439,-0.0521250593084424,-1.90164891289441,-0.348426201558129,-2.45886844060332,-0.08870210031832,-0.101591262182936,-0.0448623262101103,5.2361481791655,0.00692661845600923,0.00219155092659498,0.00460161304369182,-1.90164891289441,-0.348426201558129,-2.45886844060332,-0.08870210031832,-0.101591262182936,-0.0448623262101103,-0.0204115882875987,-2.24818830797246,0.418109488838702,0.557905770361793,0.1665499430528,0.194744191474276
9.2,3.14845069269929,2.41677417884393,-3.57697623309477,-0.173264809003105,0.0257841791195553,0.00219552003568848,-1.65684362654045,-0.717895155406461,-2.19324224143266,0.19912028844664,0.0626539755385138,0.120098097107006,5.03610440584319,-0.00122480013379593,-0.00132265857926795,-0.00578386164517093,-1.65684362654045,-0.717895155406461,-2.19324224143266,0.19912028844664,0.0626539755385138,0.120098097107006,-0.251973789019516,-1.73699801713337,0.108101504034673,-0.0990825614079961,-0.102798849659578,-0.243510408262074
9.3,3.08412950152693,2.17687936291761,-3.64788013455257,-0.0887919387830265,0.057993924781101,0.0387106800417827,-1.80993151207858,-0.793688960628098,-2.45293304707359,-0.170767111471221,-0.1111452250541,-0.145704535807595,5.26896397934539,0.00503705651595184,0.00115759052587525,0.00506980502655628,-1.80993151207858,-0.793688960628098,-2.45293304707359,-0.170767111471221,-0.1111452250541,-0.145704535807595,-0.571767018823284,-0.957299187445643,0.668768362954628,0.404999791127559,0.0854795474221161,0.214449817195068
9.4,2.95234483429515,2.15415447331759,-3.85510956917272,-0.204413469198432,0.0151265355500935,-0.0379957439765722,-1.88712852677273,-0.609786239748479,-2.16146685941543,0.135489875067208,0.0291088884131041,0.128359182689971,5.20236488535393,0.000629712958488025,-0.00071367270873512,-0.00427955091746769,-1.88712852677273,-0.609786239748479,-2.16146685941543,0.135489875067208,0.0291088884131041,0.128359182689971,-0.234224609696111,-2.10470769363722,0.376939970276222,0.0506573245333519,-0.0553526994250627,-0.180075574239324
9.5,2.75351104923754,2.15049748512225,-3.91420334067576,-0.111343163321863,0.0455100636958948,0.0451882088444275,-1.87872028346604,-1.18711385193265,-2.26636300434708,-0.0686567082424045,-0.084120271096921,-0.108411863038987,5.28742521134556,0.00427386946443504,0.0010802120678477,0.00299713936664927,-1.87872028346604,-1.18711385193265,-2.26636300434708,-0.0686567082424045,-0.084120271096921,-0.108411863038987,-0.424550523729379,-1.19540439883971,0.688486873751215,0.343684610107589,0.0798557905212584,0.126950937325732
9.6,2.66816363462911,1.87577821072481,-4.05028513522221,-0.170053753078264,0.015105443987346,-0.0312871407689616,-1.92677650754492,-1.01074293444273,-2.11057077320275,0.117834891253831,0.0141964902766015,0.0738742827696452,5.2770767718324,0.0014677025741983,-4.4608619048375e-05,-0.00201502528228295,-1.92677650754492,-1.01074293444273,-2.11057077320275,0.117834891253831,0.0141964902766015,0.0738742827696452,-0.212916664094982,-1.78034646599305,0.590730261785893,0.118128681837956,-0.00432270960838123,-0.0845744620239057
9.7,2.5233004161657,1.8952425322711,-4.12651386451776,-0.0847919462358793,0.0645742140823856,0.0516170952896121,-1.88501883956893,-1.33009320400164,-2.1056690802322,0.014435653970724,-0.0293022872870407,-0.033113695519888,5.30831980217714,0.00132613396235526,-0.000487464562678066,-0.000874404185212639,-1.88501883956893,-1.33009320400164,-2.1056690802322,0.014435653970724,-0.0293022872870407,-0.033113695519888,-0.635324626302532,-0.933149106461112,0.746449775045965,0.106261597513877,-0.0399311922544684,-0.0364585478685098
9.8,2.3959116196312,1.65976733282246,-4.2653844188986,-0.145110345586675,0.0242391463020036,-0.0124024059447585,-2.08769955847751,-1.22748747398128,-2.05930527639087,-0.000805839062544916,-0.0646953129706042,-0.0266083905320004,5.39187491945083,0.00394666702073708,0.00109300907071623,0.00184853985223636,-2.08769955847751,-1.22748747398128,-2.05930527639087,-0.000805839062544916,-0.0646953129706042,-0.0266083905320004,-0.277935632056556,-1.55602034756522,0.857277677571149,0.317814897681476,0.0823634986008117,0.0784128682237246
9.9,2.19260461338213,1.65125086433119,-4.36022905571428,-0.136170801063466,0.0202664532703079,0.00119325307728195,-2.00020170695579,-1.51871025187247,-1.92695880907046,0.132272991779931,0.0118131756543134,0.0464151906401046,5.36391406937415,0.00118450807124257,-4.88120872934751e-05,-0.00224949369759418,-2.00020170695579,-1.51871025187247,-1.92695880907046,0.132272991779931,0.0118131756543134,0.0464151906401046,-0.213649792453416,-1.45656258028152,0.816338776381448,0.0952438989029676,-0.00490233624239198,-0.0945399639105449
10,2.08441813713204,1.41786420264048,-4.43703892581436,-0.0888701802993433,0.0399976710318865,0.0213860600944926,-2.02483037808298,-1.6518383194642,-1.92502124868873,0.0146146060851828,-0.0431752099551251,-0.0556669608834915,5.42588087436181,0.00299457920721389,0.000634387893362571,0.00162652245755103,-2.02483037808298,-1.6518383194642,-1.92502124868873,0.0146146060851828,-0.0431752099551251,-0.0556669608834915,-0.411522231156013,-0.972151542945513,0.99029184243992,0.240964961651601,0.0467774957308522,0.0689917094511383
10.1,1.95752697243836,1.27961696456966,-4.54332913597675,-0.121865403952468,0.0261298319051848,-0.0102205674658752,-2.09390604607418,-1.60057047002056,-1.79367353780334,0.110537677133161,-0.00354729057511836,0.0403374864536758,5.4248413354512,0.00160897699638982,6.16658525662813e-05,-0.0014229790602391,-2.09390604607418,-1.60057047002056,-1.79367353780334,0.110537677133161,-0.00354729057511836,0.0403374864536758,-0.29483110057242,-1.3159861287471,0.955540822009848,0.129535606894442,0.00385008851763634,-0.0597067179133065
10.2,1.75395347210163,1.16967782154335,-4.63541890905919,-0.108186952833852,0.0128391628715907,-0.000753099850330056,-2.14412530116011,-1.86381516154138,-1.7955054655275,0.035238712151375,-0.0524303401601963,-0.0530839508500628,5.526672276836,0.00418303736926239,0.00149867062589194,0.00255931749869967,-2.14412530116011,-1.86381516154138,-1.7955054655275,0.035238712151375,-0.0524303401601963,-0.0530839508500628,-0.141980886165932,-1.19338969909184,1.17781544604093,0.336924154209145,0.113662275563712,0.108304657283903
10.3,1.60559968188366,0.952311947489018,-4.73407255474901,-0.128840693622956,-0.00572355845562104,-0.035433873620731,-2.1098934580992,-1.9406918157439,-1.60986869534968,0.160886857239989,0.014886819875681,0.0421229241315252,5.50289745113958,0.00263066626279429,0.00091549337334699,-0.000299969953440487,-2.1098934580992,-1.9406918157439,-1.60986869534968,0.160886857239989,0.014886819875681,0.0421229241315252,0.0123349960566887,-1.41539985597809,1.10439473936157,0.212008345810194,0.0698248786791023,-0.0123741284941101
10.4,1.52704771736469,0.846545050469728,-4.72426004547185,-0.0287631239184231,0.0652469298923607,0.0468945713167606,-2.00364740400294,-2.05593543768436,-1.55021274557715,0.142933086843104,0.0310231994133812,0.0149178674156387,5.44727085678955,-0.000909674718955414,-0.00151794072355185,-0.0029175835659431,-2.00364740400294,-2.05593543768436,-1.55021274557715,0.142933086843104,0.0310231994133812,0.0149178674156387,-0.694569235188854,-0.346258095258132,1.05686330354406,-0.0737005780213785,-0.118049561084023,-0.122835501170139
10.5,1.39196329299567,0.618669944548361,-4.83436259131684,-0.0663097861106022,0.0340148081728758,-0.000360267077817389,-2.30050285850042,-1.89562537752638,-1.57346744052136,-0.0350669065980704,-0.102110528509438,-0.0784391329651553,5.58686925375986,0.00454031568177129,0.00157355471713897,0.00373656592884209,-2.30050285850042,-1.89562537752638,-1.57346744052136,-0.0350669065980704,-0.102110528509438,-0.0784391329651553,-0.379430876858259,-0.740248706063219,1.33273289176796,0.365722467301379,0.119609067433053,0.157925613758165
10.6,1.13175334487503,0.601911233966016,-4.9220664348118,-0.12196506741181,-0.0108097776701322,-0.0283551733939196,-2.2384993886424,-2.03474558472495,-1.35478862767681,0.214713812960849,0.0381211755176809,0.0833553909416521,5.54982469768963,0.00113047738646812,0.000145003258483267,-0.00258966340220338,-2.2384993886424,-2.03474558472495,-1.35478862767681,0.214713812960849,0.0381211755176809,0.0833553909416521,0.0807571018879462,-1.35324920951088,1.20655170948677,0.0911259674483378,0.0109824517058997,-0.109047767018411
10.7,0.976579808485809,0.366644009442973,-4.9536844662695,-0.0450019096637485,0.0162042430505342,0.00684058371839361,-2.17985663512825,-2.36160928513819,-1.37694012438329,0.0541935026160865,-0.0451360753100823,-0.0843799881949747,5.64542468089144,0.0038935962664613,0.00145530371081031,0.00368662364586064,-2.17985663512825,-2.36160928513819,-1.37694012438329,0.0541935026160865,-0.0451360753100823,-0.0843799881949747,-0.179287594055374,-0.509176634049987,1.46793750755998,0.313595573292686,0.11058001515163,0.155765577184933
10.8,0.893410992450506,0.101074028116123,-5.02524781053367,-0.0829052022834866,-0.000802678597895283,-0.0425288880944358,-2.22099067693478,-2.18241131098058,-1.13907751876037,0.199706813016017,0.027557036724255,0.0746055600623105,5.57040038341687,0.00154521397140918,0.000460711939240012,-0.00150016669471772,-2.22099067693478,-2.18241131098058,-1.13907751876037,0.199706813016017,0.027557036724255,0.0746055600623105,-0.0303204533330964,-0.922117331774047,1.29253223471272,0.124577113754317,0.0353065915210646,-0.0631117170621909
10.9,0.714261304637199,0.0403166092020277,-5.01362867529998,-0.0199008451687054,0.0261866840470799,0.0184969520562347,-2.2003937147232,-2.36863788181543,-1.18200877257832,0.105768971182635,-0.0124893790432067,-0.0438585272950407,5.6413693291796,0.00183224173444635,0.000480824746653743,0.00121192901950904,-2.2003937147232,-2.36863788181543,-1.18200877257832,0.105768971182635,-0.0124893790432067,-0.0438585272950407,-0.291161999602047,-0.229945852248196,1.46663696444356,0.14741216232058,0.0359479258077104,0.0513096604402792
11,0.59111305191462,-0.186142380210649,-5.08984227447658,-0.042138090409516,0.017369105991984,-0.0209430266842916,-2.27061301341743,-2.22549247363538,-0.990021364463297,0.133373169900456,-0.00487615670722323,0.0240001653204512,5.60561214730923,0.00184533638838056,0.000378261231613478,-0.00013464599731825,-2.27061301341743,-2.22549247363538,-0.990021364463297,0.133373169900456,-0.00487615670722323,0.0240001653204512,-0.204393885900455,-0.468102128947074,1.38958274760827,0.148654817660289,0.0286374637876778,-0.00552491125962425
11.1,0.432190997002647,-0.232530311865506,-5.05430876316227,0.00128479660335901,0.044784863873249,0.0315543166966781,-2.23075322963824,-2.27922923530507,-0.950789165060921,0.160841071729539,0.0140152731435731,0.0148870909848342,5.60241211142854,-0.000618877830131516,-0.00106075975436864,-0.00219034964803559,-2.23075322963824,-2.27922923530507,-0.950789165060921,0.160841071729539,0.0140152731435731,0.0148870909848342,-0.501842850378661,-0.00143747999026764,1.38358019367796,-0.0501666100669934,-0.0822566550743871,-0.0922807654934709
11.2,0.300415594302306,-0.41232919453715,-5.09471401969287,0.0214108489227919,0.0523498826976418,0.0298950416634703,-2.33914892388323,-2.1831736091826,-0.869640732729477,0.0589082304793746,-0.0453053650452591,-0.03309679813625,5.63062428346451,0.000832257745248954,-0.000446490104049753,0.000154170689861745,-2.33914892388323,-2.1831736091826,-0.869640732729477,0.0589082304793746,-0.0453053650452591,-0.03309679813625,-0.596063975075041,0.22337757725527,1.43324372597865,0.0667912416461592,-0.035047684364805,0.00662886183240689
