time,x,y,z,roll,pitch,yaw,xdot,ydot,zdot,p,q,r,thrust,roll angle,pitch angle,yaw angle,_xdot,_ydot,_zdot,_p,_q,_r,_xddot,_yddot,_zddot,_phiddot,_thetaddtot,_yawddot
0,5.01841953230695,5.01841953230695,0.0184195323069548,0.0184195323069548,0.0184195323069548,0.0184195323069548,0.0184195323069548,0.0184195323069548,0.0184195323069548,0.0184195323069548,0.0184195323069548,0.0184195323069548,9.43040481713373,-0.0107681824827059,0.00864443204963027,-0.00193512813120598,-0.0927918094842687,0.128164365375035,4.98731200809952,-0.467811246683019,0.375744917068888,-0.0350004090327693,-0.210360452856808,0.20658370890255,1.01083534572959,-0.078373821432447,-0.0532660659850436,0.0166197459527638
0.1,3.02036642022637,3.02036642022637,0.0203664202263731,0.0194352762163846,0.0190880044745227,0.0181655633923999,-0.0927918094842687,0.128164365375035,4.98731200809952,-0.467811246683019,0.375744917068888,-0.0350004090327693,5.41242565603217,-0.000971799082891109,-0.000692497196351823,0.000393890014755524,-0.0927918094842687,0.128164365375035,4.98731200809952,-0.467811246683019,0.375744917068888,-0.0350004090327693,-0.210360452856808,0.20658370890255,1.01083534572959,-0.0783600589514255,-0.053257118825227,0.0166394598295333
0.2,3.29031893459075,3.38974670209917,2.29695648603665,-0.212941924383566,0.175255445329308,-0.0170939600514317,-0.0562327282998005,0.0592447122264353,1.01223006677563,-0.0806902572243427,0.0109488871153892,0.00767249549717389,6.65460355557823,0.000200341814381223,0.000124775641980758,0.000396787305812034,-0.0562327282998005,0.0592447122264353,1.01223006677563,-0.0806902572243427,0.0109488871153892,0.00767249549717389,-2.31592162097828,-2.77353727334792,2.99933222172385,0.0162129937694126,0.00966289537342727,0.0167869245248076
0.3,3.30499368782689,3.36703904839969,0.772838396436456,-0.0574557733644381,0.0353080347284055,0.00865072392762872,-0.510667413638923,-0.491613156354981,2.51673335414804,-0.032950596299729,0.041203481704421,0.0115375347619794,6.40224752307316,-0.00564184241502947,0.00285179001641919,-0.00106862112158322,-0.510667413638923,-0.491613156354981,2.51673335414804,-0.032950596299729,0.041203481704421,0.0115375347619794,-0.444884180350233,-0.739163638290943,2.96539856789949,-0.454956150185238,0.219409509375957,-0.0450351334146182
0.4,3.05764439677498,3.079489165349,1.62862310544646,-0.0603335944313424,0.0297699808601332,-0.00904080245991408,-0.379382319990485,-0.362645917487524,2.28300926287983,-0.307827737125806,0.140608283382631,-0.0382000346319311,6.09276691795271,3.90042288953411e-05,0.000474655375345803,0.00207301915809298,-0.379382319990485,-0.362645917487524,2.28300926287983,-0.307827737125806,0.140608283382631,-0.0382000346319311,-0.368677424129474,-0.731447898829163,2.34797251988306,0.00313537671800883,0.0364990847347251,0.0875327807391754
0.5,3.16492686613291,3.19282484158545,1.62642617263779,-0.14351202635774,0.123341944311585,0.0131782693107573,-0.323444999841434,-0.33475616805175,2.13114020447814,-0.0393887065653011,0.0912152818449399,0.0706953424959544,6.11944400821863,-0.00388763704155502,-0.00303042161114249,-0.00404604090437727,-0.323444999841434,-0.33475616805175,2.13114020447814,-0.0393887065653011,0.0912152818449399,0.0706953424959544,-1.4670682174796,-1.76989122597048,2.21104719949079,-0.313338964125306,-0.232840090755185,-0.170589625558622
0.6,3.12821187848975,3.14590420957651,1.66104532634587,-0.0676151193657606,0.0771558729105339,0.0292344482548313,-0.550570354830046,-0.589224039297046,2.2727577492704,-0.242506251816801,-0.0845227142161285,-0.0931891631619414,5.97801877123373,-0.00184656936842928,0.00196661805336259,0.00293099597856902,-0.550570354830046,-0.589224039297046,2.2727577492704,-0.242506251816801,-0.0845227142161285,-0.0931891631619414,-0.895452825524073,-0.834323909040551,2.08322923217052,-0.149122422194457,0.151000401281086,0.123826988955756
0.7,3.03802945493049,3.04319129491262,1.94765771970788,-0.131713078977501,0.0361458137813054,-0.00597388922038147,-0.545521952371274,-0.569578167433222,2.22585104047396,-0.138942268875159,0.148952486438104,0.0875333890526029,5.78760023594813,-0.002361421755078,-0.0029620983366535,-0.00394173474804917,-0.545521952371274,-0.569578167433222,2.22585104047396,-0.138942268875159,0.148952486438104,0.0875333890526029,-0.42375480217085,-1.51769652086881,1.65744501197923,-0.190139810818957,-0.22727190388602,-0.166144682392126
0.8,2.98153322239053,2.99375912473286,1.99209208316594,-0.12574345898658,0.108789832570932,0.0381513546369637,-0.624887558519599,-0.738526935012731,2.09931294842986,-0.196446204055223,-0.0849655240810706,-0.0896889907188564,5.80572822397233,-0.000783188147645023,-0.00167745755460779,0.00246868889006122,-0.624887558519599,-0.738526935012731,2.09931294842986,-0.196446204055223,-0.0849655240810706,-0.0896889907188564,-1.19431096207351,-1.50286724976933,1.64167813894355,-0.0633491598701273,-0.129366065990092,0.104406917564843
0.9,2.92932862485349,2.8972481231766,2.08806274028751,-0.152477299554324,0.0214107538008562,-0.0270496268362404,-0.702907982093187,-0.858477844707395,2.20554785406859,-0.124144069943256,-0.0228188327644901,0.0600459285915248,5.59751838672686,-0.00152195750944146,-0.000397628155276758,-0.0015628045187008,-0.702907982093187,-0.858477844707395,2.20554785406859,-0.124144069943256,-0.0228188327644901,0.0600459285915248,-0.282797542168269,-1.69335309490429,1.25261403128133,-0.122396789221232,-0.0298078072666228,-0.0656933695113967
1,2.80128359931593,2.7489194977413,2.24011383935047,-0.173483518897972,0.00206454118588018,-0.00402225187001432,-0.817835251943193,-1.05561218954885,2.01342178896715,-0.195137752587862,-0.0201620957522853,-0.064853497016169,5.57578688624723,0.00211804430320606,-0.00138672383242415,0.00327540491658579,-0.817835251943193,-1.05561218954885,2.01342178896715,-0.195137752587862,-0.0201620957522853,-0.064853497016169,-0.0304196082942199,-1.92481787085638,1.17415897621887,0.170810979605478,-0.106668620256145,0.138461842236448
1.1,2.73140121584732,2.63268177459468,2.28135797212187,-0.200632943312994,0.0135559831785238,-0.0455858877248674,-0.808437112553382,-1.19683306793876,2.06857629377099,-0.0284877358083502,-0.043894353079533,0.0559167490653874,5.45641273278393,-0.000426212990623072,-0.00235564265089177,-0.000471242965212183,-0.808437112553382,-1.19683306793876,2.06857629377099,-0.0284877358083502,-0.043894353079533,0.0559167490653874,-0.243918019282334,-2.16594755366139,0.88293855011821,-0.0340271330470286,-0.180181647510733,-0.0196024323068495
1.2,2.72271359463783,2.54805565241597,2.46563511577506,-0.0966028487446862,0.0408172971043515,0.0443860388957668,-0.755637337612741,-1.29560936641207,2.02513299310135,-0.101429149295063,-0.0659165076827651,0.00669427395392654,5.37788524486124,-0.00297841370179052,-0.00351576454394372,-0.00231145138445086,-0.755637337612741,-1.29560936641207,2.02513299310135,-0.101429149295063,-0.0659165076827651,0.00669427395392654,-0.39039102225437,-1.05578481686472,0.886705665662024,-0.240149782530279,-0.27029802821452,-0.0972643260271412
1.3,2.64947396152709,2.38740524233672,2.5489962132845,-0.168913344869354,-0.00827969302624961,-0.0117351826603061,-0.837042999088987,-1.52461149972914,1.91619134217558,-0.246545037889437,-0.152668542795295,-0.0668582651066287,5.29844123665217,0.00493419808840325,-0.00049658412239549,0.00373112108791239,-0.837042999088987,-1.52461149972914,1.91619134217558,-0.246545037889437,-0.152668542795295,-0.0668582651066287,0.0655780693797229,-1.78234752943504,0.635709882729754,0.397929728583113,-0.0381580789678916,0.157678863290554
1.4,2.59339513379483,2.24311506865422,2.61283852308966,-0.218986646357665,-0.0322184310037444,-0.0278893757163975,-0.831686785295426,-1.57846535772899,1.90371231471188,0.108369302428013,-0.0123215826882637,0.0874644045962601,5.21736778357642,-0.00132921450605884,-0.00392982823812373,-0.00282425224984375,-0.831686785295426,-1.57846535772899,1.90371231471188,0.108369302428013,-0.0123215826882637,0.0874644045962601,0.264764783834529,-2.27511594949582,0.370248198447575,-0.106984214399709,-0.300979428846572,-0.118972067032867
1.5,2.5190408115179,2.10171107988168,2.71535355153064,-0.0860815288312775,0.00961078136338255,0.0314552750765453,-0.855812555481059,-1.76329216006101,1.83974757317891,-0.160899411773971,-0.18014727106193,-0.0712587203410378,5.19215235833168,0.00051951529806379,-0.00263703492383154,0.00189111076523314,-0.855812555481059,-1.76329216006101,1.83974757317891,-0.160899411773971,-0.18014727106193,-0.0712587203410378,-0.0713026018160977,-0.89547871309742,0.535376661189318,0.0418430577990297,-0.203176994062943,0.0799722622190792
1.6,2.45806582050686,1.92884317440883,2.81784169101874,-0.20223906533849,-0.0670021994225013,-0.0396144726199138,-0.819764759480024,-1.9831544323592,1.806655404946,-0.0851092076962473,-0.132719166281502,0.035439475006762,5.04196715083282,0.00505522395457669,-0.00131929203560569,0.000157348970327827,-0.819764759480024,-1.9831544323592,1.806655404946,-0.0851092076962473,-0.132719166281502,0.035439475006762,0.580643822980072,-2.05009624578998,0.0462512718650636,0.407752472601179,-0.100452352670416,0.0067296023705588
1.7,2.39113937209285,1.69872706779982,2.8504333415483,-0.198797568841136,-0.074968883216652,-0.0192667218496488,-0.882288446485405,-2.05935345579307,1.66417058954845,0.103319234949747,-0.112419820551822,-0.0198437420246706,5.10054099814512,0.00125704759121443,-0.00271732226359364,0.00180524361685776,-0.882288446485405,-2.05935345579307,1.66417058954845,0.103319234949747,-0.112419820551822,-0.0198437420246706,0.710047735022625,-2.02867504082741,0.162080208650044,0.101378906587004,-0.208669027154526,0.0761864597134482
1.8,2.30807897022901,1.54578459226048,2.91883240257573,-0.116650084713567,-0.074451089771952,-0.0364235431573198,-0.823358860192013,-2.26978052426563,1.71856439532908,-0.0448054163693255,-0.175223929895965,0.0201835780306859,4.94723555928527,0.00266111652623462,-0.00203870411139568,0.000717039706707426,-0.823358860192013,-2.26978052426563,1.71856439532908,-0.0448054163693255,-0.175223929895965,0.0201835780306859,0.688552193615106,-1.17743002766947,-0.0099942284284058,0.214578535831376,-0.156100849996944,0.0302068460534872
1.9,2.31867138555436,1.37498427534092,3.08287056848881,-0.134880309329871,-0.0665302830398132,0.0206781789254186,-0.696406837247954,-2.39389515416121,1.59688979751086,0.0600722344607047,-0.121121543962577,0.0342192741397665,4.86240069275894,0.00205724473761346,-0.00357062324864736,-0.00263214877691615,-0.696406837247954,-2.39389515416121,1.59688979751086,0.0600722344607047,-0.121121543962577,0.0342192741397665,0.667546755506539,-1.29418466705646,-0.194843768063915,0.165867939892035,-0.274323216263786,-0.111210481506333
2,2.28954997481326,1.15026384790928,3.07964403870025,-0.109115399342443,-0.0714181633681217,0.0115971519634295,-0.666020536083781,-2.52219307406927,1.47041058605274,0.0280942977418259,-0.209800646988263,-0.0581417366490463,4.90947214717073,0.00305939631409084,-0.00178631821039735,0.0021884546175433,-0.666020536083781,-2.52219307406927,1.47041058605274,0.0280942977418259,-0.209800646988263,-0.0581417366490463,0.70884147984194,-1.06112425034259,-0.0743322706056251,0.246781284712682,-0.137733263390523,0.092126919904061
2.1,2.2386457592782,0.926807977995947,3.10814760633181,-0.134742566146794,-0.136693331912294,-0.047320707682203,-0.620523669818726,-2.69534341859895,1.50542767295306,0.0625963347813531,-0.159123362349138,0.0361693210359417,4.81488867346476,0.00511931036722633,-0.00126295706353663,0.00054165184708204,-0.620523669818726,-2.69534341859895,1.50542767295306,0.0625963347813531,-0.159123362349138,0.0361693210359417,1.23768907035309,-1.35368000805081,-0.35651979679605,0.412637219256094,-0.0963714428069646,0.0225287715633065
2.2,2.21171390679309,0.688719264590816,3.202913758734,-0.116537239943694,-0.12137533278899,-0.00752695062502588,-0.585386288646526,-2.77184981823515,1.42173288348014,0.172629534175845,-0.144569374806357,0.00315590135613827,4.78054712709223,0.00284355758994323,-0.00284988516468663,0.000250221612716983,-0.585386288646526,-2.77184981823515,1.42173288348014,0.172629534175845,-0.144569374806357,0.00315590135613827,1.14138152851015,-1.12032599275593,-0.383619930549674,0.22928648973833,-0.219129339835079,0.0101564218237602
2.3,2.20659067585965,0.521147683678014,3.28375249308273,-0.0317575690226641,-0.0956454322361545,0.0155134863365953,-0.414243622742922,-2.86002703275722,1.38166747730933,0.117861649805554,-0.189952525131472,0.0234005791295499,4.65220246107413,0.00168398740788019,-0.00250844009219825,-0.00177811090052343,-0.414243622742922,-2.86002703275722,1.38166747730933,0.117861649805554,-0.189952525131472,0.0234005791295499,0.892595748396284,-0.281622787389243,-0.552791328328789,0.135790855152965,-0.192925109717195,-0.0754654085346246
2.4,2.21680810696574,0.279453224846199,3.32715323484311,-0.0635599997927655,-0.142307886644639,0.0068897226078851,-0.319737302252192,-3.04546328925306,1.26444072951413,0.0640998377212068,-0.201126226939576,-0.0377218383891111,4.67638666297536,0.00657653219641244,-0.000314904007799472,0.00148261436600366,-0.319737302252192,-3.04546328925306,1.26444072951413,0.0640998377212068,-0.201126226939576,-0.0377218383891111,1.32786853355964,-0.584927401980382,-0.570465705534181,0.530566964559784,-0.0245640532800487,0.0620570434139498
2.5,2.2397898646104,0.00988327700046021,3.34370703562493,-0.0703629984408999,-0.150059087634705,-0.0153791176998867,-0.238841380790228,-3.03851491839724,1.26625457463551,0.292246989728159,-0.109552489505127,0.0431023300955618,4.62499573732799,0.00249354321880674,-0.00258021222332609,-0.00134003109236786,-0.238841380790228,-3.03851491839724,1.26625457463551,0.292246989728159,-0.109552489505127,0.0431023300955618,1.36925601044541,-0.671456731533958,-0.686589118276808,0.20091227576667,-0.198230226224194,-0.0571138063089377
2.6,2.23648414587272,-0.183716381142533,3.41938615006386,0.0360561212163699,-0.119358325642442,0.0244709690124039,-0.1216317945428,-3.08959866569628,1.16338695074518,0.141173337308441,-0.20526430963694,-0.0208916195672634,4.54427426640591,0.00277261117838845,-0.00133926314672887,-0.000118006962400535,-0.1216317945428,-3.08959866569628,1.16338695074518,0.141173337308441,-0.20526430963694,-0.0208916195672634,1.073176291882,0.353991836311108,-0.791979326945224,0.223921625402136,-0.103362809127889,-0.00549707471323026
2.7,2.27177113114684,-0.395416728687339,3.45726939767809,-0.00903073949171987,-0.165670550273047,0.00290940645452279,0.0524534643220358,-3.20932214495864,1.17126333540113,0.166104255886984,-0.160366146235012,0.0102221549679743,4.48461189845964,0.00626525309361351,0.000100712034297362,-0.0008120939178751,0.0524534643220358,-3.20932214495864,1.17126333540113,0.166104255886984,-0.160366146235012,0.0102221549679743,1.4793172950328,-0.0766940179713463,-0.963943596864917,0.505345275903052,0.00767799133068272,-0.0348023682805357
2.8,2.33027469929921,-0.686834561032007,3.5012373731363,0.00380727390804825,-0.162096558607661,0.00424623812060409,0.108899735312638,-3.15783274075629,1.01337416868967,0.327748126806657,-0.110203377501815,-0.0117766893869097,4.53063027284567,0.0028355718112754,-0.00130527794866899,6.79041131514466e-05,0.108899735312638,-3.15783274075629,1.01337416868967,0.327748126806657,-0.110203377501815,-0.0117766893869097,1.46220513657656,0.0407078370290926,-0.867587479461925,0.228921764259448,-0.100569323303409,0.00234866430946536
2.9,2.30477045510704,-0.902379913827962,3.47139849219395,0.0552294615713658,-0.182812448768171,-0.0362848282445754,0.22309862613345,-3.22821702923167,0.995332136366686,0.17216844874091,-0.200070214234092,-0.020421533959654,4.51023288877693,0.00636481574111646,0.00176045879774498,0.00228997921638697,0.22309862613345,-3.22821702923167,0.995332136366686,0.17216844874091,-0.200070214234092,-0.020421533959654,1.65436903435468,0.438215350978514,-0.953373483749264,0.513363426945903,0.135387805160709,0.0962301044330676
3,2.39303919829483,-1.10823490333502,3.55479623428345,0.0367647999987906,-0.198689453978229,-0.0123701223114699,0.422135927861906,-3.18929037760817,1.03282859886359,0.365822269821947,-0.0465799045957611,0.0583002946039901,4.37318251747834,0.00375271855518981,-9.42775180142785e-05,-0.00281191087410591,0.422135927861906,-3.18929037760817,1.03282859886359,0.365822269821947,-0.0465799045957611,0.0583002946039901,1.72907708302309,0.300120539433708,-1.24150413272626,0.302353011150174,-0.00716072274059914,-0.118991274195449
3.1,2.49389742922965,-1.30582272761731,3.63815886302203,0.148317705311927,-0.124814524892054,0.0404626989518174,0.573563329026085,-3.11837711735318,0.816309809732295,0.292039149751236,-0.0995746655046364,-0.0434509476188356,4.31570084467661,0.00139142203609048,-0.00118883201239309,-0.000295757308585545,0.573563329026085,-3.11837711735318,0.816309809732295,0.292039149751236,-0.0995746655046364,-0.0434509476188356,1.01026610333113,1.31744649363962,-1.33977023571223,0.112985175131917,-0.0915561926163779,-0.0126360255396373
3.2,2.56655017526433,-1.49380980137977,3.59698632113901,0.130655453561034,-0.161509959312967,-0.00543544571928772,0.799419214659889,-3.13513041455437,0.865539852321779,0.19277075673933,-0.160414714952576,0.00283140032042179,4.27186277613705,0.00643949107620564,0.00366559587305732,-0.000471314749579408,0.799419214659889,-3.13513041455437,0.865539852321779,0.19277075673933,-0.160414714952576,0.00283140032042179,1.36822528828856,1.10569051584029,-1.44933888043237,0.519292272052818,0.281968916797244,-0.019886898482943
3.3,2.6580937046387,-1.81245548587076,3.61153576919862,0.043199280946103,-0.251979065382605,-0.0574463281091208,0.790119717244056,-3.08995901027877,0.658963776999705,0.37236819231607,-0.00884722305446595,-0.0510036678565045,4.57051018660285,0.00756936699240563,0.00380140335590301,0.00457874346353319,0.790119717244056,-3.08995901027877,0.658963776999705,0.37236819231607,-0.00884722305446595,-0.0510036678565045,2.29583146516985,0.26338261008708,-0.965903610452816,0.610467850635931,0.292418497377574,0.193311784801653
3.4,2.73340261704984,-1.95385826575521,3.60706415952799,0.178812083523569,-0.153995891401054,-0.0440419421782393,1.00440487237952,-2.88640596863912,0.789849014052034,0.482986404472849,0.0369882722549215,0.0983860062862256,4.17104537516953,-0.000811581675813313,-0.000508760880253203,-0.00315899275610651,1.00440487237952,-2.88640596863912,0.789849014052034,0.482986404472849,0.0369882722549215,0.0983860062862256,1.32327845335797,1.4268529845829,-1.69806417788221,-0.0664656361021266,-0.0393774637425574,-0.132949497074763
3.5,2.8397897096032,-2.04171344498188,3.70967195555752,0.248435290072096,-0.136550948330842,0.0272002755254673,1.21659643527186,-2.89945012504646,0.504082093080458,0.144218405995726,-0.111767460929426,-0.0723455576303852,4.20073128308667,0.00537963340140499,0.00425625766380174,0.00180457386022466,1.21659643527186,-2.89945012504646,0.504082093080458,0.144218405995726,-0.111767460929426,-0.0723455576303852,1.05195946775495,2.09520046758137,-1.7422810206565,0.434836956036158,0.327851516175671,0.0767657836552684
3.6,3.03517873324969,-2.27866757098609,3.64469925301933,0.138172769534955,-0.192049080472989,-0.030261646587492,1.41045703754886,-2.69997172993607,0.616694064724984,0.419482524446931,0.0845614187852435,0.0464122725513405,4.21604862740183,0.00420477082832733,0.00401667108560001,-0.000258391365644118,1.41045703754886,-2.69997172993607,0.616694064724984,0.419482524446931,0.0845614187852435,0.0464122725513405,1.6285113952237,1.11261801483172,-1.61181142549369,0.338600339208199,0.308733736048075,-0.0101596241046339
3.7,3.19102532527271,-2.43275506552634,3.7281486430684,0.252597091333561,-0.117816551828273,-0.00688376186908817,1.44931407679835,-2.53850626885853,0.253730601024018,0.381698429576319,0.0808734952956061,-0.0110303761489971,4.20150430878531,0.000155602506257124,0.00143240430854387,0.000958881632601018,1.44931407679835,-2.53850626885853,0.253730601024018,0.381698429576319,0.0808734952956061,-0.0110303761489971,0.970814541805392,2.09344230814324,-1.730051222015,0.0130236374957705,0.110509299504204,0.041429070794197
3.8,3.28077554231615,-2.49998190434583,3.59519794530296,0.273001978584335,-0.108833221318085,-0.0138389245105804,1.67485294641458,-2.36945813330087,0.382984364436018,0.226474839562975,-0.0083821408828076,0.0247879279245602,4.06942777092106,0.00354302496410316,0.00521853299633882,-5.05017677906131e-05,1.67485294641458,-2.36945813330087,0.382984364436018,0.226474839562975,-0.0083821408828076,0.0247879279245602,0.881576966430061,2.1824356052069,-2.01893034222134,0.285968114821207,0.401635691304407,-0.000972013736205855
3.9,3.53414135429978,-2.60567723839831,3.7263702285629,0.253706500546842,-0.113390465195882,0.0344161709598001,1.80930504341475,-2.12896793029782,0.183873668799042,0.402596093314155,0.188879393055134,0.0290395030938071,4.02913810380606,-0.000495045345799776,0.00235723725757995,-0.00219622494512081,1.80930504341475,-2.12896793029782,0.183873668799042,0.402596093314155,0.188879393055134,0.0290395030938071,0.812469669741807,2.05174673349207,-2.0597713701129,-0.0391888138513899,0.182038142942967,-0.091372470046107
4,3.68585790848881,-2.68893500261799,3.6565688478594,0.333913588293853,-0.0387583423984273,0.0156330770126594,1.87169233296917,-1.93639887525831,-0.0341624895989914,0.226555120288499,0.0737785744864902,-0.0334190198789053,4.04549637804309,0.000364455034881146,0.00287511115378805,0.00132442462720563,1.87169233296917,-1.93639887525831,-0.0341624895989914,0.226555120288499,0.0737785744864902,-0.0334190198789053,0.254708800586318,2.65607217245916,-2.17163840731332,0.0305958284322113,0.222665680835356,0.0572876864031891
4.1,3.82081909001545,-2.76181417158021,3.56044949421321,0.268711200166414,-0.0899290621336345,-0.0136170397260689,1.94202967479721,-1.65402439444658,0.0360179028259808,0.252772355212163,0.0922324717634263,0.0349868771237763,3.97157327158077,0.00207765600305971,0.00600339534328047,-0.000146718619769949,1.94202967479721,-1.65402439444658,0.0360179028259808,0.252772355212163,0.0922324717634263,0.0349868771237763,0.716408876734453,2.09925844494118,-2.18284789001698,0.16812625640124,0.462605264622501,-0.00471770791970382
4.2,3.97500017576185,-2.8150657856827,3.60708782072923,0.268367865820416,-0.0987462669062848,-0.0122128612177452,1.9312568529357,-1.49505232410846,-0.379936044629592,0.312094704862143,0.220785284382019,-0.0151520393621705,4.13991606230116,0.000123929716984457,0.00349880808092379,0.00207759906539771,1.9312568529357,-1.49505232410846,-0.379936044629592,0.312094704862143,0.220785284382019,-0.0151520393621705,0.813809402448154,2.18568868393959,-1.86543586815601,0.0111305298551198,0.270959426771147,0.0891936317625476
4.3,4.09428296873868,-2.83398215715432,3.41094554061369,0.329385959900862,-0.0183464770945541,-0.0190820199331593,2.05345905929265,-1.20978721759698,-0.340741731294588,0.24966606900923,0.146020547283052,0.0492412658393463,4.01263981829954,-0.00167769174726639,0.00323720692504605,-0.00097145873315992,2.05345905929265,-1.20978721759698,-0.340741731294588,0.24966606900923,0.146020547283052,0.0492412658393463,0.188818715720915,2.59274267965977,-2.21742822653114,-0.134516263927077,0.250569832436398,-0.0394953234593671
4.4,4.27466234469258,-2.81227163998867,3.41494653236236,0.322817349480791,-0.0379513082332983,0.0171132682362319,2.1116120016827,-0.937818084375938,-0.450571217219676,0.170608130007545,0.160253881913436,-0.0133308793775338,3.94912838709281,-0.000499115195309418,0.00494603469475205,0.000171519578198538,2.1116120016827,-0.937818084375938,-0.450571217219676,0.170608130007545,0.160253881913436,-0.0133308793775338,0.241278309823879,2.51013652268925,-2.32511793776021,-0.0388630086030713,0.383699749857567,0.00870548993575515
4.5,4.44689707640111,-2.80704787502037,3.37146021646294,0.289483587420942,-0.0340261559167661,-0.0214734820344008,2.10995792609392,-0.710698686804858,-0.70050815414447,0.206773159670244,0.228591548367763,7.60186241783607e-05,4.03828346541828,-0.000777188594656407,0.00387311984062681,0.0012871369412942,2.10995792609392,-0.710698686804858,-0.70050815414447,0.206773159670244,0.228591548367763,7.60186241783607e-05,0.31277199004918,2.29932960919473,-2.07396804435222,-0.0615924875274989,0.300874261863315,0.0556907925470066
4.6,4.58821587695696,-2.77411772541228,3.23650938260568,0.319472352520944,0.0127642693924525,-0.014047901846753,2.14922807749066,-0.447717307808411,-0.819409998315301,0.196587449562704,0.206276715818747,0.0296428838920578,4.02528715288703,-0.0029198084384899,0.00317233988347802,-0.000645443502500255,2.14922807749066,-0.447717307808411,-0.819409998315301,0.196587449562704,0.206276715818747,0.0296428838920578,-0.0620302416041296,2.52952984904951,-2.16739719436608,-0.23455775950272,0.247129448491024,-0.0260120347896788
4.7,4.75717391682254,-2.69229120295973,3.1437255670096,0.341902919457738,0.0280601805595316,0.0135180057050851,2.17657090229441,-0.145253436962763,-0.886595881134774,0.108398030299144,0.206789299496499,-0.000509239588718881,3.95963025442253,-0.0031596765278943,0.00335284463853058,-0.000682470857643682,2.17657090229441,-0.145253436962763,-0.886595881134774,0.108398030299144,0.206789299496499,-0.000509239588718881,-0.245198618754085,2.65210123160756,-2.35205633558286,-0.253806468138595,0.262257213916429,-0.0277362043304446
4.8,4.95050039841517,-2.57809442741251,3.11404043825151,0.335451791747054,0.0635122694049017,0.0236280819236361,2.18797014274443,0.159773010444266,-1.04784794978773,0.104675009502465,0.243418714322297,0.0154482097335667,3.92719316518073,-0.00446543376635991,0.00173517359261623,-0.00198704505209946,2.18797014274443,0.159773010444266,-1.04784794978773,0.104675009502465,0.243418714322297,0.0154482097335667,-0.531684648455645,2.57378799661559,-2.40835751946616,-0.359323459392818,0.13791292467138,-0.0829819158806292
4.9,5.02168676039977,-2.54601470156259,2.93417100145823,0.263711660112278,0.0171994344681902,-0.0458911644294474,2.00509882522074,0.336458318655238,-1.27201511695358,-0.0270047567767956,0.124605709238776,-0.0794777019247143,4.06464903636891,0.00163137503834984,0.00611719082106399,0.00582413548654696,2.00509882522074,0.336458318655238,-1.27201511695358,-0.0270047567767956,0.124605709238776,-0.0794777019247143,-0.0376263093742313,2.12299026680573,-1.9628996601732,0.132179599633363,0.475695670399966,0.246350213279747
5,5.13172254448806,-2.43238356402735,2.8055497821557,0.237101143627271,0.00498007443745552,-0.0510412058281058,2.05013756684407,0.586230548160822,-1.39048598242794,0.245864105107777,0.33665071762044,0.119183362488317,4.11408317699649,-0.00577318657412788,0.00188767180881853,-0.00343457742269386,2.05013756684407,0.586230548160822,-1.39048598242794,0.245864105107777,0.33665071762044,0.119183362488317,0.0588250557769972,1.93219508677209,-1.81213257746486,-0.465388884104517,0.14726099170693,-0.144455994818344
5.1,5.31272008410233,-2.25692671474457,2.66888105633746,0.400305667403091,0.143067225015401,0.0572860839501871,2.12638307363128,0.85048054398629,-1.46017967690223,-0.0483947572494576,0.228270796436135,-0.0491740842649927,4.09322496368834,-0.00694670684803756,-0.000584673316613464,-0.000475753355211974,2.12638307363128,0.85048054398629,-1.46017967690223,-0.0483947572494576,0.228270796436135,-0.0491740842649927,-1.25583717372969,3.12347951167259,-2.34778108424272,-0.560104034583081,-0.0379679332157527,-0.019983318108487
5.2,5.46457408355995,-2.11555130628652,2.53025782369634,0.272901091234618,0.111114248136009,-0.019082708239019,1.91109210611681,1.29864808700419,-1.37140580959641,-0.121385746381675,0.112381384304533,0.00450267174777435,3.88870059800672,-0.00234991512499842,0.00428565443541345,0.00058994879844027,1.91109210611681,1.29864808700419,-1.37140580959641,-0.121385746381675,0.112381384304533,0.00450267174777435,-0.790337793347503,2.11167949176138,-2.3666039162065,-0.189670772308327,0.334624926936907,0.0247150394709238
5.3,5.5327939062347,-1.89130119818429,2.60332781436277,0.216644654009518,0.0559931256635582,0.000535892630512642,1.85648943785568,1.35168611724733,-1.87704884544215,0.0352359934927954,0.304315368707356,0.014927541808877,4.11626845320677,-0.0047287691584081,0.00120723304648246,-0.00083923900537994,1.85648943785568,1.35168611724733,-1.87704884544215,0.0352359934927954,0.304315368707356,0.014927541808877,-0.450903087278001,1.76937475712403,-1.7825057900864,-0.381643827819778,0.0978691093703224,-0.0357115991852811
5.4,5.64987171133824,-1.77043486978341,2.2274776485994,0.29472617290691,0.163295087066967,0.00673079180252532,1.83837961826039,1.57485527176253,-1.8258650334652,-0.0669906845512079,0.201630838602678,-0.00661464440761599,4.19430291615997,-0.00671608520227615,-0.00030641198844568,-1.78873016456119e-05,1.83837961826039,1.57485527176253,-1.8258650334652,-0.0669906845512079,0.201630838602678,-0.00661464440761599,-1.32130767267406,2.42786572571493,-1.88987867125361,-0.542320495299023,-0.0179375318425702,-0.00140712427574472
5.5,5.72650518721592,-1.61055621819778,2.0685199595629,0.224856814586287,0.108387883227573,-0.0264732729902855,1.58162050892145,1.88573546990477,-1.78624141413937,-0.195377126660397,0.120891508556758,-0.0110324766729568,4.07886919989892,-0.00242687555714186,0.00351040457804018,0.00176392349484627,1.58162050892145,1.88573546990477,-1.78624141413937,-0.195377126660397,0.120891508556758,-0.0110324766729568,-0.811806337415882,1.84103844626936,-1.90429043605662,-0.196621173815837,0.275323655203903,0.0735563466394146
5.6,5.76164357863481,-1.37818547662453,2.05978399074164,0.159719720440571,0.0830042457549186,-0.0199338270688849,1.55175080717869,1.98878447112674,-2.08780731953315,-0.0349688884071013,0.281135005883084,0.0297430615612424,4.19242485137216,-0.00471354037698145,0.00033160248138499,-0.000458914329410476,1.55175080717869,1.98878447112674,-2.08780731953315,-0.0349688884071013,0.281135005883084,0.0297430615612424,-0.659613776283938,1.34695443865619,-1.56037407248472,-0.3810869923792,0.0301592634750103,-0.0203269537364871
5.7,5.87574266543665,-1.18280191245028,1.78267600978964,0.24725443247259,0.188020900062891,0.0138688932986715,1.53154774255959,2.14880877193142,-2.04926809733225,-0.125911513573419,0.181654302689644,0.0026808188750817,4.27169389220552,-0.00746045791333884,-0.00129670149235692,-0.000746943862442046,1.53154774255959,2.14880877193142,-2.04926809733225,-0.125911513573419,0.181654302689644,0.0026808188750817,-1.57717227949857,2.06925885239964,-1.67242233601602,-0.603217230553245,-0.0940374537222434,-0.0327737990071116
5.8,5.99279046085635,-0.947360288545664,1.66025195619874,0.227576572564686,0.182833198578834,0.0231638154589989,1.30546548251299,2.49765757468181,-1.99885650147142,-0.246680721478108,0.133161872343358,0.0141509968543357,4.21051710109596,-0.00635573411267609,-0.000405252992438573,-0.0017788007677026,1.30546548251299,2.49765757468181,-1.99885650147142,-0.246680721478108,0.133161872343358,0.0141509968543357,-1.5352092697224,1.8648727133845,-1.74283201516677,-0.514400867996396,-0.0255383211831285,-0.0764637867935705
5.9,6.00022342277633,-0.679902259177843,1.63703263944618,0.148990636377906,0.156874257322065,0.0160562604489973,1.13224417685673,2.63723236223523,-2.18831709033515,-0.240894517615472,0.154726818457863,-0.0233601600428428,4.20940479998776,-0.00468328864141389,-0.000470368321425064,0.00031947883253076,1.13224417685673,2.63723236223523,-2.18831709033515,-0.240894517615472,0.154726818457863,-0.0233601600428428,-1.32060952539098,1.22864355548297,-1.58669284438086,-0.379888956880656,-0.0304099008665255,0.0120254615947623
6,5.99051575141347,-0.480629373298008,1.39716162963453,0.111586517193914,0.152631054086244,-0.021326112425271,0.973790707581573,2.66189708042435,-2.28257173311797,-0.209988756723773,0.132173476377765,0.00166414408983737,4.28863185691231,-0.00435541390170047,-0.000364955446750935,0.000893517641494705,0.973790707581573,2.66189708042435,-2.28257173311797,-0.209988756723773,0.132173476377765,0.00166414408983737,-1.27530697280439,0.982540677871347,-1.38517603994379,-0.353345978228526,-0.0233968490305395,0.0361952273492024
6.1,6.03197550282107,-0.256599974996965,1.20520780890604,0.138098179711441,0.176848456299563,0.0161747502864121,0.882963525503913,2.78594801973253,-2.24524651013092,-0.194609947660271,0.154991307068768,0.0375591662962501,4.32978570836222,-0.0070765154849737,-0.00252536889305355,-0.00263070771691952,0.882963525503913,2.78594801973253,-2.24524651013092,-0.194609947660271,0.154991307068768,0.0375591662962501,-1.52804091634072,1.16751169293155,-1.36664850156007,-0.572984453935727,-0.189804109896927,-0.112533234953885
6.2,6.03455360057459,-0.0462866141844041,1.04823275626295,0.112735999079911,0.172624114329598,0.00758818787436705,0.649112612859766,2.90358444516571,-2.31359172305663,-0.35188728917401,0.0448215698936219,-0.0603519192828275,4.36992444096056,-0.0034039946127463,-0.000412308854340737,0.00235850890868546,0.649112612859766,2.90358444516571,-2.31359172305663,-0.35188728917401,0.0448215698936219,-0.0603519192828275,-1.49911481858622,0.971862358868241,-1.25470358228728,-0.277639273264754,-0.0264639809778453,0.0979433005798879
6.3,5.98967365757624,0.175890320446457,0.897126236127797,0.0172239522784597,0.124395990687639,-0.0393516917053167,0.476206938060913,2.96778986909956,-2.34289568895257,-0.222756434430078,0.123042324157991,0.0423212939581729,4.3265252529303,-0.00354597570707033,-0.00104497798467367,-0.000256337616501813,0.476206938060913,2.96778986909956,-2.34289568895257,-0.222756434430078,0.123042324157991,0.0423212939581729,-1.06677735419421,0.19114900308942,-1.22508700147925,-0.288134219612183,-0.0772091432475555,-0.0122485000052185
6.4,5.96814808968518,0.405247758479445,0.740022591011256,0.06205859527687,0.166166428841558,0.0108893010762497,0.433663313041234,2.87748269214616,-2.36639678159989,-0.241811682518873,0.0920030047152012,-0.00903628260985844,4.37084049581403,-0.00495478630955962,-0.00233281711033649,-0.000206416304208066,0.433663313041234,2.87748269214616,-2.36639678159989,-0.241811682518873,0.0920030047152012,-0.00903628260985844,-1.44893312477703,0.526401945121525,-1.20532218200545,-0.402648801157114,-0.17554737638888,-0.0101132040841787
6.5,5.97418011679719,0.578861658239963,0.531553135318314,0.0363977572450703,0.158182490952378,-0.0157073360754284,0.216845823947623,2.98267620981881,-2.4284942500804,-0.318939136711709,0.0336636514288279,-0.0111279177940721,4.46692649367598,-0.00308932816333616,-0.00133900340385612,0.00113708592274447,0.216845823947623,2.98267620981881,-2.4284942500804,-0.318939136711709,0.0336636514288279,-0.0111279177940721,-1.40108130786245,0.347149592811942,-0.993527489489557,-0.252172672789955,-0.0996455059630785,0.046647031439976
6.6,5.9268936374862,0.814691663096405,0.405008791541419,-0.0065385682833608,0.143604383939147,-0.00899037732508355,0.08286327340213,3.00618580168652,-2.3640096499483,-0.250587311216961,0.0738325201021423,0.0259324865664899,4.39275385716158,-0.00390855201949348,-0.00236656432780157,-0.000932968673452198,0.08286327340213,3.00618580168652,-2.3640096499483,-0.250587311216961,0.0738325201021423,0.0259324865664899,-1.25774434915595,-0.0461386534318902,-1.11511091644882,-0.318072391903465,-0.179335517970757,-0.0405380954121901
6.7,5.90151690131492,1.0424303994272,0.293752979173662,0.021435427305408,0.178784460132317,0.0217061636369483,0.00231656415056358,2.95242079128368,-2.43159969181141,-0.288573055470427,0.0345570445507682,-0.00755014768003985,4.46425528612414,-0.00444248136011977,-0.00331026240811847,-0.000770782053047104,0.00231656415056358,2.95242079128368,-2.43159969181141,-0.288573055470427,0.0345570445507682,-0.00755014768003985,-1.59120355374516,0.156872525175351,-1.02582312904942,-0.361740233996002,-0.251840059517396,-0.0335880715664139
6.8,5.83773019339993,1.19422820712189,0.0728020913719716,-0.0427294709036004,0.134941570040036,-0.0238260823817113,-0.279874516700503,2.95880660850198,-2.47967531292211,-0.352656676429673,-0.0366223363274594,-0.0315562845697673,4.50086085474458,-0.000762485201799064,-0.000933791566594744,0.00255885943093949,-0.279874516700503,2.95880660850198,-2.47967531292211,-0.352656676429673,-0.0366223363274594,-0.0315562845697673,-1.21873533053466,-0.355587755015001,-0.89825296153003,-0.0648668248556662,-0.069576022388144,0.107057353745418
6.9,5.75430109958217,1.41918684669788,-0.0397704404876644,-0.06353696253355,0.129796653293067,-0.00702799931798869,-0.297690926895093,2.86485391982476,-2.39690250703846,-0.185545747333565,0.0747099995690974,0.0663368118797226,4.41176659752696,-0.00426893493697105,-0.00359965355228628,-0.00287183386828582,-0.297690926895093,2.86485391982476,-2.39690250703846,-0.185545747333565,0.0747099995690974,0.0663368118797226,-1.14365682504082,-0.552219459630376,-1.07834260983852,-0.346967339220067,-0.275483915434287,-0.1218666990168
7,5.74131350672981,1.60281798120344,-0.170382621237334,0.0102319754448004,0.193865635881347,0.0520835557780853,-0.372773896729095,2.79093897600889,-2.50076311722224,-0.334812813415982,-0.0357456239107669,-0.041895638256612,4.57337206283486,-0.00362820853552183,-0.00397957704483978,-0.000449332424427619,-0.372773896729095,2.79093897600889,-2.50076311722224,-0.334812813415982,-0.0357456239107669,-0.041895638256612,-1.76454318672785,0.00172783330157743,-0.835073122457322,-0.296739602249354,-0.304348290009935,-0.019562730877704
7.1,5.66814246461147,1.74603646943645,-0.38561212042413,-0.0916829086379946,0.130141647697944,-0.0174244773152894,-0.714126227975633,2.88051114868371,-2.5049775736455,-0.336440386541869,-0.0726156729626564,-0.00737778330696912,4.5935273427736,-0.000709823606256132,-0.00180235405366712,0.00122454635146396,-0.714126227975633,2.88051114868371,-2.5049775736455,-0.336440386541869,-0.0726156729626564,-0.00737778330696912,-1.20171397911806,-0.820302714453265,-0.738894181838271,-0.060480082941839,-0.137704002071044,0.0512719167041149
7.2,5.51646860136292,1.96977987847779,-0.478261585961258,-0.101494387570192,0.120043611034879,0.00931896463995092,-0.715721320270632,2.62871971518355,-2.39232681329479,-0.213613286841475,0.00883942462696907,0.0391572546708297,4.43443949245297,-0.0028507928132928,-0.00353055247159905,-0.00225884736219987,-0.715721320270632,2.62871971518355,-2.39232681329479,-0.213613286841475,0.00883942462696907,0.0391572546708297,-1.04821163138242,-0.908404377130205,-1.05025866178963,-0.232894259387965,-0.271133981090904,-0.0955018538400198
7.3,5.4499754326708,2.05334272743129,-0.636286448864238,-0.0780984612461484,0.140245651131268,0.0194464678968685,-0.804659595853511,2.49306925992144,-2.60825747574459,-0.32403015406088,-0.0868368336097982,-0.0509429781836863,4.61931238242955,-0.000446594462210936,-0.0022542530846299,0.0015620866897747,-0.804659595853511,2.49306925992144,-2.60825747574459,-0.32403015406088,-0.0868368336097982,-0.0509429781836863,-1.2732378906416,-0.745688541357894,-0.68996702752727,-0.0397857065341334,-0.173200506365705,0.0658409544956924
7.4,5.40823284074849,2.2190707926075,-0.844762779222844,-0.104744883299064,0.134586611795288,0.0152397770829653,-0.925079313356164,2.52121934173985,-2.46491064603273,-0.195593676688963,-0.00737819748279964,0.0655890461299368,4.60634855520881,-0.00348203395034617,-0.00446988295606947,-0.0037209188016531,-0.925079313356164,2.52121934173985,-2.46491064603273,-0.195593676688963,-0.00737819748279964,0.0655890461299368,-1.21456936130884,-0.981842365807375,-0.730650084748751,-0.28347563166949,-0.34408625837595,-0.156888976328941
7.5,5.28165132523276,2.3673957960592,-0.943234990126264,-0.0824208511798018,0.14605185488997,0.0488707790200413,-1.07381168132374,2.32808721199725,-2.51346651541423,-0.350684214390434,-0.13511799784157,-0.0709204106157333,4.63111135527475,-0.000206550522469144,-0.00255464408082468,0.00120864429861658,-1.07381168132374,2.32808721199725,-2.51346651541423,-0.350684214390434,-0.13511799784157,-0.0709204106157333,-1.30452988008282,-0.827251956955574,-0.677496206871687,-0.020545658636106,-0.197227831033695,0.0512167843236465
7.6,5.10001227956998,2.39977293708895,-1.16765700343844,-0.220597422274712,0.0325898126134493,-0.0646907967533376,-1.31344664035932,2.19642548718031,-2.61480275152449,-0.264902339849293,-0.0999664031242215,-0.00805833083854195,4.67046952432864,0.00392033083062001,-0.000125666630699695,0.00347777624694898,-1.31344664035932,2.19642548718031,-2.61480275152449,-0.264902339849293,-0.0999664031242215,-0.00805833083854195,-0.42849892881231,-2.02044081426949,-0.700260712030719,0.313757219651398,-0.0105534457915101,0.14712822847372
7.7,4.96984194923559,2.53821528254769,-1.32116706570727,-0.166167573262175,0.076080058740537,-0.00187864268320893,-1.09432554562171,1.71293144232316,-2.40462564056523,-0.050779501040267,0.0123128825326162,0.0765972451871028,4.45665422731077,-0.00177579348163072,-0.00304050379723571,-0.0035156661359177,-1.09432554562171,1.71293144232316,-2.40462564056523,-0.050779501040267,0.0123128825326162,0.0765972451871028,-0.670907981489701,-1.47303849129828,-1.04489260244035,-0.145355211713633,-0.235014463738321,-0.147842583956544
7.8,4.92891950847806,2.45898907422372,-1.46160016378954,-0.117477033292632,0.090614498980113,0.00824983013588096,-1.27138347301754,1.67592268710571,-2.78853136805169,-0.317638419428456,-0.144483267122717,-0.107339561346423,4.8004169309905,0.00338708178657825,-0.000391594489237969,0.00472748853245817,-1.27138347301754,1.67592268710571,-2.78853136805169,-0.317638419428456,-0.144483267122717,-0.107339561346423,-0.853483921374584,-1.13236454168249,-0.31445754124303,0.26970179217605,-0.0320174522502005,0.199998104599962
7.9,4.84413533961686,2.61384493761473,-1.71253917204907,-0.19113830150003,0.0654205515027103,-0.0267333943133215,-1.32184756347796,1.73897093554285,-2.4737360393441,-0.0528727464049588,0.0138135896949092,0.121123921346401,4.6860826528183,-0.00164947724073524,-0.0032335845300142,-0.00443782644407113,-1.32184756347796,1.73897093554285,-2.4737360393441,-0.0528727464049588,0.0138135896949092,0.121123921346401,-0.648914930595099,-1.76377659184108,-0.628198212599957,-0.134542668352017,-0.249908106323083,-0.186617616339702
8,4.72592265455792,2.73076146662458,-1.74456493895735,-0.0970636155593862,0.124329273706742,0.0683643444932192,-1.35600903890215,1.36557664285262,-2.57195247367909,-0.272370768170425,-0.132238191255887,-0.0912909310232959,4.71259897125328,0.00129193091195625,-0.00205412326219355,0.00115185634828682,-1.35600903890215,1.36557664285262,-2.57195247367909,-0.272370768170425,-0.132238191255887,-0.0912909310232959,-1.09819648747533,-0.990741275614666,-0.50157626366741,0.100752286307947,-0.160735801129214,0.0492631924727425
8.1,4.62751383016281,2.6995706941965,-1.9322644232711,-0.200511788968567,0.0584824237471988,-0.0251970091352801,-1.56548437019352,1.49528130662883,-2.67709232542904,-0.144494274481856,-0.0791299799098616,0.0327202972349453,4.8674747051059,0.00136383094669814,-0.00141501182060224,-0.00032961049622991,-1.56548437019352,1.49528130662883,-2.67709232542904,-0.144494274481856,-0.0791299799098616,0.0327202972349453,-0.606271717602363,-1.92425475220245,-0.28640203114154,0.108130799213678,-0.110736162835051,-0.0131775134889687
8.2,4.45527238578264,2.84508193357754,-2.11395754037635,-0.151890052572891,0.0824036686882179,0.0349677516108119,-1.5044234146811,1.03484120170986,-2.44536681588253,-0.129978736259249,-0.0670646563911895,0.00468701108171877,4.69753855184017,0.000464635847436184,-0.00223908462804781,-0.00184886009734745,-1.5044234146811,1.03484120170986,-2.44536681588253,-0.129978736259249,-0.0670646563911895,0.00468701108171877,-0.714244541012181,-1.44739329575003,-0.554602592694856,0.0352473855750633,-0.174812924597709,-0.0772561743783539
8.3,4.39575459972398,2.77207928803587,-2.16480789984717,-0.137913134212837,0.0999746384307861,0.0410502756277624,-1.56597314229367,1.07018831201127,-2.67658172615926,-0.150525505696846,-0.092528917129322,-0.0173149113103659,4.89284031766246,0.000155935897941679,-0.0022579341599467,-0.00108277374408623,-1.56597314229367,1.07018831201127,-2.67658172615926,-0.150525505696846,-0.092528917129322,-0.0173149113103659,-0.911392943044131,-1.38386805347603,-0.165632855883647,0.0103824253757904,-0.17652441801808,-0.0449125200263694
8.4,4.2252953259649,2.81231706770629,-2.45759923786296,-0.194506756734704,0.0436882164565216,-0.00841599897794824,-1.78209559671895,0.877377323900575,-2.56683161601174,-0.195913515004421,-0.132745469878081,-0.036256123871184,4.92513157480758,0.00400318524237672,-9.05933885681075e-05,0.00212589234737393,-1.78209559671895,0.877377323900575,-2.56683161601174,-0.195913515004421,-0.132745469878081,-0.036256123871184,-0.438099205167966,-1.90026492999642,-0.154703712525281,0.320992697964536,-0.0097004869730528,0.0904830886828585
8.5,4.03548578494099,2.80617464688382,-2.55449108852614,-0.22050914817157,0.0213485706999463,-0.016691840471087,-1.69350280301498,0.538938172825491,-2.49322142270401,-0.0228584838951514,-0.0449451906739683,0.0387339131229743,4.8380050521345,0.00216856572175115,-0.000690680087946172,-0.00104893014838211,-1.69350280301498,0.538938172825491,-2.49322142270401,-0.0228584838951514,-0.0449451906739683,0.0387339131229743,-0.236848743235032,-2.11274060376572,-0.370434260415179,0.173620610433222,-0.0553782882701523,-0.0434819645637907
8.6,3.97259352391706,2.73896618751602,-2.67467726635394,-0.138662554886856,0.0719322511228763,0.0343550971475687,-1.63523013744867,0.296007925729256,-2.57920777246373,-0.0747449239705227,-0.0634438568192452,-0.0183106138859767,4.92628828693515,0.00115210791707215,-0.00143299693225372,-0.000756421423683185,-1.63523013744867,0.296007925729256,-2.57920777246373,-0.0747449239705227,-0.0634438568192452,-0.0183106138859767,-0.654120668164288,-1.38509491604161,-0.0772252995862619,0.0912658891218951,-0.113293218691922,-0.0311589494459557
8.7,3.89214318219701,2.68053210660901,-2.85988228268301,-0.157285409263299,0.0654853861146152,0.0167239451036495,-1.8019971205793,0.3863918555924,-2.55957183096338,-0.105351416255587,-0.0903626728195538,-0.00799162210420984,5.02868200804463,0.00175669789245641,-0.00106391364458999,-0.000408905619789905,-1.8019971205793,0.3863918555924,-2.55957183096338,-0.105351416255587,-0.0903626728195538,-0.00799162210420984,-0.623579805175937,-1.58601243572564,0.101926338125583,0.140296276416302,-0.0846134819349855,-0.0165107119743936
8.8,3.66712421455305,2.69696712815638,-3.04120934901264,-0.215112379922343,0.00949740764792743,-0.0201772362634904,-1.92526980424463,0.100552272982535,-2.49935075437691,-0.107662772326282,-0.113137844084112,-0.0346594910796364,5.05074216240913,0.0052552565679595,0.00092436224857804,0.0025923637836754,-1.92526980424463,0.100552272982535,-2.49935075437691,-0.107662772326282,-0.113137844084112,-0.0346594910796364,-0.13721019589461,-2.15390485688062,0.0582243992623859,0.422617853888175,0.0683861672208382,0.110099480150078
8.9,3.50935646457063,2.61415437707486,-3.15277937575329,-0.211423242217308,0.00269096018080635,-0.0240676318259734,-1.78547784255222,-0.264838692004482,-2.43562564120493,0.0626492157769279,-0.0228510347683382,0.0430648840381061,5.01784723772722,0.00260658909480429,7.58923581165758e-05,-0.000903395834063118,-1.78547784255222,-0.264838692004482,-2.43562564120493,0.0626492157769279,-0.0228510347683382,0.0430648840381061,-0.0770783589285498,-2.10476182506841,0.00219650185351306,0.209437106348789,0.00379859622859541,-0.0374460063584763
9,3.45712996536372,2.47618174881147,-3.27212388070687,-0.129134771343315,0.0524036773757258,0.02444442354237,-1.75678278155231,-0.431463400354254,-2.47206126529208,-0.0231377820424076,-0.0486268120663869,-0.0230993790918569,5.0818627992028,0.00199523313331948,-0.000542773784609809,-6.70144459520916e-05,-1.75678278155231,-0.431463400354254,-2.47206126529208,-0.0231377820424076,-0.0486268120663869,-0.0230993790918569,-0.495791640492443,-1.32135850914478,0.25526305563913,0.159786440139357,-0.044707015902672,-0.00218650906411927
9.1,3.2975542052418,2.33595104235018,-3.48696443736066,-0.212450150995077,-0.0114047680140973,-0.0515467239959703,-2.00130300937405,-0.41452871302656,-2.48595047645154,-0.080134568661103,-0.113269088786665,-0.045479196366511,5.25009927252901,0.00697954908632005,0.00201164799083544,0.00460065137139192,-2.00130300937405,-0.41452871302656,-2.48595047645154,-0.080134568661103,-0.113269088786665,-0.045479196366511,0.00282671163548697,-2.217116115022,0.453457391534767,0.561989027765883,0.152282320122203,0.19473517558925
9.2,3.15185202345471,2.40354817677335,-3.56961180384725,-0.169908260869654,0.0230822943097092,0.00217334484502273,-1.75041213824176,-0.780872246224253,-2.21462592114196,0.206079386998827,0.0511075995411807,0.120242927119642,5.04302047987984,-0.00110008940731591,-0.00146699858460371,-0.00579129763129211,-1.75041213824176,-0.780872246224253,-2.21462592114196,0.206079386998827,0.0511075995411807,0.120242927119642,-0.225729098461964,-1.70596276452685,0.12815675374994,-0.0891660666104203,-0.114322501423266,-0.243801562431924
9.3,3.08339315687678,2.16119002111166,-3.64006039070722,-0.0856336080184023,0.0546761436724124,0.0397105230575596,-1.90075424716572,-0.852442794718555,-2.47857196466682,-0.159893070297922,-0.121642744935721,-0.145698617316484,5.28119874401418,0.00503709839558747,0.001032131920281,0.00502111984863492,-1.90075424716572,-0.852442794718555,-2.47857196466682,-0.159893070297922,-0.121642744935721,-0.145698617316484,-0.538790233283414,-0.925510803226919,0.697967240752924,0.404835469240815,0.0754467929257171,0.212407746097393
9.4,2.94662590574675,2.13578225590885,-3.8509029600403,-0.199110163230139,0.0117075451211346,-0.0373940494001539,-1.97395886877984,-0.66354720586229,-2.17797525190626,0.140621748831605,0.0182364424541721,0.127379109581117,5.20762820480307,0.000663042764792598,-0.000827715167299069,-0.00426323495778107,-1.97395886877984,-0.66354720586229,-2.17797525190626,0.140621748831605,0.0182364424541721,0.127379109581117,-0.196459512988809,-2.05419940210362,0.398782226788622,0.0532254688682332,-0.0645387585319016,-0.179382966345758
9.5,2.74371802180799,2.12990888131183,-3.90778686954264,-0.107946418609818,0.0411300231636609,0.0455230096872864,-1.95941354841524,-1.23285210413237,-2.28890630375908,-0.0612952860521135,-0.0944752372634125,-0.107974869096665,5.30032274591801,0.00429473909103168,0.00102090394058476,0.00295937496218521,-1.95941354841524,-1.23285210413237,-2.28890630375908,-0.0612952860521135,-0.0944752372634125,-0.107974869096665,-0.380922861198484,-1.16061785307697,0.720030807956775,0.345253177328629,0.0749492558979406,0.125353293674156
9.6,2.65510351582848,1.85603429896218,-4.04808087025228,-0.165341837300352,0.0104195545016149,-0.0304283531708907,-2.00246989360434,-1.05607674349182,-2.12152235729077,0.124103535546816,0.0052972168621821,0.0730818361764056,5.28185393511636,0.00144982960661312,-0.000109289524202984,-0.00201945151524155,-2.00246989360434,-1.05607674349182,-2.12152235729077,0.124103535546816,0.0052972168621821,0.0730818361764056,-0.161412673736314,-1.73456774419266,0.609075998243817,0.11658806665499,-0.00967984355236708,-0.0847729254549518
9.7,2.50713531703149,1.87171363420515,-4.12053783612299,-0.0801524775357288,0.0598141451323539,0.0520240168775189,-1.95297045633748,-1.3690084062303,-2.12282457984415,0.0195873219153817,-0.0382974075313308,-0.033204585976629,5.31628962431551,0.00131519869818963,-0.000516929160963838,-0.000890050780009476,-1.95297045633748,-1.3690084062303,-2.12282457984415,0.0195873219153817,-0.0382974075313308,-0.033204585976629,-0.58843285456942,-0.883108981950779,0.7694899111479,0.105299513240332,-0.0425183913948106,-0.0371368145558838
9.8,2.3780145084012,1.63651096154606,-4.26334578219841,-0.140591419718224,0.0189653562767797,-0.0116076454041908,-2.15353841522729,-1.25871888711894,-2.07088221923217,0.00426775356289037,-0.0726591313497859,-0.0269753818139961,5.39937046386083,0.00389483387946954,0.00107919107449167,0.0018273029448009,-2.15353841522729,-1.25871888711894,-2.07088221923217,0.00426775356289037,-0.0726591313497859,-0.0269753818139961,-0.220319886733432,-1.51075822030323,0.880270079438905,0.313561470774399,0.0809779320235891,0.0774927224825183
9.9,2.17114740768813,1.62818063379728,-4.35668627039953,-0.131337794459265,0.0149476810751331,0.00179854916737802,-2.05671686257452,-1.54823594948633,-1.93668812593496,0.135503983071859,0.00439909874565646,0.0458859569258085,5.36868843861284,0.00115265837997997,-3.9169472508952e-05,-0.00225397259257092,-2.05671686257452,-1.54823594948633,-1.93668812593496,0.135503983071859,0.00439909874565646,0.0458859569258085,-0.156581349981159,-1.4064564844743,0.833712916163188,0.0926116144294538,-0.00448206087917601,-0.0947579454613335
10,2.06255555481976,1.39365155588835,-4.43356942713867,-0.0846694603219008,0.0343688020052341,0.0218235316717367,-2.07591160959066,-1.67506109656702,-1.93517114702939,0.0187016403352871,-0.0495938838506173,-0.0558479946732882,5.43192799985596,0.00293449090511015,0.000666496749274043,0.00161388660898253,-2.07591160959066,-1.67506109656702,-1.93517114702939,0.0187016403352871,-0.0495938838506173,-0.0558479946732882,-0.35182982487669,-0.926636393395286,1.00854555618449,0.236078204831074,0.0489771288495306,0.0684258845597491
10.1,1.93407029128874,1.25609548103537,-4.54079136442578,-0.11696730570946,0.0206254974518707,-0.00949882196212228,-2.13912786898306,-1.61952552742919,-1.8009446827123,0.11302091411487,-0.00910539582675665,0.0399511391925277,5.42869563821417,0.00153162206070972,9.60352486321123e-05,-0.00143939491162778,-2.13912786898306,-1.61952552742919,-1.8009446827123,0.11302091411487,-0.00910539582675665,0.0399511391925277,-0.23441859866739,-1.26489638750417,0.97091046150277,0.123245597010161,0.00620744099523138,-0.0604355438247033
10.2,1.72968792711255,1.14597148239804,-4.63207171322246,-0.10387421222914,0.00724141759558478,-0.000250771213214707,-2.18308912711183,-1.87720812476384,-1.80307749832921,0.0368808464955928,-0.0576782601804816,-0.0535827470023311,5.53146541341209,0.0041197458304155,0.00156903227332898,0.00255880445449502,-2.18308912711183,-1.87720812476384,-1.80307749832921,0.0368808464955928,-0.0576782601804816,-0.0535827470023311,-0.0799664535940738,-1.14706778976065,1.19301228441966,0.331792662554774,0.118831429634828,0.108244942700449
10.3,1.58088684379088,0.929977847367194,-4.731406517371,-0.124657221577598,-0.0114247301613123,-0.0349217952307014,-2.14201399571966,-1.95048582845575,-1.61502406313026,0.162653105287308,0.0112042383062586,0.0419541263175395,5.50588159619275,0.00254667842909122,0.000990039039033767,-0.000316523473194324,-2.14201399571966,-1.95048582845575,-1.61502406313026,0.162653105287308,0.0112042383062586,0.0419541263175395,0.0769481568903,-1.37266695742146,1.11560263831384,0.205193442754359,0.0753045546685576,-0.0131124043735559
10.4,1.5024858989169,0.824529756681871,-4.72090366862372,-0.0245468515979599,0.0598673157413268,0.0473797484443496,-2.02893752756711,-2.06319362561169,-1.55649303203856,0.143732710643041,0.0278465644495101,0.0143784304044207,5.45024266347191,-0.000997096226341472,-0.00144574565454721,-0.00291510928432148,-2.02893752756711,-2.06319362561169,-1.55649303203856,0.143732710643041,0.0278465644495101,0.0143784304044207,-0.638593383596867,-0.298125359961325,1.06767898602877,-0.080768741875763,-0.112704709354741,-0.122770681235346
10.5,1.36813110217468,0.597038636710268,-4.83170154990889,-0.0624162925134437,0.028669707075709,4.14383106461316e-05,-2.32421333868071,-1.89458171527544,-1.57915374557252,-0.0348151307401961,-0.105136600214907,-0.0785753472815222,5.5904010047384,0.00443995997080411,0.00167093473796457,0.00372417194376855,-2.32421333868071,-1.89458171527544,-1.57915374557252,-0.0348151307401961,-0.105136600214907,-0.0785753472815222,-0.319853396893432,-0.697424429314004,1.34444425083618,0.357620731339113,0.126926241837568,0.157363398060115
10.6,1.10688140164164,0.582906753262523,-4.91927313419603,-0.118115124112587,-0.0161570107829506,-0.027463929984051,-2.25482068123712,-2.03164429590765,-1.35895735416302,0.213925464412356,0.0363808155776466,0.0828731702678815,5.55134070966711,0.00103458040374671,0.000247924035865823,-0.00260899001581443,-2.25482068123712,-2.03164429590765,-1.35895735416302,0.213925464412356,0.0363808155776466,0.0828731702678815,0.14213350241587,-1.31274557262714,1.21388460699169,0.0833516305021824,0.0186827687836268,-0.109902971109841
10.7,0.953171550348591,0.348527837509547,-4.95040043602433,-0.0418516741157272,0.0110839906317396,0.00707799328479324,-2.18895215584068,-2.3566139071764,-1.38184067345512,0.0533833234584659,-0.0462577943677147,-0.0850445830247558,5.64764613489046,0.00381551399754796,0.00157919464933456,0.00370729601012684,-2.18895215584068,-2.3566139071764,-1.38184067345512,0.0533833234584659,-0.0462577943677147,-0.0850445830247558,-0.121736636964583,-0.473462405021833,1.47470828165371,0.307307448968855,0.119969263138538,0.156600719042706
10.8,0.871758094744834,0.0840730564706034,-5.02259296034914,-0.0795691858539532,-0.0055953950315057,-0.042076681664573,-2.22589572518593,-2.17309676560173,-1.14373086298109,0.199119376450633,0.027722326939797,0.0748220323904221,5.57199285560994,0.00142635389357327,0.000569644043115076,-0.00153153000239213,-2.22589572518593,-2.17309676560173,-1.14373086298109,0.199119376450633,0.027722326939797,0.0748220323904221,0.0248425829547966,-0.887613098649606,1.29855271243967,0.114955481184063,0.0435166746475545,-0.0644708660897543
10.9,0.693652750636157,0.0249011938073322,-5.01079606304127,-0.0167324404574684,0.0217814260529756,0.0190489517917861,-2.20066111183989,-2.35742656359249,-1.1869043875776,0.103190222639845,-0.0124599625109355,-0.0448054657620799,5.64301297676574,0.00174715233194654,0.000601537745829325,0.00123104678629793,-2.20066111183989,-2.35742656359249,-1.1869043875776,0.103190222639845,-0.0124599625109355,-0.0448054657620799,-0.242130432825361,-0.193481100000322,1.47176935330752,0.140557279093077,0.0451215353388162,0.0520839335940775
11,0.571966622397561,-0.200067614351114,-5.08728667394956,-0.0397762256178556,0.0130134578261575,-0.0207174581301077,-2.26795507630906,-2.20878277224427,-0.99516250943741,0.13173346699915,-0.00393841305388395,0.0241552613597223,5.60719312782,0.00174082850095161,0.000499948604683478,-0.000152052629660269,-2.26795507630906,-2.20878277224427,-0.99516250943741,0.13173346699915,-0.00393841305388395,0.0241552613597223,-0.155025357051682,-0.442831873057374,1.39456720099276,0.140210836249558,0.0378850082948056,-0.00628933895483071
11.1,0.414042914748106,-0.243623003479234,-5.05190030209011,0.00384982046436758,0.0408068603655679,0.0321766706590226,-2.22348545490276,-2.26319465836849,-0.956603237032646,0.158029863040215,0.0154528396006833,0.0142335536301441,5.60457834419913,-0.000719950089714386,-0.000947497924301655,-0.00218835115409558,-2.22348545490276,-2.26319465836849,-0.956603237032646,0.158029863040215,0.0154528396006833,0.0142335536301441,-0.458431752225243,0.0284195825832065,1.38974224350457,-0.0583189960630743,-0.073634225023341,-0.0922234404816911
11.2,0.284339234653421,-0.422946420778098,-5.09268664981324,0.0233286206580378,0.0486692380484764,0.0300768257309154,-2.32962451107217,-2.16246696002804,-0.874809342073884,0.0558285451076583,-0.0438117947600218,-0.0333380164152621,5.63233649777243,0.000742014071608223,-0.000324115718058074,0.000157656997613363,-2.32962451107217,-2.16246696002804,-0.874809342073884,0.0558285451076583,-0.0438117947600218,-0.0333380164152621,-0.555531690969208,0.246170673415187,1.43827285570709,0.0595210982287954,-0.0256969058477043,0.00675235756012085
