time,x,y,z,roll,pitch,yaw,xdot,ydot,zdot,p,q,r,thrust,roll angle,pitch angle,yaw angle,_xdot,_ydot,_zdot,_p,_q,_r,_xddot,_yddot,_zddot,_phiddot,_thetaddtot,_yawddot
0,2.01841953230695,3.01841953230695,0.0184195323069548,0.0184195323069548,0.0184195323069548,0.0184195323069548,0.0184195323069548,0.0184195323069548,0.0184195323069548,0.0184195323069548,0.0184195323069548,0.0184195323069548,8.96346549465245,-0.00716699976210073,0.00250273411710558,-0.00180442499669725,0.0184195323069548,0.0184195323069548,0.0184195323069548,0.0184195323069548,0.0184195323069548,0.0184195323069548,-0.336156546393266,0.324050486844631,8.11084944285825,-0.57798396139698,0.192518119426573,-0.076136079025962
0.1,1.22036642022637,1.82036642022637,0.0203664202263731,0.020116188144996,0.0195035980694973,0.0192616061059895,-0.0832694320943272,0.118962045294183,4.4738494663456,-0.308105394315557,0.115932301211176,-0.0319677252482563,5.55248521026372,-0.000377408927193368,-0.0011555272901817,0.000549143622325927,-0.0832694320943272,0.118962045294183,4.4738494663456,-0.308105394315557,0.115932301211176,-0.0319677252482563,-0.220791452483464,0.219162727890312,1.29061200447991,-0.0304391314568227,-0.0888837655104189,0.0231705310823167
0.2,1.29645573995367,2.05319381584173,2.05943774591605,-0.139438296967328,0.0557370014875988,-0.0144188758089152,-0.0589296467001283,0.062231215545512,1.11961465977298,-0.0432380907750555,-0.0348519018337883,0.0104155024728459,6.72371764048928,0.000495228608786338,0.00043491450375289,0.000184225651760462,-0.0589296467001283,0.062231215545512,1.11961465977298,-0.0432380907750555,-0.0348519018337883,0.0104155024728459,-0.768731872125556,-1.8581264326753,3.48623755447678,0.0399534978076232,0.0334890767005644,0.00778308737218113
0.3,1.30914964940353,2.03778609944034,0.790049964945703,-0.0306416724969852,-0.00132813114736123,0.0103831813302493,-0.195878545760237,-0.301536957744704,2.50357813986918,-0.00279560784483139,0.0289740658044656,0.0071758618678162,6.48026844871399,-0.00418455270822898,0.000296729285498277,-0.000842046367884942,-0.195878545760237,-0.301536957744704,2.50357813986918,-0.00279560784483139,0.0289740658044656,0.0071758618678162,0.0213270597097878,-0.396870338935782,3.14444154567033,-0.337461238392162,0.0228343952759734,-0.0355209963047086
0.4,1.22134344063769,1.85412047161236,1.50990083892152,-0.0345037472808053,0.005951977939409,-0.010655957993591,-0.149487762679819,-0.218754921214577,2.36529010060556,-0.225021130367625,0.00836324242292923,-0.0328078538519595,6.09257751053802,0.000297393106607203,3.23921988475301e-05,0.00204977447381035,-0.149487762679819,-0.218754921214577,2.36529010060556,-0.225021130367625,0.00836324242292923,-0.0328078538519595,-0.0769572119635302,-0.419553875303653,2.36768676805652,0.0239788327638094,0.0024799089109632,0.0864992937221219
0.5,1.28579642802541,1.93521767724248,1.61333688334643,-0.0916534948225124,0.0435605773229854,0.0161028090464966,-0.0859023100872642,-0.170472427371701,2.13472209519381,-0.00505814497388041,0.0373734227148316,0.0704044822558538,6.1614783899632,-0.00345416190956181,-0.00280569033033889,-0.00407448414379194,-0.0859023100872642,-0.170472427371701,2.13472209519381,-0.00505814497388041,0.0373734227148316,0.0704044822558538,-0.516142785108843,-1.1363197426901,2.44959370728438,-0.278527479760335,-0.215682130283425,-0.171899736816083
0.6,1.26604372369887,1.90561969810685,1.61974059735519,-0.0336112486550642,0.0253877490615396,0.0311415225060822,-0.200641073428654,-0.353884715915793,2.30949242462957,-0.197100753807187,-0.109997593527157,-0.0933248695435308,6.01609751360832,-0.00126264983823333,0.000678923942805521,0.00297467163804532,-0.200641073428654,-0.353884715915793,2.30949242462957,-0.197100753807187,-0.109997593527157,-0.0933248695435308,-0.292527253868324,-0.413649790268931,2.21152398116527,-0.101889195695538,0.0520201300789452,0.125538525197725
0.7,1.24816552615456,1.85263327147936,1.87881006248282,-0.0904478174858442,-0.00575755777678308,-0.00593678403399046,-0.161837850391094,-0.309979621676772,2.2906239048137,-0.0872127163029905,0.0584672760448239,0.089006123765396,5.80441526595768,-0.00245742609024896,-0.00275859460571325,-0.00390106358665721,-0.161837850391094,-0.309979621676772,2.2906239048137,-0.0872127163029905,0.0584672760448239,0.089006123765396,0.060338709934081,-1.04893903920155,1.75118646380435,-0.198150884883453,-0.211856842855575,-0.164589437042733
0.8,1.22003973841356,1.81960293265214,1.96462904261859,-0.0791890163479707,0.0349978134968194,0.041004142495897,-0.203191442888815,-0.441644539660384,2.14965351469704,-0.169355249745431,-0.11502532173107,-0.0883323077668203,5.8356349157527,-0.000749882046204711,-0.00118700756979254,0.00229912545236574,-0.203191442888815,-0.441644539660384,2.14965351469704,-0.169355249745431,-0.11502532173107,-0.0883323077668203,-0.36891623136717,-0.939183001948242,1.81756963354309,-0.0605138671050104,-0.0915840562044412,0.0970359158140282
0.9,1.20656619708771,1.75747608976312,2.05695294773566,-0.112887722023205,-0.0292770707330249,-0.023621033017563,-0.21109673457991,-0.511413219223535,2.27513876736539,-0.0948914972116941,-0.0426557232231704,0.0567211215008717,5.60790244275456,-0.00155027570884832,-0.000838660748429117,-0.00152819579072724,-0.21109673457991,-0.511413219223535,2.27513876736539,-0.0948914972116941,-0.0426557232231704,0.0567211215008717,0.296297266774242,-1.27079190197977,1.32963981021717,-0.125018865013528,-0.0640603277289016,-0.0644788593434258
1,1.13999257365567,1.65164245177697,2.20219309004534,-0.132091647237773,-0.0464249232823286,-0.00458007222985347,-0.275902519768717,-0.672856179599893,2.08558459891228,-0.166991978154569,-0.0753461007501737,-0.0637954612962843,5.60174254821532,0.00171157280534744,-0.000515705870763835,0.00326048433046075,-0.275902519768717,-0.672856179599893,2.08558459891228,-0.166991978154569,-0.0753461007501737,-0.0637954612962843,0.508641078604163,-1.47793209919197,1.28392082490576,0.138031789454012,-0.039724990154117,0.137563304235468
1.1,1.11649511056608,1.57020409855428,2.26589512536333,-0.157060523314937,-0.0515612186821361,-0.0438286900577642,-0.215267042948424,-0.776283385087402,2.16275506677956,-0.019262306345733,-0.0470880570374892,0.0558028535639638,5.44420379635235,-0.000789460361720957,-0.0016525179178355,-0.000552917000108312,-0.215267042948424,-0.776283385087402,2.16275506677956,-0.019262306345733,-0.0470880570374892,0.0558028535639638,0.479109819646982,-1.72576603455281,0.930093355254,-0.0637214664981726,-0.126469811527738,-0.0233656269210309
1.2,1.16307744874548,1.52625285180879,2.46606227421583,-0.0613450642163074,-0.00463151641133293,0.0454374460107882,-0.116111978383511,-0.834680455594803,2.09031577037036,-0.0900085067884809,-0.0713489083564387,0.00509889154720438,5.38307796198104,-0.00351123876818287,-0.00338468110162712,-0.00229335917497132,-0.116111978383511,-0.834680455594803,2.09031577037036,-0.0900085067884809,-0.0713489083564387,0.00509889154720438,0.0796983365008301,-0.657094514420967,0.935789331330691,-0.283167517915083,-0.260334277608837,-0.096818048363917
1.3,1.14837871690284,1.41272540860527,2.53295451767068,-0.131552827614094,-0.0544969350833114,-0.0106953175508726,-0.138481985853772,-1.02956653943211,2.00485036588453,-0.244486032208496,-0.180023374018011,-0.0663366705351132,5.28769245876093,0.00426073235083606,0.000850178119598019,0.00366035143022265,-0.138481985853772,-1.02956653943211,2.00485036588453,-0.244486032208496,-0.180023374018011,-0.0663366705351132,0.556194438548011,-1.39324072677411,0.658442777105634,0.343613007245214,0.0653642760602917,0.154364663291446
1.4,1.15741926194058,1.30531604255003,2.62514411566936,-0.184298882175185,-0.0882988942048313,-0.0238607204590367,-0.0936537557449855,-1.04697414983163,1.97873173444949,0.101478837086074,0.0110776602809582,0.0858762153696487,5.18419100776712,-0.00207785705183731,-0.00304967689426378,-0.00293234011963732,-0.0936537557449855,-1.04697414983163,1.97873173444949,0.101478837086074,0.0110776602809582,0.0858762153696487,0.853254423014887,-1.92098619749543,0.343083991511707,-0.167793192701429,-0.233687722035764,-0.123896657480364
1.5,1.14391096719233,1.21399805016927,2.72643184691313,-0.0571348908823548,-0.0263111745382027,0.0300397932390406,-0.0762411578422922,-1.19368385319266,1.90480770323002,-0.173293226576394,-0.170029533759023,-0.0737884720064566,5.17527631158697,-0.000319395948623169,-0.00193162046981477,0.00209048403126924,-0.0762411578422922,-1.19368385319266,1.90480770323002,-0.173293226576394,-0.170029533759023,-0.0737884720064566,0.28948932051001,-0.582623964249139,0.52008639144349,-0.0256810125835961,-0.148884208755648,0.0880516546156052
1.6,1.14706933461951,1.09437922554303,2.82603514584541,-0.174633346482102,-0.105926809447693,-0.0375882040881282,0.01812759411124,-1.38480248779195,1.87361188200011,-0.104474384514305,-0.127063271145541,0.0397856295422718,4.99418255234922,0.00413031739489101,0.000264795272041328,-0.000125771844671457,0.01812759411124,-1.38480248779195,1.87361188200011,-0.104474384514305,-0.127063271145541,0.0397856295422718,0.974044163761575,-1.77330572591247,-0.0286881128222056,0.332838132479374,0.021131979982831,-0.00555217585157063
1.7,1.1567039256707,0.906597590547593,2.87816793236154,-0.176372746281031,-0.116419952369071,-0.0144312262734752,-0.0201249533699304,-1.42680139902666,1.70571024072022,0.0773263121586908,-0.0668209849284392,-0.0263075397103483,5.03907729753898,0.000306841345516766,-0.00162058765976235,0.00189692839584406,-0.0201249533699304,-1.42680139902666,1.70571024072022,0.0773263121586908,-0.0668209849284392,-0.0263075397103483,1.1268509087882,-1.78475763393577,0.0446459733347204,0.0246754376594524,-0.124477202369955,0.0797205402232002
1.8,1.13709874745877,0.811097490170383,2.93709124904519,-0.0975900192818215,-0.096721880612742,-0.0382576137211443,0.0771555610828973,-1.60564766940091,1.74288881039807,-0.0761357017464996,-0.143619582366314,0.0218230014835638,4.89768615247126,0.00157362037533293,-0.000973259517212047,0.000737692605346787,0.0771555610828973,-1.60564766940091,1.74288881039807,-0.0761357017464996,-0.143619582366314,0.0218230014835638,0.904255770059331,-0.989724387770763,-0.106800232345973,0.12665542150969,-0.0742940229616045,0.0307919049508073
1.9,1.21936599630339,0.694359796663772,3.09971653784269,-0.120352899293349,-0.0926380760897927,0.0238445966885823,0.244785114531979,-1.71226106394729,1.5989580429827,0.018948474874749,-0.0871103034364363,0.0343855087505818,4.80277399947999,0.000954761675854664,-0.00190332162388563,-0.00278251756500974,0.244785114531979,-1.71226106394729,1.5989580429827,0.018948474874749,-0.0871103034364363,0.0343855087505818,0.909385496975796,-1.13190658556928,-0.314824495578868,0.0768708960081534,-0.146155525762528,-0.117820668299752
2,1.26909018111945,0.517495346354268,3.10141285690633,-0.100978533768415,-0.0946381920498019,0.0125372143720027,0.291845444570937,-1.82124355247203,1.46201020396609,-0.018441404559642,-0.146139827562369,-0.061924724226349,4.8288370220134,0.00213473461109996,-0.000544087447188807,0.00231286967476137,0.291845444570937,-1.82124355247203,1.46201020396609,-0.018441404559642,-0.146139827562369,-0.061924724226349,0.920106264305369,-0.96210162543955,-0.244518680935007,0.172312328538393,-0.0421370955554929,0.0971394134695852
2.1,1.28669639328378,0.347828559790538,3.12391790977963,-0.130677774930328,-0.143647276950966,-0.0459627688388628,0.362040052259426,-1.97215230362088,1.4569275853323,0.0208852419586892,-0.105980582108753,0.0384260923067623,4.73988794945835,0.00394002938611151,0.000100694562686743,0.000344316775007728,0.362040052259426,-1.97215230362088,1.4569275853323,0.0208852419586892,-0.105980582108753,0.0384260923067623,1.28731748271082,-1.29578960761337,-0.507855403983978,0.3173152708284,0.00843269894515316,0.0140065223786588
2.2,1.33359501951427,0.165415173495182,3.2055566651445,-0.113947573951583,-0.130003500483372,-0.00353613373048463,0.419310727243871,-2.03254163218246,1.3497068154676,0.114966588332969,-0.0823303461387766,-0.00180073180709216,4.69285606291091,0.00175470245697677,-0.00115372844145744,0.000242843639274894,0.419310727243871,-2.03254163218246,1.3497068154676,0.114966588332969,-0.0823303461387766,-0.00180073180709216,1.20506955729274,-1.0714342438556,-0.563842520701987,0.141451939851663,-0.0886667905626269,0.00968298043186215
2.3,1.40588782944386,0.0524546677594091,3.28106113122592,-0.0384321321365342,-0.0964453093569667,0.0136128799779354,0.592973886951274,-2.11599996729034,1.28424913020997,0.0587681835603188,-0.108609042335855,0.0223715810995939,4.58066200971524,0.000708501083268223,-0.00131710326511479,-0.00170862368520039,0.592973886951274,-2.11599996729034,1.28424913020997,0.0587681835603188,-0.108609042335855,0.0223715810995939,0.886256094053115,-0.339969921627153,-0.697984395473398,0.0570565183018579,-0.101213126039756,-0.0726560796476881
2.4,1.48358146062533,-0.138120614990069,3.30961703173435,-0.0746892201776033,-0.13058952135128,0.0074329504028384,0.700460065734546,-2.30000566003429,1.14365513751604,0.00568574482815168,-0.134600250825389,-0.0369951601908903,4.59764803564359,0.00559286708545376,0.0012015954024309,0.00139614312055688,0.700460065734546,-2.30000566003429,1.14365513751604,0.00568574482815168,-0.134600250825389,-0.0369951601908903,1.19912801090433,-0.677256862502609,-0.718416804852572,0.45122750262442,0.0922152568989077,0.0583220715283465
2.5,1.58140649083572,-0.35555706873966,3.31731780931185,-0.084074926007455,-0.13997010531999,-0.0115097775559975,0.781923388108766,-2.29018403193973,1.11245197589514,0.231188387591023,-0.0236686933368175,0.0403646978429614,4.54206048312898,0.00139654989363397,-0.00102401017290717,-0.00138967732072981,0.781923388108766,-2.29018403193973,1.11245197589514,0.231188387591023,-0.0236686933368175,0.0403646978429614,1.25401738456489,-0.777331977218915,-0.846493480450331,0.112331421085085,-0.0784668766150239,-0.0592758702705192
2.6,1.64979192140989,-0.497918832548233,3.37510373066706,0.0168947907974832,-0.0969829962547499,0.0230242849446056,0.884943677693255,-2.34744196105823,0.998839210434823,0.068724377209623,-0.113516257142175,-0.0230603615006231,4.47453946406242,0.00201335837322481,-0.000278533562879507,-5.27096090510769e-06,0.884943677693255,-2.34744196105823,0.998839210434823,0.068724377209623,-0.113516257142175,-0.0230603615006231,0.862714634798034,0.171092604069933,-0.904245431096484,0.162624714317741,-0.021649627619617,-0.000778466108048367
2.7,1.74706277682087,-0.661731865102902,3.39822690947958,-0.0365359840737975,-0.134797977604074,0.00305207283720691,1.05615377099584,-2.48974587637097,0.971502041665425,0.105728931952439,-0.0823186773125955,0.0117326557023244,4.42684311371619,0.00538216557804778,0.00154359701629282,-0.000748944843236409,1.05615377099584,-2.48974587637097,0.971502041665425,0.105728931952439,-0.0823186773125955,0.0117326557023244,1.19003544684931,-0.319775596641115,-1.04248501473417,0.433981310733364,0.11878791374761,-0.0321670150204313
2.8,1.87537383966425,-0.909383649508101,3.42203679506271,-0.0227859169170328,-0.13220844625309,0.00779563488793359,1.09338672091946,-2.44192808366024,0.80672889511009,0.258747682741447,-0.011876354489395,-0.0111601119001201,4.46501995137897,0.001975330431401,-0.000126587723814613,8.52704960574125e-05,1.09338672091946,-2.44192808366024,0.80672889511009,0.258747682741447,-0.011876354489395,-0.0111601119001201,1.17843507936732,-0.194280886897648,-0.960188794920436,0.159414615734321,-0.00981461006807267,0.0030525548534779
2.9,1.91270202825021,-1.07691364242401,3.37870946473379,0.0212957712511991,-0.138805719777141,-0.0344260260063377,1.17469803389069,-2.5419165362917,0.776312374781835,0.101301182526376,-0.106567398809688,-0.0208639910162357,4.45071480644353,0.00585758755825035,0.00249003945866587,0.00252987800516171,1.17469803389069,-2.5419165362917,0.776312374781835,0.101301182526376,-0.106567398809688,-0.0208639910162357,1.2371208082121,0.147054872413372,-0.996183793408735,0.472327145140648,0.191572647266504,0.106314934640491
3,2.05303378977075,-1.24695499192136,3.44289582496806,-0.00246524056536239,-0.151029513211103,-0.00846977280647727,1.34476542499075,-2.53164860334934,0.776186482700933,0.307572258039728,0.0324856896135109,0.0631093174002915,4.35087584031511,0.00292285854922411,0.000951903368396052,-0.00268173953550746,1.34476542499075,-2.53164860334934,0.776186482700933,0.307572258039728,0.0324856896135109,0.0631093174002915,1.30899817437777,-0.032539841237705,-1.20732906304335,0.235308458331542,0.0734041579864632,-0.113561103171035
3.1,2.2115836535254,-1.40739483090222,3.49927657793917,0.110925697096583,-0.0780412295667217,0.0442540728261576,1.46590017329695,-2.47924492885904,0.595025974437749,0.214556556927435,-0.00559501882381135,-0.0407227165199415,4.29090333918136,0.000988895402890983,-0.000374077813836799,-0.000255094288884,1.46590017329695,-2.47924492885904,0.595025974437749,0.214556556927435,-0.00559501882381135,-0.0407227165199415,0.62226484102202,0.978478637527412,-1.3068963379057,0.0803719427375681,-0.0289544159274432,-0.0110180315508668
3.2,2.33581850743144,-1.55680395239846,3.45724272462291,0.0809877103680542,-0.103330046147404,-0.00390738904614193,1.65006882388506,-2.55374433988482,0.645953435112758,0.133291739995325,-0.0710976833978006,0.00372046032812195,4.26302724189157,0.00625257785484544,0.00395353040786851,1.4102804012896e-06,1.65006882388506,-2.55374433988482,0.645953435112758,0.133291739995325,-0.0710976833978006,0.00372046032812195,0.879236596738724,0.686320768378986,-1.35721869026026,0.504203309009865,0.304124067789802,-9.36360918122525e-05
3.3,2.46678677701031,-1.85372302286737,3.45500720244016,-0.0034173895824243,-0.190304444949947,-0.0512740248384857,1.60010824818406,-2.53533469131911,0.431983384144959,0.321562267331239,0.0618616286484595,-0.0399483781457883,4.55697047705886,0.00719298686681779,0.00399790556312546,0.00460982215812538,1.60010824818406,-2.53533469131911,0.431983384144959,0.321562267331239,0.0618616286484595,-0.0399483781457883,1.72010148369818,-0.119460710607297,-0.860648082707627,0.580104026009069,0.307528822723314,0.194414210392855
3.4,2.58876379317883,-1.96300793027147,3.43438475218359,0.132528178477967,-0.0952844336852181,-0.0323061399845262,1.74655347621676,-2.36594981163511,0.574488659362614,0.422961012441815,0.10765518084634,0.100136620468565,4.17704068454817,-0.00111667056937708,-8.75372342186826e-05,-0.00316404150285611,1.74655347621676,-2.36594981163511,0.574488659362614,0.422961012441815,0.10765518084634,0.100136620468565,0.823086116027711,1.07788941348013,-1.56673855932057,-0.0906820379743479,-0.00677823328120365,-0.133440077848975
3.5,2.72533797464782,-2.03288579005262,3.52721253213826,0.195578600171304,-0.0735018849248014,0.0311133581035143,1.92416535727539,-2.43176303327417,0.323997566567168,0.081956693378506,-0.0355455583963581,-0.0714491680302916,4.22842854304983,0.00576936935437593,0.00420286446393651,0.00206650761502008,1.92416535727539,-2.43176303327417,0.323997566567168,0.081956693378506,-0.0355455583963581,-0.0714491680302916,0.557775568357911,1.66161168273525,-1.5367681764709,0.466219898978756,0.32359529258516,0.0874454508226974
3.6,2.95429834493646,-2.2520091047527,3.46165030555663,0.0804556904773351,-0.122695068732736,-0.0258580165516141,2.05694699160676,-2.28807935890047,0.447378169055654,0.391150149742829,0.144629619431576,0.0536027620285691,4.26654200042647,0.00418106601138812,0.00380723299773108,-0.000427346735250209,2.05694699160676,-2.28807935890047,0.447378169055654,0.391150149742829,0.144629619431576,0.0536027620285691,1.05834751770315,0.658651203364354,-1.36845975608179,0.337028827903389,0.292809656113653,-0.0177377402680697
3.7,3.13028494526238,-2.39329368760263,3.53410699004038,0.206473976688659,-0.0511707716670519,0.00351099806047612,2.05879899643085,-2.1391772337944,0.144824719299014,0.333267047930699,0.134959664555935,-0.0133652498366207,4.21746810176079,0.000254126929200502,0.00129282591514965,0.000865283407386096,2.05879899643085,-2.1391772337944,0.144824719299014,0.333267047930699,0.134959664555935,-0.0133652498366207,0.416196171631936,1.73071863223373,-1.56502925898236,0.0211265361164242,0.0998399782682803,0.0369459758050302
3.8,3.25565344612766,-2.43789498637924,3.41808527904945,0.2163420109998,-0.0411763532856856,-0.00981178678816112,2.2141615389727,-2.04480805984793,0.284013601230717,0.184680080479615,0.0465496149839649,0.0238491492089822,4.1127826587519,0.00422094769834597,0.00477367540610165,-4.30153142240743e-05,2.2141615389727,-2.04480805984793,0.284013601230717,0.184680080479615,0.0465496149839649,0.0238491492089822,0.348018313132921,1.76235647413646,-1.78298886855668,0.340802988584197,0.367566191014308,-0.00128421838076976
3.9,3.51641622379171,-2.54955347312064,3.54433570281962,0.197013320149103,-0.0417443591196954,0.0385913076893372,2.30009025170624,-1.83594482925476,0.115457419373889,0.386067700224955,0.229030476905892,0.0302593141926494,4.0868769913276,-0.000203217656188948,0.00187234419774458,-0.00247443540774643,2.30009025170624,-1.83594482925476,0.115457419373889,0.386067700224955,0.229030476905892,0.0302593141926494,0.272532910392928,1.61165601567854,-1.80134562683271,-0.0156896998413029,0.144756473006971,-0.103822080273871
4,3.68424488306424,-2.62054855494941,3.47746006836688,0.286733788900518,0.0293218172127869,0.0226975878338213,2.31181289339611,-1.67899464837509,-0.0560877101734938,0.194915970809131,0.112245333352554,-0.0388660051810585,4.0783844603018,0.000859705873755716,0.00217243023325831,0.00122508103981103,2.31181289339611,-1.67899464837509,-0.0560877101734938,0.194915970809131,0.112245333352554,-0.0388660051810585,-0.281671299344734,2.30110455918564,-1.98961264955852,0.0702524646965121,0.168530675970379,0.0523093927601871
4.1,3.83222260658961,-2.68698697113503,3.39600728557048,0.212703305271719,-0.0207761534107579,-0.0118889818815059,2.31384230442291,-1.45827946390897,0.0475238329240093,0.233181007923395,0.118491543463431,0.0331393394262303,4.00234001014763,0.00301969737399559,0.00519657762487225,-0.000239521616800669,2.31384230442291,-1.45827946390897,0.0475238329240093,0.233181007923395,0.118491543463431,0.0331393394262303,0.182625039587143,1.68776047966195,-1.98740357135042,0.243977497553769,0.400581617311436,-0.00948633992553962
4.2,3.98332769145479,-2.75214070420641,3.45597325955312,0.216408580013753,-0.0323553260478126,-0.00731448958502588,2.25739364453967,-1.32570602268051,-0.37222696143994,0.313033941423928,0.239859708546405,-0.0170898641804601,4.17551975599366,0.000644162601701399,0.00250032502613016,0.00184214919025165,2.25739364453967,-1.32570602268051,-0.37222696143994,0.313033941423928,0.239859708546405,-0.0170898641804601,0.276961009482,1.79118541563385,-1.65801813441538,0.052650616570817,0.193950374489967,0.0783449680678028
4.3,4.11363827554543,-2.76567886955998,3.25662081921552,0.285408515179168,0.0459419860962848,-0.0132953761840443,2.31396005024841,-1.08835044362492,-0.29888671309213,0.235644226947148,0.154666073151672,0.0437541777876974,4.03892647632726,-0.000799016589782302,0.00217599251903236,-0.00104740476105326,2.31396005024841,-1.08835044362492,-0.29888671309213,0.235644226947148,0.154666073151672,0.0437541777876974,-0.325706182608255,2.27884683868242,-2.06710126030649,-0.0640147798941946,0.168818861969133,-0.0436577358354663
4.4,4.28808524694872,-2.75371299878926,3.27565280199964,0.272498095764658,0.0233059412103049,0.0200737290151093,2.3189190126516,-0.85459312136174,-0.366714878168656,0.174299761184428,0.161026938081936,-0.0156160199249803,3.95529687557256,0.000623283388474033,0.00390352135646878,0.000130280007935443,2.3189190126516,-0.85459312136174,-0.366714878168656,0.174299761184428,0.161026938081936,-0.0156160199249803,-0.22024421325865,2.12505022422272,-2.19336376563031,0.0508452588932987,0.302938912465853,0.00596693038541718
4.5,4.45183506515745,-2.75844499139359,3.25519362747529,0.245911017709676,0.0235629335475544,-0.0180847813779053,2.26951956508108,-0.670946128202215,-0.640979735422268,0.225365372675354,0.226384616571647,-0.00158154785390029,4.05615679241569,-1.85782012022049e-05,0.00252663378503519,0.00123031431118099,2.26951956508108,-0.670946128202215,-0.640979735422268,0.225365372675354,0.226384616571647,-0.00158154785390029,-0.149638873117504,1.9778913874104,-1.94392184338982,-0.00112857230198429,0.196765604105293,0.0522842819360937
4.6,4.58678052100053,-2.73627130655002,3.10903250027099,0.282820023560742,0.0687268994177236,-0.00955573499254854,2.25863209509576,-0.435472365033817,-0.714774383195526,0.202974423359931,0.187313560221349,0.0274722076759108,4.01800977554562,-0.00180297399574255,0.00197732691480474,-0.000701032350791043,2.25863209509576,-0.435472365033817,-0.714774383195526,0.202974423359931,0.187313560221349,0.0274722076759108,-0.508478782010743,2.24753117467641,-2.11145057997137,-0.145210410714981,0.154641754547727,-0.0293696305296561
4.7,4.74656242333054,-2.66452582516284,3.0439449742412,0.301115935951379,0.0765151340673323,0.0182160539490994,2.23734308689054,-0.169054071145932,-0.777222189569101,0.133535687671713,0.188989958396072,-0.00276385065683585,3.93527688013802,-0.0019559652733177,0.00215164220318015,-0.000713585644522807,2.23734308689054,-0.169054071145932,-0.777222189569101,0.133535687671713,0.188989958396072,-0.00276385065683585,-0.616983404343476,2.3234440724503,-2.31556502367552,-0.157676151753258,0.169045209918134,-0.0300530197010887
4.8,4.92442498763455,-2.56603595190538,3.02487428672449,0.303272905147733,0.1111850175382,0.0271134275460357,2.21170147571897,0.0952658538143281,-0.957810781679694,0.138487042127727,0.220324539428562,0.0135758078585993,3.91029804943563,-0.00344924280108373,0.000365041583833804,-0.00197544836151313,2.21170147571897,0.0952658538143281,-0.957810781679694,0.138487042127727,0.220324539428562,0.0135758078585993,-0.891156080376476,2.31227514529338,-2.39238934463752,-0.278287517630371,0.0316611458927112,-0.083468500401772
4.9,4.98094840516839,-2.55308488956085,2.83707187629034,0.237176914099621,0.061224015599038,-0.0421708386248901,1.98773756281235,0.247981670483134,-1.15503011811317,0.00278846180707393,0.0893850659122947,-0.0804769042578043,4.02871734221752,0.00261380037293464,0.00467660836028359,0.00581323690037321,1.98773756281235,0.247981670483134,-1.15503011811317,0.00278846180707393,0.0893850659122947,-0.0804769042578043,-0.398959932316052,1.91169001593334,-1.99280574954647,0.210412210214605,0.36390276178746,0.244952483434877
5,5.07444743794354,-2.45435386507694,2.73124526808921,0.209651906615939,0.0411943941325193,-0.0511432643003828,1.99313368162329,0.477862605028685,-1.28994832356317,0.27911216336904,0.292985814810552,0.117672160149138,4.06415791838671,-0.0044978869778245,0.000781592825352851,-0.00322682072231634,1.99313368162329,0.477862605028685,-1.28994832356317,0.27911216336904,0.292985814810552,0.117672160149138,-0.240509111774164,1.7061865017799,-1.86641130655424,-0.36290605475832,0.0616397177496445,-0.136570501334313
5.1,5.241172015869,-2.29450399401759,2.59823514402602,0.378134670440563,0.174915021470571,0.0646250885601872,2.03822860504203,0.71770619186626,-1.38028422484625,-9.75171346308534e-05,0.195276385981734,-0.0456666612977444,4.03750824391617,-0.00590896604464126,-0.00205220975607999,-0.000950508438327938,2.03822860504203,0.71770619186626,-1.38028422484625,-9.75171346308534e-05,0.195276385981734,-0.0456666612977444,-1.49577607766117,2.89063236076341,-2.41995333173275,-0.477559105303733,-0.152073697341146,-0.040855994382912
5.2,5.37467667642708,-2.17114049562476,2.45354644996982,0.257991660788941,0.143781189884164,-0.0129713015329602,1.79970264013624,1.12398162195869,-1.28471311929302,-0.0778949369906667,0.0571068741608772,-0.00748659396724919,3.82371604985864,-0.00123292872521073,0.00301729953902232,0.000892533179914581,1.79970264013624,1.12398162195869,-1.28471311929302,-0.0778949369906667,0.0571068741608772,-0.00748659396724919,-1.03410945573354,1.96473833155574,-2.49196483734437,-0.100371184661658,0.236274184505112,0.036708451814271
5.3,5.4190680205689,-1.97490150194573,2.53180582748834,0.203079026140442,0.0770515419964496,-0.00358909028207934,1.72547076424359,1.17959119160106,-1.80719970331409,0.0880452248515201,0.252231848993946,0.0199637996722489,4.05234938357978,-0.00380077099236286,0.000214897028942959,-0.000860786254762352,1.72547076424359,1.17959119160106,-1.80719970331409,0.0880452248515201,0.252231848993946,0.0199637996722489,-0.605170918541072,1.63678710905114,-1.8954034704608,-0.307450054645523,0.0203652360353421,-0.0373107180893975
5.4,5.52398659381859,-1.86493079407205,2.16196231434677,0.288193292382189,0.182009116932493,0.0133243200286573,1.68788131446768,1.38873765466201,-1.78003891068964,-0.0201445225245386,0.156907810957044,-0.00852446618551725,4.12963305353101,-0.00579783647247167,-0.00169681897029607,-0.000246575126153187,1.68788131446768,1.38873765466201,-1.78003891068964,-0.0201445225245386,0.156907810957044,-0.00852446618551725,-1.46447130743592,2.32814684004817,-2.02215480969646,-0.468956898125699,-0.125897750091406,-0.0116768291988724
5.5,5.58245915611892,-1.72466170406918,1.99209383351481,0.218359237452202,0.127476949395839,-0.0238510002928508,1.41884884957483,1.68505461694264,-1.74100594979908,-0.144363846694288,0.0544120880082584,-0.0178199604935618,4.00730634773794,-0.0014928376225689,0.00243357793517812,0.00194044134668619,1.41884884957483,1.68505461694264,-1.74100594979908,-0.144363846694288,0.0544120880082584,-0.0178199604935618,-0.95302972540476,1.7594194072975,-2.0491885507891,-0.121854096458076,0.191501642668282,0.0804474935520656
5.6,5.59890265520353,-1.51121914764342,1.98813015047942,0.15807258706657,0.089534390547701,-0.022447874286781,1.37399218241783,1.78593215228267,-2.06390169165844,0.0211571496330674,0.222847054989224,0.0318296833757237,4.12897149485138,-0.00403201217378292,-0.00053057034045832,-0.000471196992192977,1.37399218241783,1.78593215228267,-2.06390169165844,0.0211571496330674,0.222847054989224,0.0318296833757237,-0.699814858352709,1.31596464848172,-1.68767775638297,-0.326461410289142,-0.0372689009029691,-0.0213124834887927
5.7,5.69813558662433,-1.3309273830164,1.7057360640939,0.251305929915731,0.194141627316703,0.0178915686869029,1.35411104182067,1.94937932924568,-2.04418790856426,-0.0780410808293829,0.128713617182173,0.000724598224397369,4.2107230810058,-0.006720358867947,-0.00239942895932776,-0.000861018999372334,1.35411104182067,1.94937932924568,-2.04418790856426,-0.0780410808293829,0.128713617182173,0.000724598224397369,-1.610881602127,2.06566421441419,-1.80632289026616,-0.543921945528734,-0.179919821561599,-0.0379903175351634
5.8,5.80104861719255,-1.11075608219533,1.57285066526212,0.230725755772434,0.187914021098478,0.0261494585896697,1.13100661390192,2.29537582211124,-1.99622840002686,-0.193171474638838,0.0659434822190438,0.00979793936355348,4.13185313856679,-0.00560682096926774,-0.00116074573700607,-0.00169801686647984,1.13100661390192,2.29537582211124,-1.99622840002686,-0.193171474638838,0.0659434822190438,0.00979793936355348,-1.55173246227824,1.84983837290983,-1.90689518009795,-0.454282840991471,-0.0847045053257948,-0.0733993696075775
5.9,5.79583209424514,-0.857343338400241,1.5502156160422,0.157679742639234,0.152335499001751,0.0175983864727707,0.959499071215027,2.43128623497098,-2.21580535103154,-0.183656453934571,0.0976507056504052,-0.0234928085515409,4.15700199562038,-0.00422282518882316,-0.00115900857923887,0.000271949029884872,0.959499071215027,2.43128623497098,-2.21580535103154,-0.183656453934571,0.0976507056504052,-0.0234928085515409,-1.26875477540297,1.28339626851385,-1.69422414650181,-0.342905538906459,-0.084488642184002,0.00974825351832315
6,5.77531456374204,-0.673557512622055,1.296024137208,0.125351235855291,0.148536430155238,-0.0197814300565912,0.810892443453519,2.47608295859223,-2.31102720464432,-0.163127151489131,0.0746334392494955,-0.00130909716069429,4.26117709124462,-0.00397241051725843,-0.00104716146405438,0.000987569411486189,0.810892443453519,2.47608295859223,-2.31102720464432,-0.163127151489131,0.0746334392494955,-0.00130909716069429,-1.23001408360315,1.09003528303268,-1.44761940308421,-0.322437040868215,-0.0768293479040912,0.0399437883718273
6.1,5.80821407063936,-0.457940983600652,1.09936622104139,0.150555008685266,0.169228738600463,0.0163088334116456,0.72196987760933,2.622285577812,-2.26102414355548,-0.148572906908911,0.0957781369523501,0.0377877605432543,4.28428630008151,-0.00668953519202879,-0.00298083936446264,-0.00257529133869817,0.72196987760933,2.622285577812,-2.26102414355548,-0.148572906908911,0.0957781369523501,0.0377877605432543,-1.44758168006855,1.26173399258654,-1.45937301660852,-0.541616283882293,-0.225786050791656,-0.11036959955453
6.2,5.80068692953201,-0.252208329479306,0.948147035160201,0.127581998486235,0.160548206727567,0.0102998367792129,0.50439948996323,2.74529012089336,-2.35305624152828,-0.304261542382574,-0.00750540994990676,-0.060836227295616,4.34607312180992,-0.00318240245172098,-0.000822191026305927,0.00235494293200558,0.50439948996323,2.74529012089336,-2.35305624152828,-0.304261542382574,-0.00750540994990676,-0.060836227295616,-1.38954562360843,1.09170144512854,-1.29937386351102,-0.259578214005771,-0.0588532526949385,0.0976568935082578
6.3,5.75140248977066,-0.038379907954889,0.782517350123648,0.0357432838021139,0.11230812742363,-0.0386226359265369,0.345389834423901,2.8292887836384,-2.36997359619184,-0.181594994449119,0.0697245335934679,0.0405476855205063,4.31344418661119,-0.00343873965922501,-0.00134685050391037,-0.000132421065181386,0.345389834423901,2.8292887836384,-2.36997359619184,-0.181594994449119,0.0697245335934679,0.0405476855205063,-0.953592189954539,0.345366314679938,-1.24293591432971,-0.279125948645488,-0.101147415463687,-0.0071256547210565
6.4,5.72553854985034,0.18765406857497,0.626457673235854,0.0804015726514905,0.15022302248581,0.0105163366962996,0.312898269416039,2.76664382188974,-2.39295934762012,-0.20346225136076,0.0433305680469597,-0.00784278667231747,4.36462541031891,-0.00492011810112686,-0.00249959711063616,-0.000154136597805342,0.312898269416039,2.76664382188974,-2.39295934762012,-0.20346225136076,0.0433305680469597,-0.00784278667231747,-1.30948831299208,0.687356810599598,-1.20694235386827,-0.399418423700519,-0.189031145926991,-0.00799166174112738
6.5,5.72664302351216,0.361344633347813,0.416086504948099,0.0559635470134475,0.141206092485069,-0.0140688732609217,0.11686318209907,2.88743386644593,-2.44889315189265,-0.284206230627048,-0.0113681838192241,-0.0113399389602607,4.46569152708244,-0.00313834067219064,-0.00140973631527491,0.00116940938076797,0.11686318209907,2.88743386644593,-2.44889315189265,-0.284206230627048,-0.0113681838192241,-0.0113399389602607,-1.24785854494393,0.517177577874776,-0.981354596260106,-0.255627468185217,-0.105610905737536,0.0479399089218359
6.6,5.67983519669494,0.596817366648153,0.288389063214236,0.0137733484590167,0.125534324805751,-0.00802351118867009,0.00132377378717941,2.93257214881259,-2.37987326631104,-0.219156402192871,0.032159966018603,0.0253556005319523,4.39495587042068,-0.0040340248646958,-0.00235222106790436,-0.000855392136915987,0.00132377378717941,2.93257214881259,-2.37987326631104,-0.219156402192871,0.032159966018603,0.0253556005319523,-1.09942862320932,0.129888053617757,-1.09008404812431,-0.327629517061457,-0.178650609188841,-0.0373275827890485
6.7,5.65534627193527,0.826811672006273,0.17645842257747,0.0421400441639347,0.159299919696257,0.0223404812732789,-0.0624551914867453,2.90083130517046,-2.44508366106806,-0.26023710537957,-0.00318647787120332,-0.00699869028796008,4.47499329647465,-0.00467092020266961,-0.00319445225551289,-0.000725472901139504,-0.0624551914867453,2.90083130517046,-2.44508366106806,-0.26023710537957,-0.00318647787120332,-0.00699869028796008,-1.42651804744214,0.34526092353795,-0.981177815304481,-0.379519072515583,-0.243231288338696,-0.0317384210449552
6.8,5.59290772759177,0.982282268001792,-0.0458623750713758,-0.0213956103908484,0.114963986733415,-0.0223917629348118,-0.324171919440623,2.92838757760909,-2.48097534613744,-0.329868414410533,-0.0706748065245654,-0.0315948119052164,4.51978308718767,-0.00102459265853785,-0.000703446413315468,0.00256082401213549,-0.324171919440623,2.92838757760909,-2.48097534613744,-0.329868414410533,-0.0706748065245654,-0.0315948119052164,-1.04076970413115,-0.170132208774394,-0.832160055146277,-0.0853203203705539,-0.0520487229336893,0.10707394111987
6.9,5.51413213332319,1.21289555545402,-0.155188096223787,-0.0427895736946827,0.109486736819926,-0.00590435270743455,-0.322823041951708,2.85787024430853,-2.38508382836817,-0.165000846958482,0.0458258880575783,0.0653887590051319,4.42447697901097,-0.00464634538122709,-0.00336008768785699,-0.0028184421757176,-0.322823041951708,2.85787024430853,-2.38508382836817,-0.165000846958482,0.0458258880575783,0.0653887590051319,-0.968241673760012,-0.372817123487769,-1.02208206656317,-0.376717671155868,-0.257182813694298,-0.119686378034803
7,5.50560004103542,1.40366187284643,-0.281718123948483,0.0306265371448567,0.173165944241036,0.0518001685549545,-0.380653441430728,2.80217390183089,-2.48998661351226,-0.319528515728707,-0.0620374058392102,-0.0416230760674368,4.59691825751193,-0.00404088217413576,-0.00362926870849354,-0.000384540749785543,-0.380653441430728,2.80217390183089,-2.48998661351226,-0.319528515728707,-0.0620374058392102,-0.0416230760674368,-1.5958247517152,0.199171485180841,-0.757911625139206,-0.329189620593588,-0.277349414793685,-0.0169130853903492
7.1,5.43793338013274,1.55403281664694,-0.497678099933873,-0.0717671281003344,0.10972215050286,-0.0156462229876443,-0.702676913160036,2.91202463726412,-2.47705399020072,-0.325150129228796,-0.0947966125208547,-0.00674572062056508,4.61474524079378,-0.00113319246471688,-0.00136445117666019,0.00114887112570748,-0.702676913160036,2.91202463726412,-2.47705399020072,-0.325150129228796,-0.0947966125208547,-0.00674572062056508,-1.01827821690654,-0.645953083340863,-0.659625765204382,-0.093828213678045,-0.103936511366701,0.0479822304922179
7.2,5.29490166005445,1.78767773820451,-0.581964391857282,-0.0825867401526323,0.0997196361520056,0.0109660978278244,-0.683817379576621,2.68079903555822,-2.35590032458308,-0.203939635932029,-0.0079388836406382,0.0366718526213799,4.45270896446497,-0.00339084278381136,-0.00309420207220293,-0.00219164066424395,-0.683817379576621,2.68079903555822,-2.35590032458308,-0.203939635932029,-0.0079388836406382,0.0366718526213799,-0.875443199458037,-0.744278422720856,-0.979025120469327,-0.275669357610799,-0.237397111978991,-0.0927755196123745
7.3,5.23696219698076,1.88166225574256,-0.736519927625087,-0.0596973949783409,0.120685979195168,0.0183541856998853,-0.759247494793591,2.55948639254077,-2.56675615326506,-0.321018871520217,-0.101037962019063,-0.0502590245009571,4.6424699505853,-0.0009513278319281,-0.00173982434607806,0.00160051606174382,-0.759247494793591,2.55948639254077,-2.56675615326506,-0.321018871520217,-0.101037962019063,-0.0502590245009571,-1.10549776137654,-0.574343668006486,-0.609015649455646,-0.0795788253085912,-0.1333157171875,0.0673387950870905
7.4,5.20275469015058,2.05668939169363,-0.940857955666822,-0.0880771962936871,0.115929819834608,0.0167529193719047,-0.862130136425405,2.60591423906328,-2.41234618208246,-0.193455899096955,-0.0175797786708537,0.0657424478380314,4.62473505379407,-0.00406853968564191,-0.00397510282739633,-0.0037838903269283,-0.862130136425405,2.60591423906328,-2.41234618208246,-0.193455899096955,-0.0175797786708537,0.0657424478380314,-1.05196260529564,-0.831353774776178,-0.658228431096447,-0.329975744204379,-0.305729776854154,-0.15968236911218
7.5,5.0870484374177,2.21733111869835,-1.03119952027575,-0.066827197079782,0.127547305255647,0.0487140426216739,-0.995335543326494,2.42526077628858,-2.45430844995249,-0.353759499304488,-0.143223923704148,-0.0730331062476613,4.64810613404549,-0.000765142765231134,-0.00194266294304622,0.00132980942668539,-0.995335543326494,2.42526077628858,-2.45430844995249,-0.353759499304488,-0.143223923704148,-0.0730331062476613,-1.1482267970207,-0.677493872260777,-0.609883706764466,-0.0646594478596219,-0.149656013535242,0.0561810336505321
7.6,4.91619568464253,2.26091333892196,-1.24986128948537,-0.206247460744979,0.0154120474995252,-0.0639876699878914,-1.22014527633802,2.30760296953597,-2.5488318160959,-0.269433012290585,-0.101967392475627,-0.0060429770847653,4.67885874327158,0.00338642967913415,0.000514259189397879,0.00335417691755537,-1.22014527633802,2.30760296953597,-2.5488318160959,-0.269433012290585,-0.101967392475627,-0.0060429770847653,-0.263409724178304,-1.90340330658633,-0.651695149884983,0.271497844260846,0.0391127410866542,0.141753530209456
7.7,4.79751879268824,2.41164467871952,-1.39664230881197,-0.153067628506324,0.0608221505747959,-0.000264957838970308,-0.984064239741282,1.83734105952443,-2.33398815687292,-0.0561911654850328,0.0140386323131376,0.073197907775383,4.46232980367044,-0.00245440176963514,-0.00249920844103953,-0.00343246591815299,-0.984064239741282,1.83734105952443,-2.33398815687292,-0.0561911654850328,0.0140386323131376,0.073197907775383,-0.536500196698808,-1.36060616480006,-1.00599707461703,-0.199357690083381,-0.192893368097769,-0.144499609837224
7.8,4.76901755088058,2.34568938269442,-1.53171611711099,-0.105732813578487,0.0763286107653247,0.00507992009109766,-1.15648772098466,1.80565978776178,-2.71873800571553,-0.331555276677339,-0.143615226104667,-0.106193749404339,4.80750269264341,0.00291633532078168,0.000258710182129571,0.00482581633530202,-1.15648772098466,1.80565978776178,-2.71873800571553,-0.331555276677339,-0.143615226104667,-0.106193749404339,-0.72392897058586,-1.01841904849149,-0.276528541695283,0.232671984748778,0.0186829498960478,0.203978226130663
7.9,4.69374778924388,2.51069170374274,-1.77710217637785,-0.182291591589105,0.0521005742632322,-0.0251344099598457,-1.19360719148375,1.87876767669764,-2.401058577389,-0.0602558582603054,0.0205215822300939,0.122777642780441,4.69118865554834,-0.00228137912676994,-0.00266838545264744,-0.00459608449508089,-1.19360719148375,1.87876767669764,-2.401058577389,-0.0602558582603054,0.0205215822300939,0.122777642780441,-0.523104472455073,-1.68825848873627,-0.595600996598362,-0.184848757672557,-0.205902482626289,-0.193468464830831
8,4.58894750444238,2.64035620229855,-1.80166385793454,-0.0875636627484207,0.112350591669096,0.0673802534265298,-1.2170042510844,1.50602297715015,-2.48961631976711,-0.288933399916903,-0.125973899843407,-0.0953778812132216,4.70838008268467,0.000742693262378014,-0.00142903338069142,0.00139328528439373,-1.2170042510844,1.50602297715015,-2.48961631976711,-0.288933399916903,-0.125973899843407,-0.0953778812132216,-0.993876327820308,-0.892454830100917,-0.488460093240231,0.0573313497281504,-0.111898136528346,0.0592778272070849
8.1,4.50359477517069,2.61911377127467,-1.98131513840871,-0.19432440404843,0.047906519803013,-0.0264221316234335,-1.41974768609565,1.64698680882383,-2.60781421657517,-0.159777105858004,-0.0679304618501954,0.037563812795896,4.86793097391357,0.000885877967662629,-0.000835502964568891,-0.000500209690727239,-1.41974768609565,1.64698680882383,-2.60781421657517,-0.159777105858004,-0.0679304618501954,0.037563812795896,-0.506966581013035,-1.86728914194617,-0.26834270091121,0.0702870632551814,-0.0654638834452037,-0.0205480837847786
8.2,4.34353435584626,2.77849829288389,-2.16215060667785,-0.146861257172507,0.0739687217120947,0.0365650742854972,-1.35178169923697,1.18633756252418,-2.36137256573002,-0.144417147192477,-0.0559227516667131,0.000478237313791614,4.686827772077,-0.000109533456467286,-0.00167941806488424,-0.0017253912325978,-1.35178169923697,1.18633756252418,-2.36137256573002,-0.144417147192477,-0.0559227516667131,0.000478237313791614,-0.634665621732007,-1.39581803262978,-0.562605240997552,-0.0103872903329635,-0.13105061180383,-0.0722128715244238
8.3,4.29648473606994,2.71540848905748,-2.20168815363024,-0.133314417346826,0.09226670828367,0.0384052950641571,-1.41108131827696,1.22304468569732,-2.60651022654686,-0.171162460389239,-0.0793975390934861,-0.0150658118401617,4.88877441245934,-0.000280810045118342,-0.00172332107661992,-0.00106500347130513,-1.41108131827696,1.22304468569732,-2.60651022654686,-0.171162460389239,-0.0793975390934861,-0.0150658118401617,-0.842310409316006,-1.33295470191042,-0.16042975253916,-0.0241432420328247,-0.134597116157646,-0.0443229391010962
8.4,4.13697539753579,2.76613445390913,-2.49377338573291,-0.193456387636021,0.0376936628854566,-0.00812319679477133,-1.62189365867975,1.03460128398694,-2.48847973704228,-0.212580996340085,-0.118696376053063,-0.0362065478831891,4.90829138585624,0.00358733971117706,0.000459013076285751,0.00211424182298391,-1.62189365867975,1.03460128398694,-2.48847973704228,-0.212580996340085,-0.118696376053063,-0.0362065478831891,-0.378352839277788,-1.88424592083407,-0.183382538362032,0.288056979563663,0.0333414604741169,0.0898407493484817
8.5,3.95968206007529,2.7719438845907,-2.5819900240437,-0.218830704268066,0.0165987049886225,-0.0164432794135936,-1.53169687323991,0.690654577190421,-2.42591297652758,-0.0401612272108248,-0.0281679461872935,0.0381330075349657,4.82052145562997,0.00171066241319157,-0.000204323714400668,-0.00103008708785771,-1.53169687323991,0.690654577190421,-2.42591297652758,-0.0401612272108248,-0.0281679461872935,0.0381330075349657,-0.190597708375018,-2.09010685462942,-0.400173526225432,0.13718620242685,-0.017205808650926,-0.042829333723858
8.6,3.9079594695647,2.71242937115135,-2.70090631433428,-0.138546101072163,0.0689761463992689,0.0330669863065409,-1.47369002337323,0.452699083711606,-2.51404895117564,-0.0960208596794198,-0.0471954644179204,-0.01823520559387,4.91261317248756,0.000792043612547239,-0.000993403186486972,-0.000698847573628907,-1.47369002337323,0.452699083711606,-2.51404895117564,-0.0960208596794198,-0.0471954644179204,-0.01823520559387,-0.62545331764712,-1.37832768770868,-0.102060277137424,0.0627562342191919,-0.0786714201865776,-0.0288572814693915
8.7,3.83812047431698,2.66608614375353,-2.88234391283682,-0.159827426438182,0.0635648414255098,0.0156037085542419,-1.64073383051936,0.535939226480272,-2.4961708837409,-0.123945506444142,-0.0740150838563347,-0.0069817447018573,5.01431370197571,0.00145711038128683,-0.000627856886809448,-0.0004028347820632,-1.64073383051936,0.535939226480272,-2.4961708837409,-0.123945506444142,-0.0740150838563347,-0.0069817447018573,-0.603940098895681,-1.6056531261939,0.0708148450709771,0.116605971903718,-0.0502804576079303,-0.016368011729348
8.8,3.6234373506313,2.68983010530837,-3.05849209436148,-0.217782465369057,0.00857173786470196,-0.0204972257938928,-1.76471039247517,0.24125049477734,-2.43705714364684,-0.124878435085812,-0.0952418926713328,-0.0347295023735614,5.02463049124654,0.00496632988209969,0.00132699666426794,0.00261479243279591,-1.76471039247517,0.24125049477734,-2.43705714364684,-0.124878435085812,-0.0952418926713328,-0.0347295023735614,-0.128588606895936,-2.1691137138044,0.00152673955588867,0.399730002378404,0.100136107681916,0.110945578061827
8.9,3.47597105766793,2.61281239376494,-3.16566447953826,-0.214485831738307,0.00343407940040311,-0.0242904576226423,-1.62895503780773,-0.121720219744645,-2.38797645750014,0.0448799587771928,-0.00455051620858168,0.0433828601675073,4.99863336624263,0.00230968328871193,0.00040993857200983,-0.000904877071628575,-1.62895503780773,-0.121720219744645,-2.38797645750014,0.0448799587771928,-0.00455051620858168,0.0433828601675073,-0.0852166025815294,-2.12642648239711,-0.0418686195331439,0.185828320478627,0.0302723356488404,-0.0375944136906436
9,3.43278426536932,2.48493559593909,-3.28719124424818,-0.133636169304324,0.0543268466665563,0.0234748087006385,-1.60612641482064,-0.292883044404845,-2.42237739716216,-0.04291666199403,-0.0318785845939417,-0.0232996998927079,5.06475396340048,0.00179827786772792,-0.000236659124968523,-1.01295746881228e-05,-1.60612641482064,-0.292883044404845,-2.42237739716216,-0.04291666199403,-0.0318785845939417,-0.0232996998927079,-0.513299553016007,-1.36206690194272,0.214381684803772,0.144253598638705,-0.0203988820441406,0.00014552204739414
9.1,3.28103280958921,2.35209005245096,-3.49698500665456,-0.218819632913792,-0.00900805598638329,-0.0525792627227517,-1.85308339043844,-0.288164650779723,-2.44126232958866,-0.0962648135071253,-0.0959715006565147,-0.0443279219677151,5.22630123446497,0.00685598034124094,0.00229418148326791,0.0045988712734279,-1.85308339043844,-0.288164650779723,-2.44126232958866,-0.0962648135071253,-0.0959715006565147,-0.0443279219677151,-0.0274646005028797,-2.27072004397645,0.392939505411317,0.552333527432725,0.174765516565522,0.194607058886595
9.2,3.14393306013146,2.4239254015375,-3.57736947330077,-0.175840159912561,0.026731478831969,0.00212312300484651,-1.61079051600838,-0.660470423359492,-2.17865537378363,0.192505499800301,0.0684433564763825,0.120149332863564,5.02933252179356,-0.00133194767353982,-0.00125166172086099,-0.00578230321787867,-1.61079051600838,-0.660470423359492,-2.17865537378363,0.192505499800301,0.0684433564763825,0.120149332863564,-0.260968788354998,-1.76017466674014,0.0900213582169815,-0.107627039015029,-0.0970262453894399,-0.243461084223376
9.3,3.08180991340568,2.1865523558136,-3.64848150186483,-0.0914101521685032,0.0593214412848423,0.038007440228343,-1.76497070545635,-0.739149034485465,-2.43784194795384,-0.179534344086339,-0.1065260032973,-0.145562027973751,5.26109975365532,0.00500966566736421,0.00123828376555522,0.00509680344395545,-1.76497070545635,-0.739149034485465,-2.43784194795384,-0.179534344086339,-0.1065260032973,-0.145562027973751,-0.584275654524891,-0.983408619849612,0.649838044519765,0.402909476864773,0.0919727604458828,0.21557858101336
9.4,2.95257481310144,2.16653456328951,-3.85422938517145,-0.208341318042172,0.0162206634290103,-0.038425794091814,-1.8437512107318,-0.559437135484593,-2.1508199381369,0.13015416704361,0.0349261995923751,0.129095796741396,5.19826130974276,0.000585061615902986,-0.000650880013921635,-0.00429344806041256,-1.8437512107318,-0.559437135484593,-2.1508199381369,0.13015416704361,0.0349261995923751,0.129095796741396,-0.247472808185567,-2.14246393718715,0.360363221858663,0.0471406123290474,-0.0502214144658219,-0.180668337028275
9.5,2.75592464609271,2.16486525599171,-3.91399125883013,-0.114304232302777,0.0475080617816958,0.0449150139105842,-1.83752331621217,-1.14289288515417,-2.25139734887158,-0.0752291807879247,-0.0792049254440635,-0.108568391708793,5.27691347381798,0.00424709179272058,0.00112089238599027,0.00301800583250111,-1.83752331621217,-1.14289288515417,-2.25139734887158,-0.0752291807879247,-0.0792049254440635,-0.108568391708793,-0.443383435059964,-1.22486505617713,0.663126561076101,0.341613997373589,0.0832391935384411,0.127830202214193
9.6,2.67261094155366,1.8903795912216,-4.04742464281109,-0.173865217302596,0.0169777495856006,-0.0318859836814439,-1.88836734903863,-0.967387106943256,-2.10591305164724,0.112213566896352,0.0188115332700978,0.0744962923118549,5.27396594036309,0.00146194516943972,-1.07514215435058e-06,-0.00201561169422197,-1.88836734903863,-0.967387106943256,-2.10591305164724,0.112213566896352,0.0188115332700978,0.0744962923118549,-0.234454381260702,-1.81814244915768,0.577408538134931,0.117738501356506,-0.000697796649665223,-0.0845964026649935
9.7,2.5291627480235,1.91286192169461,-4.12707616415154,-0.0885804217599198,0.0666752325713917,0.0513066269668942,-1.84987510167157,-1.29245098390109,-2.09431187903496,0.0093889429367328,-0.0247320323078043,-0.0329464331289199,5.30152068930672,0.00132627340427967,-0.000463136633499969,-0.000867311378087988,-1.84987510167157,-1.29245098390109,-2.09431187903496,0.0093889429367328,-0.0247320323078043,-0.0329464331289199,-0.654636690672378,-0.972846725188142,0.728002966838877,0.106341354740819,-0.037827712724724,-0.0361524648979355
9.8,2.40296595137155,1.67752385486406,-4.2624520519143,-0.148966685413694,0.0265556494718707,-0.0129431733998722,-2.05311861883846,-1.19475499271108,-2.0541896395558,-0.00545189665342569,-0.0605763756393281,-0.0262624268602751,5.38689882550715,0.00397181201795109,0.00111327788358907,0.00185823783852611,-2.05311861883846,-1.19475499271108,-2.0541896395558,-0.00545189665342569,-0.0605763756393281,-0.0262624268602751,-0.303575274605476,-1.59521212921106,0.840720921161509,0.319905573101591,0.0841540145932812,0.0788324024152882
9.9,2.20171425867628,1.66967296527929,-4.35930382330512,-0.140168427887012,0.022632212449762,0.000780946001320833,-1.97031170657833,-1.4890918292554,-1.92124660911378,0.128730791504787,0.0158474347257734,0.0468356578471066,5.35941787134247,0.00120348152457101,-4.52010376358513e-05,-0.00224949968314146,-1.97031170657833,-1.4890918292554,-1.92124660911378,0.128730791504787,0.0158474347257734,0.0468356578471066,-0.239021684398252,-1.49771451068622,0.800992392680696,0.0968288632763844,-0.00439518514560134,-0.0945270665294546
10,2.09380363239665,1.4370078558889,-4.4354128150532,-0.0926011668594316,0.0426376374498851,0.0210648483141859,-1.99734311648961,-1.6266984258439,-1.92060264903102,0.0108072725743705,-0.0398351439017804,-0.0554521269138498,5.42124285811652,0.00303458391521814,0.000629231888780675,0.00163179520966018,-1.99734311648961,-1.6266984258439,-1.92060264903102,0.0108072725743705,-0.0398351439017804,-0.0554521269138498,-0.438957842203802,-1.01206295489479,0.976219963213005,0.244236842029538,0.0465715628747138,0.0692300054038658
10.1,1.96794376199433,1.29886908352966,-4.54183940452803,-0.125974824356948,0.0286031006803326,-0.0107008072270956,-2.06928353948581,-1.57945581253911,-1.79109182937539,0.107855780402178,-0.000439083121079285,0.0406771573650157,5.42212834468391,0.00166016899132645,5.55984325395453e-05,-0.0014160532120828,-2.06928353948581,-1.57945581253911,-1.79109182937539,0.107855780402178,-0.000439083121079285,0.0406771573650157,-0.322241321447427,-1.35912257014663,0.943922517619727,0.133711379251638,0.00358597481856669,-0.0593966028650194
10.2,1.76491158041553,1.18910875225881,-4.63445649497404,-0.11197119707635,0.0154871777590261,-0.00109719342196508,-2.12230984765029,-1.84733673621468,-1.79212727954098,0.0331313627697375,-0.0494703601878261,-0.0526953535943429,5.52263405831361,0.00423368542692495,0.00147094936154009,0.00255741828834184,-2.12230984765029,-1.84733673621468,-1.79212727954098,0.0331313627697375,-0.0494703601878261,-0.0526953535943429,-0.1713360383177,-1.23398196038747,1.16478383621262,0.341045160914658,0.111698850125348,0.108243981213656
10.3,1.61706256222133,0.971048492324876,-4.73255682540772,-0.132568698412502,-0.00302977347176136,-0.0357785135973166,-2.0915962254875,-1.92762060334227,-1.60922178157403,0.159062513530674,0.0170010204042785,0.0423228727310389,5.50080955082818,0.00269255902205399,0.00088722149160392,-0.000292968181343125,-2.0915962254875,-1.92762060334227,-1.60922178157403,0.159062513530674,0.0170010204042785,0.0423228727310389,-0.018999342756708,-1.45445330749106,1.0950367931169,0.217039540588782,0.0678290038144242,-0.0120580992590465
10.4,1.53851157206181,0.86512646111948,-4.7237464665129,-0.0324317847218482,0.0678008682933297,0.0465583924937276,-1.98886490768001,-2.04587627390925,-1.54825735857853,0.14170124619264,0.0329316342015942,0.0153199131256673,5.44498488014663,-0.000843161248301886,-0.001543535976762,-0.00292069819109748,-1.98886490768001,-2.04587627390925,-1.54825735857853,0.14170124619264,0.0329316342015942,0.0153199131256673,-0.720162066266761,-0.38705615206077,1.04923549397305,-0.0683069454485026,-0.11987550062788,-0.122945839489187
10.5,1.40315262344304,0.636868061297615,-4.83327239004463,-0.0698187180620986,0.0365806165532891,-0.000646913694411555,-2.28590334420715,-1.89101530886893,-1.57251783013976,-0.0358120829594759,-0.100162872505445,-0.0782552830802309,5.58486790604374,0.00461847355904618,0.00153158240700197,0.00374144965517876,-2.28590334420715,-1.89101530886893,-1.57251783013976,-0.0358120829594759,-0.100162872505445,-0.0782552830802309,-0.408013452165101,-0.778959414959901,1.32506826941475,0.372050847133828,0.11649726355726,0.15815324353963
10.6,1.14390762195935,0.618727698009107,-4.92143169593369,-0.125402371634896,-0.0082104778994206,-0.02890879154231,-2.2277959400962,-2.03300629926991,-1.35421588022132,0.21481744327031,0.0393399638930507,0.0837203519051892,5.54898688926919,0.00120599156173515,0.00010162883682,-0.00258063291928177,-2.2277959400962,-2.03300629926991,-1.35421588022132,0.21481744327031,0.0393399638930507,0.0837203519051892,0.0502435907992174,-1.39010058322442,1.20045493788644,0.0972521956037093,0.00779701068138751,-0.108645160859107
10.7,0.98806119382071,0.382580475435227,-4.95322742051654,-0.0479831045580418,0.0187415571802842,0.0066613794934878,-2.17300325493479,-2.36223665109401,-1.3760751101301,0.0543917430524987,-0.0441844211457753,-0.0839101204098864,5.64401891857908,0.00396422511315186,0.00139716753301409,0.00367279618670869,-2.17300325493479,-2.36223665109401,-1.3760751101301,0.0543917430524987,-0.0441844211457753,-0.0839101204098864,-0.207688228813468,-0.542822805670607,1.46306556418309,0.319305489644634,0.106199275607647,0.155203003877663
10.8,0.904049204433166,0.116115578049877,-5.02459269755707,-0.0859516778462441,0.00154840550802419,-0.0428254865706636,-2.21614511678249,-2.18654923875076,-1.13881381901606,0.200096866087008,0.0277528997730596,0.074567181813765,5.5701421426489,0.00163587490898817,0.000413726811691098,-0.00148426029811204,-2.21614511678249,-2.18654923875076,-1.13881381901606,0.200096866087008,0.0277528997730596,0.074567181813765,-0.0581137673257196,-0.954734956021586,1.28914581898313,0.131921057625702,0.0318101610847638,-0.0624203552792753
10.9,0.724577313612,0.054177212639607,-5.01338442477689,-0.0227417747918862,0.0283706827097589,0.0181415927804764,-2.19804285670903,-2.37501562161178,-1.18087369293337,0.10725706940951,-0.0120855285372784,-0.043236170717884,5.64057748610095,0.0019071638268282,0.000424865998544473,0.00119921795232659,-2.19804285670903,-2.37501562161178,-1.18087369293337,0.10725706940951,-0.0120855285372784,-0.043236170717884,-0.315222107615572,-0.262292850749663,1.4636992593448,0.153467076203446,0.0317143373727626,0.0507921995431025
11,0.600765289430725,-0.173508931394743,-5.08924433913894,-0.0445170721212379,0.0195705691083228,-0.0211041154144135,-2.26952813619893,-2.23572100027468,-0.98924480089416,0.134577194861454,-0.00500928933359501,0.023993743353619,5.60533584146473,0.00193076521956302,0.000322135115626984,-0.00012685777395715,-2.26952813619893,-2.23572100027468,-0.98924480089416,0.134577194861454,-0.00500928933359501,0.023993743353619,-0.229647157647807,-0.49416535923825,1.38742034413058,0.155566218699668,0.0243955647914293,-0.00517854542385418
11.1,0.44160141640874,-0.221763023120109,-5.05397346361584,-0.00110152634366173,0.0468043589704394,0.031167944450378,-2.23226117217066,-2.29017988933314,-0.949218108431821,0.162791124596892,0.0136563003115689,0.0153302329940892,5.60161904703621,-0.000535981506393541,-0.00111146471453355,-0.00219327910570077,-2.23226117217066,-2.29017988933314,-0.949218108431821,0.162791124596892,0.0136563003115689,0.0153302329940892,-0.523529482689304,-0.0286692796005302,1.38096236905645,-0.0434668187146234,-0.0861001774440498,-0.0923880406051839
11.2,0.308793753526762,-0.402331945429607,-5.09409104850213,0.019447834998115,0.0542496955263115,0.0297586041292091,-2.34165590011076,-2.19738612947142,-0.868461146631993,0.0610903206561966,-0.0456172057683601,-0.0328852638228815,5.63000217195054,0.000910340960089241,-0.000505146992242611,0.00015023588231874,-2.34165590011076,-2.19738612947142,-0.868461146631993,0.0610903206561966,-0.0456172057683601,-0.0328852638228815,-0.61668174168823,0.200708888394246,1.43131297474895,0.0730976741645985,-0.0395229205985629,0.00647758842708428
