time,x,y,z,roll,pitch,yaw,xdot,ydot,zdot,p,q,r,thrust,roll angle,pitch angle,yaw angle,_xdot,_ydot,_zdot,_p,_q,_r,_xddot,_yddot,_zddot,_phiddot,_thetaddtot,_yawddot
0,5.01841953230695,1.01841953230695,0.0184195323069548,0.0184195323069548,0.0184195323069548,0.0184195323069548,0.0184195323069548,0.0184195323069548,0.0184195323069548,0.0184195323069548,0.0184195323069548,0.0184195323069548,9.09660643992333,-0.0034676597508045,0.00847132467939387,-0.00172302525185135,0.0184195323069548,0.0184195323069548,0.0184195323069548,0.0184195323069548,0.0184195323069548,0.0184195323069548,-0.341149726806856,0.328863847052212,8.3770409997179,-0.279650082662631,0.651640463465935,-0.0727014904347047
0.1,3.02036642022637,0.620366420226373,0.0203664202263731,0.0194547945669676,0.0199304948788943,0.0190268210271719,-0.0859828755538579,0.121584645651987,4.62025588440381,-0.144024818268073,0.368435245665819,-0.0300785922836554,5.4332109598558,-0.000716809910520226,-0.00143602393742694,0.000563167009257752,-0.0859828755538579,0.121584645651987,4.62025588440381,-0.144024818268073,0.368435245665819,-0.0300785922836554,-0.220500506475448,0.20723301026265,1.05220784846664,-0.0578101784993113,-0.11046043068313,0.0237622351722671
0.2,3.29313615893711,0.722566595690227,2.13288126626256,-0.064107501510642,0.172031469944516,-0.0139585720563286,-0.0571826761963231,0.0590792708223224,1.0017604579746,-0.0408086085094873,-0.0255023080226387,0.011052681571609,6.74252669655214,0.000552693087444779,0.000494329385024369,0.000142785163280532,-0.0571826761963231,0.0590792708223224,1.0017604579746,-0.0408086085094873,-0.0255023080226387,0.011052681571609,-2.31551994569779,-0.831661775029927,3.44870925421865,0.0446109432493593,0.0380380666688401,0.0060369919540341
0.3,3.30495019750811,0.706186708908457,0.751253020282931,-0.0196869819475718,0.0181740020809667,0.0107467767182289,-0.506979537335045,-0.101835321706367,2.53189177096784,0.0132474142551193,0.0533810153869602,0.0064235092568213,6.46340996419625,-0.00247410656322123,0.00286581739940252,-0.000819652343545658,-0.506979537335045,-0.101835321706367,2.53189177096784,0.0132474142551193,0.0533810153869602,0.0064235092568213,-0.232125314837468,-0.256983022459898,3.11218058322451,-0.199522832078504,0.220448369400693,-0.0345692632537912
0.4,3.07158280585248,0.612448717634304,1.55052451506007,-0.0172047163080819,0.0329578325164565,-0.0110734018206095,-0.345489759348076,-0.0940416436024448,2.34490715255603,-0.135359735749247,0.139160886372668,-0.0321791778937664,6.06321767913476,0.000414753836789792,0.000172800558394108,0.00204029557369209,-0.345489759348076,-0.0940416436024448,2.34490715255603,-0.135359735749247,0.139160886372668,-0.0321791778937664,-0.401815146663229,-0.204184736551555,2.30805626656193,0.0334270720146647,0.0132846058911853,0.0861045026709344
0.5,3.18140437895993,0.668265682287189,1.60885707245837,-0.0395895839314065,0.120996041133914,0.0166425787719695,-0.30560879183739,-0.0275886371182341,2.09865742226933,0.0215747659877295,0.0747162047233306,0.070467610839222,6.17507336686955,-0.00334664659048692,-0.00277267199837251,-0.00411540791623187,-0.30560879183739,-0.0275886371182341,2.09865742226933,0.0215747659877295,0.0747162047233306,0.070467610839222,-1.48116639228578,-0.513529865668873,2.44024724404841,-0.269764854759048,-0.213216346489453,-0.173605444639206
0.6,3.13856655438183,0.65469002801298,1.6098133701286,-0.00476151660492941,0.0674249804882296,0.0311412720960262,-0.536983693437306,-0.139383555910995,2.32020820950078,-0.172119472773133,-0.0753908768301296,-0.0941500595371889,5.98062693638769,-0.000346631525970666,0.00198068206799589,0.0029726036407525,-0.536983693437306,-0.139383555910995,2.32020820950078,-0.172119472773133,-0.0753908768301296,-0.0941500595371889,-0.80370320419135,-0.0820175549886706,2.12394019128763,-0.0281933971714587,0.152257815461571,0.125468797121587
0.7,3.05296759899814,0.641776860879535,1.90287136201326,-0.0607717353342495,0.0371845485744169,-0.0060969940528504,-0.519339445034353,-0.0777449705418582,2.24321123170953,-0.023956865228072,0.145444881227208,0.0891072135353856,5.81049880079947,-0.00252314887294709,-0.00295690449997584,-0.0039331267264214,-0.519339445034353,-0.0777449705418582,2.24321123170953,-0.023956865228072,0.145444881227208,0.0891072135353856,-0.435519625337721,-0.703151288474137,1.78152648178103,-0.203240847875063,-0.227263195508117,-0.165893219844619
0.8,2.99927045836767,0.628479554875582,1.95658369814088,-0.0300931473122435,0.103894236201395,0.0408567689278811,-0.600492926297529,-0.183509533383516,2.14047947867888,-0.149325258196816,-0.0839774972778515,-0.089033866869279,5.83823580055787,-0.000801380799705409,-0.00152070089202094,0.00230013464155263,-0.600492926297529,-0.183509533383516,2.14047947867888,-0.149325258196816,-0.0839774972778515,-0.089033866869279,-1.19502834497035,-0.400474366204081,1.79825209014661,-0.0648629851292218,-0.117134210539372,0.0971339935968368
0.9,2.94729053078971,0.592183391350642,2.0494901980845,-0.0810269257043476,0.0198190842691844,-0.0244408292112677,-0.68012806462784,-0.206610408936352,2.26686052223768,-0.0710341664995849,-0.0204958193508899,0.0568264471705102,5.61237247593283,-0.0011270965529518,-0.000262064213471173,-0.00153390982217478,-0.68012806462784,-0.206610408936352,2.26686052223768,-0.0710341664995849,-0.0204958193508899,0.0568264471705102,-0.243856120059254,-0.902821881497038,1.37572063290664,-0.0906298285987096,-0.0198928011635319,-0.0646266408914108
1,2.82292831120315,0.522108708581657,2.21188328555138,-0.0965675181025981,0.000110496170569994,-0.00449281828928814,-0.791416707588403,-0.336261453643972,2.07484656777326,-0.123948427754465,-0.0148753214429672,-0.0638831392564169,5.60892363159131,0.00122149862372965,-0.00121659716765673,0.0032377110087004,-0.791416707588403,-0.336261453643972,2.07484656777326,-0.123948427754465,-0.0148753214429672,-0.0638831392564169,-0.00609314327642922,-1.08158034556618,1.35558301432504,0.0984728043869114,-0.0936251194355631,0.13671507953466
1.1,2.75306004592513,0.473779517333528,2.2503324117829,-0.112080039036709,0.0144655862197992,-0.0435727160017308,-0.779274618671414,-0.405036735506354,2.16090027357849,-0.0128408233194272,-0.0400496933811966,0.0554036838476364,5.47460553100722,-0.00103923542111087,-0.00219587959648248,-0.000555757494248206,-0.779274618671414,-0.405036735506354,2.16090027357849,-0.0128408233194272,-0.0400496933811966,0.0554036838476364,-0.210581253313181,-1.21660233989039,1.06937301331587,-0.0835242296283403,-0.168513615977179,-0.0233312776287873
1.2,2.74620906429434,0.466594402015898,2.44599429792107,-0.0294669153536234,0.0396963396642614,0.0455130267313455,-0.724129084275088,-0.43205163219542,2.11093855373106,-0.0769664627865787,-0.0588534179454702,0.00499926109658876,5.38789235480314,-0.00356547046613796,-0.00347161152099414,-0.00232639954847729,-0.724129084275088,-0.43205163219542,2.11093855373106,-0.0769664627865787,-0.0588534179454702,0.00499926109658876,-0.412573940322509,-0.336602758203896,0.952621308711027,-0.28753038305187,-0.267035461091634,-0.0980483454668645
1.3,2.67698924651042,0.39003130538632,2.5240221490033,-0.0967321132495092,-0.00694667793125591,-0.0108248040862211,-0.803650394706265,-0.582720010399923,2.01610373293526,-0.223364454789859,-0.150658529579401,-0.0671038827477926,5.31595291684593,0.00348016451667631,-0.000234782244324097,0.00369429245686082,-0.803650394706265,-0.582720010399923,2.01610373293526,-0.223364454789859,-0.150658529579401,-0.0671038827477926,0.0623910922894864,-1.02757915086032,0.771947367890808,0.280644437278839,-0.0180864925176211,0.155986432519073
1.4,2.62361066485465,0.324841406100342,2.63011119251276,-0.145785499593548,-0.0316729756673615,-0.0246635891608039,-0.799869495052153,-0.576357509742536,2.02312570591107,0.0911512500654026,-0.00267172432651025,0.0867161512504239,5.18589617172019,-0.00249448218233033,-0.00389177451725685,-0.00293382030935433,-0.799869495052153,-0.576357509742536,2.02312570591107,0.0911512500654026,-0.00267172432651025,0.0867161512504239,0.287710577349705,-1.51426234592883,0.44662266961361,-0.200986580206107,-0.298746565319978,-0.123696344159444
1.5,2.54945567903527,0.274024914186266,2.72750936018272,-0.0300857789379416,0.0111528751488755,0.0312090598233502,-0.825124096393795,-0.688718926349965,1.92813944883165,-0.171758707149439,-0.176863012177976,-0.073850974554076,5.21197820993155,-0.000853919947213787,-0.00256164812785231,0.00204220770166687,-0.825124096393795,-0.688718926349965,1.92813944883165,-0.171758707149439,-0.176863012177976,-0.073850974554076,-0.106360980894041,-0.317038812936165,0.608591132012068,-0.0689293915721334,-0.197255535047438,0.0862543379074472
1.6,2.48836171608265,0.201689425342066,2.80830883222088,-0.144447544413175,-0.0649681915433458,-0.0379293443493533,-0.785890760856914,-0.840961244270004,1.94270418865331,-0.109366185988125,-0.128708888044738,0.0387020327217072,5.0131247700448,0.0032129396918899,-0.00109909582580219,-6.57731496049125e-05,-0.785890760856914,-0.840961244270004,1.94270418865331,-0.109366185988125,-0.128708888044738,0.0387020327217072,0.588958947577461,-1.4666243190156,0.0908999745016885,0.259173971586285,-0.0840147933618441,-0.00272955965869874
1.7,2.42731448471519,0.0591000843785577,2.90806069274099,-0.147681127110687,-0.0745267297182688,-0.015097134225273,-0.852444600382145,-0.868620770042023,1.78408355278962,0.0527291663858856,-0.101445649391561,-0.0249794889560994,5.0351362601719,-0.000344889948731577,-0.00267282173506724,0.00185590139865479,-0.852444600382145,-0.868620770042023,1.78408355278962,0.0527291663858856,-0.101445649391561,-0.0249794889560994,0.719193765521748,-1.49281669901365,0.12300796661172,-0.0278114481569832,-0.20546313822124,0.0783152124329688
1.8,2.34069092723558,0.00963739075987735,2.94430206676754,-0.0792043014361146,-0.069422524042573,-0.0370450453359008,-0.794861900145233,-1.01249963550106,1.81273559289162,-0.0925047012022212,-0.170336815821467,0.0208971946722649,4.93513747599561,0.000802275624577943,-0.00201670676383866,0.00070762958070764,-0.794861900145233,-1.01249963550106,1.81273559289162,-0.0925047012022212,-0.170336815821467,0.0208971946722649,0.653130655423477,-0.805693607163276,0.00563068713506887,0.0646740286729158,-0.154725235018876,0.0298323354662302
1.9,2.35180847148219,-0.0556721087647856,3.10564052867254,-0.099052853371744,-0.0642161801644169,0.0233143604876082,-0.663044443309562,-1.09406294155771,1.7208676630165,-0.00521871608870085,-0.117690352698459,0.0336534748813844,4.81113332807397,5.69809561765933e-06,-0.00355386013919477,-0.002745547787225,-0.663044443309562,-1.09406294155771,1.7208676630165,-0.00521871608870085,-0.117690352698459,0.0336534748813844,0.636469801023202,-0.936972256143068,-0.254634764404864,0.000424443537697512,-0.273183205141437,-0.115931450378239
2,2.32939299818941,-0.185737241385015,3.14668842717851,-0.0842049927630392,-0.0695764077307353,0.0124765990691164,-0.638099818285726,-1.18573586881559,1.56301800540657,-0.0535204585034946,-0.2064934068101,-0.0611575145403416,4.84076736338773,0.00128673980349958,-0.00164172811853619,0.00224791291043294,-0.638099818285726,-1.18573586881559,1.56301800540657,-0.0535204585034946,-0.2064934068101,-0.0611575145403416,0.680785167082495,-0.80583956012948,-0.186109475613819,0.103824617243453,-0.126491902010379,0.0947223767480966
2.1,2.27795296240143,-0.307005759411024,3.16528568134387,-0.121276450274724,-0.133442007355757,-0.0458696986085686,-0.597890639075038,-1.31383764946686,1.56787150878677,-0.0145541369578802,-0.148687215519811,0.0368623260908297,4.73438557871828,0.00300755390896451,-0.00119102027558288,0.000393782448344606,-0.597890639075038,-1.31383764946686,1.56787150878677,-0.0145541369578802,-0.148687215519811,0.0368623260908297,1.19669030852302,-1.20166258838295,-0.494337567243528,0.242327811919267,-0.0910811451325537,0.016410380415661
2.2,2.2508988123657,-0.438123422046809,3.25977328620439,-0.1057197914251,-0.116200277417398,-0.00443920332620669,-0.56657545720189,-1.36067279210237,1.48509545025342,0.0732548331692925,-0.138023145308881,-0.000798815656131255,4.6787445855019,0.000764971348502782,-0.00285944822391414,0.000220109571925469,-0.56657545720189,-1.36067279210237,1.48509545025342,0.0732548331692925,-0.138023145308881,-0.000798815656131255,1.0744463670566,-0.992209484878876,-0.56750634688404,0.0616482716264668,-0.219872354008935,0.00902670857405582
2.3,2.24315406372048,-0.49807408052038,3.33929793347259,-0.0359637686734544,-0.0905709041159462,0.0147712145868045,-0.400993910671418,-1.4310244555601,1.39996350263662,0.0109981929390554,-0.186765630028739,0.0218414940028942,4.59550597207524,-0.000143934743756968,-0.00251940070802872,-0.0017672314177587,-0.400993910671418,-1.4310244555601,1.39996350263662,0.0109981929390554,-0.186765630028739,0.0218414940028942,0.835553760956761,-0.318165192621188,-0.662578429946942,-0.0116647435685925,-0.193709861359734,-0.0748611133364307
2.4,2.25386187368834,-0.639654110381589,3.37302386808634,-0.0771534536122833,-0.138612761739801,0.0074847830762319,-0.311964518330336,-1.60148115020226,1.25982103471,-0.0398484269070151,-0.198211081494083,-0.0384385853751024,4.57488066278409,0.00451178854182999,-0.000129173561668283,0.00147747959728146,-0.311964518330336,-1.60148115020226,1.25982103471,-0.0398484269070151,-0.198211081494083,-0.0384385853751024,1.26569858100564,-0.695781627680393,-0.774955598145308,0.363981932160933,-0.0101012388476614,0.0619855969985527
2.5,2.27861653934633,-0.807528236572734,3.40174362600024,-0.0889052352309057,-0.14566577601551,-0.0128907348801592,-0.244136666087695,-1.58680428635438,1.22851112150456,0.170863705132248,-0.0965998474388046,0.0420334057050141,4.50115417231657,0.000499127937976211,-0.00272899985956133,-0.00135344758536869,-0.244136666087695,-1.58680428635438,1.22851112150456,0.170863705132248,-0.0965998474388046,0.0420334057050141,1.29112359269701,-0.816009276610922,-0.938208508947161,0.0399911541424604,-0.209631980776193,-0.0575425846235938
2.6,2.26839901386446,-0.898758405992086,3.45594097949375,0.00335366832618003,-0.111254753550958,0.0248564813416568,-0.133884440170279,-1.64328120807226,1.09650584893208,0.0139107627767634,-0.208284042505949,-0.0221312863504787,4.46978610646883,0.00115325228498626,-0.00130671476451765,-9.91355856546412e-05,-0.133884440170279,-1.64328120807226,1.09650584893208,0.0139107627767634,-0.208284042505949,-0.0221312863504787,0.991462134539937,0.0546389046961344,-0.92574602027868,0.093209900375317,-0.100702964430228,-0.00459367305840451
2.7,2.30028110649361,-1.01414581846447,3.47739071837028,-0.0519629365736924,-0.162873159128675,0.00350074451765523,0.0318260716318293,-1.78294124782215,1.04014033877849,0.0477254349263444,-0.154417912899787,0.00961042313355438,4.38902282308363,0.00434625677726491,0.000114384205742382,-0.000589408252844029,0.0318260716318293,-1.78294124782215,1.04014033877849,0.0477254349263444,-0.154417912899787,0.00961042313355438,1.42306138567283,-0.450948784907588,-1.15981925898693,0.350445966012384,0.0088442509181122,-0.0253385340724642
2.8,2.35865869902208,-1.21450234355686,3.50952894936676,-0.0424882211750774,-0.156099752938928,0.0064800481813256,0.074253976655045,-1.74481831217602,0.892784305598401,0.189710387939881,-0.105193129576989,-0.007567321927917,4.40054639613222,0.0012584732865198,-0.00153842979273974,8.17303749235512e-05,0.074253976655045,-1.74481831217602,0.892784305598401,0.189710387939881,-0.105193129576989,-0.007567321927917,1.36943461274638,-0.364963999740317,-1.12376465559707,0.101566763173474,-0.118392891213872,0.00295346562154768
2.9,2.32324849084975,-1.33661714668235,3.46776571303883,-0.00734966134980244,-0.176418528593384,-0.032426489289659,0.177779982479415,-1.85414855571131,0.808899714748976,0.0416662761732535,-0.203701490274109,-0.0206114314119381,4.40795482658199,0.00506484832614439,0.001670013938775,0.00253339030844928,0.177779982479415,-1.85414855571131,0.808899714748976,0.0416662761732535,-0.203701490274109,-0.0206114314119381,1.54427888858469,-0.114920547736119,-1.13116027370424,0.408419008269849,0.128482043655441,0.106455457130041
3,2.40586575877498,-1.46293973006549,3.51610599133671,-0.0307081999724466,-0.196109608659809,-0.00954647529717496,0.361996554483644,-1.85669900074872,0.80968801291932,0.241277565191873,-0.0454292950284212,0.0633965639317799,4.27097394033367,0.00218311790183089,-0.000485039581982741,-0.00259759610636544,0.361996554483644,-1.85669900074872,0.80968801291932,0.241277565191873,-0.0454292950284212,0.0633965639317799,1.66107699780356,-0.278136483430369,-1.43573365004491,0.17565902313774,-0.0371281698657235,-0.110069960982352
3.1,2.49948491640146,-1.58043633986467,3.57693096940771,0.0761251828335286,-0.120097853141154,0.0452912744513689,0.502286965932289,-1.82709924667703,0.601840808007242,0.149924554849487,-0.114247107713139,-0.0383585044578594,4.2428766277283,0.000427555162344205,-0.00123084777226875,-0.000322971823553324,0.502286965932289,-1.82709924667703,0.601840808007242,0.149924554849487,-0.114247107713139,-0.0383585044578594,0.983469678810616,0.690591337685317,-1.4097690920031,0.0351991854299174,-0.0949175691156895,-0.0139789627512962
3.2,2.56147623041623,-1.69324643142186,3.52290754239455,0.0424057522557251,-0.163723823542504,-0.0022670690121946,0.722943793223866,-1.93820054963225,0.552866821123297,0.0712627240040579,-0.158923044061712,0.00268299915377368,4.23513124102587,0.00574581441183551,0.0032525107038472,-0.000105827585230374,0.722943793223866,-1.93820054963225,0.552866821123297,0.0712627240040579,-0.158923044061712,0.00268299915377368,1.38016586158816,0.355952196720946,-1.46052176821751,0.463411344486193,0.250183608728798,-0.0047537366382041
3.3,2.64725097062642,-1.96317529337521,3.4886807397129,-0.0439991107007742,-0.248376788495433,-0.0526681996523696,0.706351325597022,-1.93999235502151,0.393009894496238,0.259383931104938,-0.0228684224331867,-0.0421938591224219,4.4534068055443,0.00694505688223718,0.00310857461927635,0.00429198439195224,0.706351325597022,-1.93999235502151,0.393009894496238,0.259383931104938,-0.0228684224331867,-0.0421938591224219,2.16379352041404,-0.506378042253814,-1.18486767742021,0.560181325023152,0.239102337028882,0.180828954034843
3.4,2.71291695968872,-2.03638870363845,3.48136737942156,0.0880262848547704,-0.15717532332018,-0.0348484063211396,0.91388668608862,-1.80342411192851,0.54150835841133,0.369631173249257,0.0123649298658176,0.0930165924833451,4.07809956318889,-0.00141287160701016,-0.000608315001627651,-0.00291089299228893,0.91388668608862,-1.80342411192851,0.54150835841133,0.369631173249257,0.0123649298658176,0.0930165924833451,1.29594870680503,0.672288635575913,-1.78552935522027,-0.114701954960172,-0.0467305478736071,-0.122937846089834
3.5,2.81274544526427,-2.07543671336073,3.5681420517662,0.150902431001172,-0.144292959587995,0.0284091900575237,1.10979911069503,-1.91360005586674,0.135971560983125,0.0295134586247576,-0.12142986039287,-0.0658578807184305,4.2247961093372,0.00543652597330116,0.00400437606921846,0.00168287922899605,1.10979911069503,-1.91360005586674,0.135971560983125,0.0295134586247576,-0.12142986039287,-0.0658578807184305,1.16461686995343,1.30383780598801,-1.54324228105243,0.439553758031976,0.308114083961472,0.0711121043862536
3.6,2.99383093040715,-2.27772628620169,3.43739075003591,0.0327037316053138,-0.194823859148459,-0.0241970629299376,1.31365950507766,-1.82492658546443,0.303169138009398,0.331930536226769,0.0737975840059561,0.0445948472478182,4.21885221455546,0.00448835454047863,0.00345003137703842,-0.000854482901158764,1.31365950507766,-1.82492658546443,0.303169138009398,0.331930536226769,0.0737975840059561,0.0445948472478182,1.63881049140879,0.236313881135558,-1.53634833003774,0.361745813254552,0.265368678650794,-0.0359257548945749
3.7,3.14339213514082,-2.41035859977864,3.52010040524797,0.153541460963426,-0.122463933026423,-0.00132009160334345,1.36804263312342,-1.69137044867333,0.037753339397538,0.30350958744247,0.053771016310753,-0.0238879417398249,4.15321765318091,0.000285054007093285,0.00140346938974925,0.00117688770727672,1.36804263312342,-1.69137044867333,0.037753339397538,0.30350958744247,0.053771016310753,-0.0238879417398249,1.00443686110732,1.26905208834745,-1.66276237686146,0.023696608692854,0.10811963818825,0.0499831708389094
3.8,3.23633303228852,-2.42346092617513,3.40792209425053,0.172682405655085,-0.120444307291955,-0.0161154660567445,1.58673055243812,-1.67508894106413,0.0319249466587066,0.14248763014576,-0.0156766187855917,0.029562645168237,4.1409549595237,0.00426756732856455,0.00497938080111267,-0.000481451935589343,1.58673055243812,-1.67508894106413,0.0319249466587066,0.14248763014576,-0.0156766187855917,0.029562645168237,1.00310388545649,1.4070610307945,-1.71037076417585,0.344369319686579,0.38310566360679,-0.0198166916430155
3.9,3.47968853690086,-2.54093746393005,3.46137909801604,0.145509904882839,-0.117621149947886,0.039470142500686,1.74014599764826,-1.49701087401791,-0.0365732576001332,0.346207156406632,0.17188284510569,0.0190568162589488,4.07885575057238,0.000439324596374117,0.00220464208245359,-0.00242249380383964,1.74014599764826,-1.49701087401791,-0.0365732576001332,0.346207156406632,0.17188284510569,0.0190568162589488,0.89977915558805,1.21929824258026,-1.79426758164174,0.0362417181921933,0.169929927295552,-0.101628975414476
4,3.63131404089165,-2.60215150632564,3.42459908489309,0.234003581885168,-0.0476878721096399,0.0163893829332352,1.81381487623682,-1.38000311939935,-0.244745109244968,0.18167260686828,0.059876878842308,-0.0393988557430434,4.09651986736313,0.00114064217309511,0.0028142450359283,0.00129457563707345,1.81381487623682,-1.38000311939935,-0.244745109244968,0.18167260686828,0.059876878842308,-0.0393988557430434,0.348730785323936,1.90572274848156,-1.84931486993169,0.0930989121571863,0.21716314731611,0.0553577617749815
4.1,3.76694557010632,-2.66051542967604,3.31457586690499,0.170232117855516,-0.0993694629165977,-0.0144879596568277,1.90775983387646,-1.23254369795296,-0.177659269461821,0.204888500856852,0.0822141048651561,0.032953815776749,4.08575584875369,0.0035777123596528,0.00600880955892487,-0.000364419012261677,1.90775983387646,-1.23254369795296,-0.177659269461821,0.204888500856852,0.0822141048651561,0.032953815776749,0.818917099593072,1.37262495106872,-1.79633174194254,0.288885153278969,0.462474502068788,-0.014564609990446
4.2,3.92728679522525,-2.73993346203322,3.34234851590616,0.165939696847251,-0.106953249547401,-0.0101496694901323,1.90402195140629,-1.09758616174438,-0.44840180040495,0.299458211905881,0.212578927526091,-0.02163616844731,4.19167977870071,0.00152996077976803,0.00351465167008879,0.00204894044822273,1.90402195140629,-1.09758616174438,-0.44840180040495,0.299458211905881,0.212578927526091,-0.02163616844731,0.896635231033204,1.37572702776774,-1.58904276399561,0.124309756231926,0.271142886310167,0.0873392068116075
4.3,4.04719026269832,-2.73430715324867,3.1986914879622,0.240408572764554,-0.0267088106727522,-0.0184332187046628,2.02870259783193,-0.913978016856587,-0.438802897484859,0.238515673586953,0.138843254821904,0.0467176408062154,4.07771803331507,-0.000397277800981918,0.00320279041014107,-0.00102046310260588,2.02870259783193,-0.913978016856587,-0.438802897484859,0.238515673586953,0.138843254821904,0.0467176408062154,0.24728820666207,1.93757610490579,-1.89193301256958,-0.03155022510945,0.246911403603816,-0.0421253994548496
4.4,4.22646809530093,-2.72726662966704,3.18055395129797,0.233332186608289,-0.0454390969185778,0.0175868991217415,2.10947089690831,-0.736385618219573,-0.51222410310855,0.159954456372902,0.149728865772136,-0.0164577704274812,4.05090195016357,0.00143320277429856,0.00519734938634911,0.000257679673785921,2.10947089690831,-0.736385618219573,-0.51222410310855,0.159954456372902,0.149728865772136,-0.0164577704274812,0.325040054641832,1.87931146703114,-1.93588012460315,0.116712367822835,0.401318727313645,0.0118357195506251
4.5,4.40806778072271,-2.74922565710657,3.14618086786543,0.199883617842881,-0.0445519882156438,-0.0207789281260645,2.11540684428796,-0.562463252829343,-0.686685038429412,0.229946651602432,0.230835578315792,-2.76581080786032e-05,4.12212773021912,0.000949089202928252,0.0039902298735149,0.00129886084990745,2.11540684428796,-0.562463252829343,-0.686685038429412,0.229946651602432,0.230835578315792,-2.76581080786032e-05,0.393799613104245,1.62910988340086,-1.73790789513088,0.0773521619735481,0.308226026463369,0.0557442346976699
4.6,4.55143868596195,-2.72339797069379,3.03861223991395,0.24463460612722,0.0071943574136917,-0.0120754214029635,2.16207547214024,-0.364990671409285,-0.77187284857821,0.218265321928874,0.203550059188468,0.0279359757801228,4.082460391486,-0.0012627197035296,0.00332821228337512,-0.000603645913581291,2.16207547214024,-0.364990671409285,-0.77187284857821,0.218265321928874,0.203550059188468,0.0279359757801228,-0.0331084652568485,1.97810273232176,-1.88838748725251,-0.101141825631153,0.257423371709956,-0.0245953180890717
4.7,4.72364185106224,-2.65629957094287,2.96089227074444,0.267725627215768,0.020857512304341,0.0143592222677083,2.20142670734855,-0.138133414632185,-0.819545664774242,0.134155085116631,0.205678383354005,-0.00150395345886853,4.02255620499013,-0.00109296613389888,0.00374867498670553,-0.000610439704340089,2.20142670734855,-0.138133414632185,-0.819545664774242,0.134155085116631,0.205678383354005,-0.00150395345886853,-0.192353594402744,2.12570136634813,-2.05318187108628,-0.0872935403336661,0.290577906837975,-0.0249572664224288
4.8,4.92497043477554,-2.5737317974456,2.94574972357875,0.2644867677185,0.0564296632311768,0.0250255420017207,2.22116368417268,0.109372350171219,-0.948711315598314,0.155177926900896,0.253102300255962,0.015217609122002,3.98130932680833,-0.00260249390238228,0.0020175339365569,-0.00199688553649723,2.22116368417268,0.109372350171219,-0.948711315598314,0.155177926900896,0.253102300255962,0.015217609122002,-0.485423663037727,2.07004078633477,-2.13650074391107,-0.209199528598794,0.157477996301115,-0.0835756535268753
4.9,5.00052516415249,-2.56761305296154,2.78080799791902,0.205667872902478,0.0149813352992265,-0.0444692101796323,2.04936758911663,0.227381525376624,-1.14403019665804,0.0228236951993619,0.130264963459991,-0.0815100387031659,4.12184114184652,0.00354821644825474,0.00613463561317099,0.00593864903183565,2.04936758911663,0.227381525376624,-1.14403019665804,0.0228236951993619,0.130264963459991,-0.0815100387031659,-0.0459338026789385,1.68724302477946,-1.74096048741989,0.286718731010632,0.474713269505721,0.251090336455126
5,5.11762796402699,-2.48189804293364,2.67125025469228,0.182008804566643,-0.000130453137230868,-0.0528965505951887,2.08414382598568,0.450552727165775,-1.20632358893206,0.306068423982143,0.332140312615558,0.120016700874502,4.12925951034904,-0.0038876355898952,0.00252207062585872,-0.0033512064647764,2.08414382598568,0.450552727165775,-1.20632358893206,0.306068423982143,0.332140312615558,0.120016700874502,0.0800929696500702,1.49269102001666,-1.68789466639306,-0.313424203998165,0.194594742251419,-0.14098766094958
5.1,5.29913611533383,-2.32225581863678,2.57788913706692,0.352387416162656,0.136294193138181,0.0601230328204706,2.15990942888832,0.667089569021239,-1.29842666071131,0.0169907707556697,0.251107529201157,-0.0488442477021739,4.05558437382441,-0.0050425144537769,-0.000489324343609071,-0.000669738848937769,2.15990942888832,0.667089569021239,-1.29842666071131,0.0169907707556697,0.251107529201157,-0.0488442477021739,-1.20070727865197,2.73227485835465,-2.26784947231692,-0.406432023471649,-0.0333629774096894,-0.028098392911183
5.2,5.45164294313945,-2.20992587074491,2.44041473468867,0.231333909536159,0.114489940065643,-0.0172628899347583,1.98116729687936,1.02142292403888,-1.23606952270452,-0.0465830198954535,0.112740478435638,-0.00147471197079672,3.90163774959671,-0.000195003148923529,0.00454345342702186,0.000725197242189208,1.98116729687936,1.02142292403888,-1.23606952270452,-0.0465830198954535,0.112740478435638,-0.00147471197079672,-0.836686337920855,1.8038162741718,-2.26431836496649,-0.0157810112393081,0.352309604788739,0.0305380950715694
5.3,5.5374874444904,-2.0477888898576,2.50528564670363,0.183565452434215,0.0510189475872862,-0.00273875678580766,1.90342770505848,1.09600174630097,-1.66962789326031,0.129144650305858,0.312611309187088,0.016225868364951,4.09109445220609,-0.00329139559580982,0.00173090016222276,-0.000836737290893205,1.90342770505848,1.09600174630097,-1.66962789326031,0.129144650305858,0.312611309187088,0.016225868364951,-0.406163169775356,1.49466427790565,-1.77574674015334,-0.265577783761128,0.1358776482742,-0.0354640075607004
5.4,5.65098536792572,-1.93010800070821,2.18252913910883,0.274852295795086,0.161931776977446,0.00843140108508828,1.88724089771601,1.28529688701628,-1.66229651475994,0.00286212761781546,0.22197022438426,-0.00823447063194397,4.12674371143835,-0.00489999008160295,-0.000326844903269113,-9.90428817617781e-05,1.88724089771601,1.28529688701628,-1.66229651475994,0.00286212761781546,0.22197022438426,-0.00823447063194397,-1.29956324453234,2.22915816032474,-1.97022679477895,-0.395617955105665,-0.0218032490489917,-0.00462695293741852
5.5,5.72853486581745,-1.80300060032839,2.01723421073726,0.19956581442278,0.112755786833066,-0.0267093838683085,1.6490603769687,1.55760582848273,-1.64020002437846,-0.102121877468502,0.119475606029598,-0.0144946023770703,4.02481104167741,-0.000533276907870145,0.0037908960708822,0.00186189097030668,1.6490603769687,1.55760582848273,-1.64020002437846,-0.102121877468502,0.119475606029598,-0.0144946023770703,-0.844809308046258,1.61892660290493,-1.97024301573839,-0.043618261298797,0.29469225243724,0.0779111560299364
5.6,5.77481001093071,-1.60992508442363,2.01487139610333,0.149503466560922,0.0787763223382299,-0.0223844118144981,1.60216736998354,1.65479976754191,-1.9348263970213,0.0691090140322867,0.292559295214615,0.0302870443251081,4.13730547557357,-0.00357339770060605,0.000663914382608855,-0.00046639186572901,1.60216736998354,1.65479976754191,-1.9348263970213,0.0691090140322867,0.292559295214615,0.0302870443251081,-0.616158401685064,1.24658325584724,-1.65306642155776,-0.288786888705324,0.0536286938552405,-0.020415403248767
5.7,5.88818389975119,-1.43609087832339,1.75283375455854,0.247520349613177,0.189686250199804,0.0145364286158602,1.58869525725394,1.81679650760584,-1.9230617505427,-0.0482311037966172,0.196807226488896,0.000855209099745347,4.17879857518189,-0.00594417453731336,-0.00122057543939952,-0.000728507466323968,1.58869525725394,1.81679650760584,-1.9230617505427,-0.0482311037966172,0.196807226488896,0.000855209099745347,-1.55740730204765,2.0251922489479,-1.85245584504246,-0.480486862877231,-0.0903466335035374,-0.0317527001800515
5.8,6.00878568100182,-1.22630963073571,1.63077972652601,0.221963372559042,0.186536024273458,0.0229424122701126,1.37902512411883,2.15075374703893,-1.89221788574364,-0.147267964977787,0.138050499508147,0.0130155341293719,4.08566913876873,-0.00484611071382077,2.69430398098676e-05,-0.00167744997951516,1.37902512411883,2.15075374703893,-1.89221788574364,-0.147267964977787,0.138050499508147,0.0130155341293719,-1.51912504508741,1.76449633925491,-1.97740266500995,-0.392138128850373,0.0055942149568138,-0.0719531767636665
5.9,6.02616138448517,-0.987981047831845,1.61141437817567,0.158066676819849,0.15696126734579,0.0166546938048974,1.2086424213624,2.27556394723566,-2.12438379438489,-0.135725211236329,0.174673109688162,-0.0225231890375771,4.11643801496511,-0.00372662671746358,-0.000320254173377626,0.000300844102948813,1.2086424213624,2.27556394723566,-2.12438379438489,-0.135725211236329,0.174673109688162,-0.0225231890375771,-1.29230540275526,1.27458590538278,-1.77970578123014,-0.302159294587326,-0.0208818272879545,0.0114513022943402
6,6.02317251993994,-0.817478259284226,1.35779304262466,0.129352588991152,0.159864529168042,-0.0213945228561665,1.04930133530886,2.33263975806202,-2.22754385340534,-0.122938977292274,0.14091635504113,-8.03217396329083e-05,4.21297029689112,-0.00344475848919864,-0.000270971812151329,0.00102857413265011,1.04930133530886,2.33263975806202,-2.22754385340534,-0.122938977292274,0.14091635504113,-8.03217396329083e-05,-1.30651737431704,1.11508571503901,-1.56099575168789,-0.279303686763978,-0.0178729248921985,0.0420651360051287
6.1,6.06862662906633,-0.607838328427186,1.17061353218789,0.15383770599381,0.180253681756488,0.0149586184430629,0.946256419394278,2.48694531999861,-2.19313924183253,-0.105776851941424,0.163065385433133,0.0393747219100463,4.22074570413092,-0.00626093937428234,-0.00216451699026423,-0.00255676724851523,0.946256419394278,2.48694531999861,-2.19313924183253,-0.105776851941424,0.163065385433133,0.0393747219100463,-1.51469179460784,1.27098887774076,-1.60335188790421,-0.50654293282835,-0.16364587891709,-0.109274570003496
6.2,6.07197296155501,-0.40880952665393,1.0227451767866,0.134541586404098,0.175938778774898,0.00864367772781256,0.72422142806099,2.60736889372175,-2.30335371849263,-0.263915670750511,0.0646417617152592,-0.0596773730441798,4.27338125805111,-0.00279008507760157,-0.000331678016207716,0.00239337978074272,0.72422142806099,2.60736889372175,-2.30335371849263,-0.263915670750511,0.0646417617152592,-0.0596773730441798,-1.49229596682273,1.13357258177112,-1.4712221845218,-0.227444347795689,-0.0217323885004374,0.0995165785219531
6.3,6.03525371381876,-0.204613739545169,0.853049210237794,0.0439499352667247,0.134109613799388,-0.0401908663358754,0.549346437939582,2.70122730357197,-2.3445217366538,-0.139576158068731,0.130418855957726,0.0423437108347639,4.26088644635388,-0.0031526910761421,-0.000967684167474506,-0.000121614706269828,0.549346437939582,2.70122730357197,-2.3445217366538,-0.139576158068731,0.130418855957726,0.0423437108347639,-1.12236560298371,0.4198465521485,-1.37290111704403,-0.255734736040063,-0.0724039134109077,-0.00651621625400026
6.4,6.01793089075812,0.0157367769701113,0.693069418033187,0.0918942968842913,0.17111767893463,0.00977235000392343,0.485349174959506,2.65866893879025,-2.3703960087892,-0.166460833644893,0.102071858796494,-0.00669210445436654,4.30636724187337,-0.00478970963979986,-0.00217077075308889,-0.0001735024971775,0.485349174959506,2.65866893879025,-2.3703960087892,-0.166460833644893,0.102071858796494,-0.00669210445436654,-1.46807486494052,0.776038468082028,-1.35886304841136,-0.388629660464763,-0.164101039728906,-0.00872008721845339
6.5,6.02212348883487,0.187454922550891,0.486458379162654,0.0676980187624834,0.164783638633686,-0.0155182851288449,0.275942396844729,2.78838033718687,-2.4373855115723,-0.252046763351246,0.0462357002228695,-0.0108371972521022,4.39823424786059,-0.00297889332645904,-0.00127507192402929,0.00119372999670855,0.275942396844729,2.78838033718687,-2.4373855115723,-0.252046763351246,0.0462357002228695,-0.0108371972521022,-1.43025064223042,0.617317201173873,-1.15256616717462,-0.242579670467315,-0.095527334721127,0.04899655181759
6.6,5.97960532768002,0.419983188535599,0.356760242263384,0.0253164618545157,0.152242034785966,-0.00991941240861738,0.136591087149892,2.84736973887007,-2.39323015212703,-0.185230794771622,0.0830149079081827,0.0268924293250233,4.34246117429358,-0.00397783956785928,-0.00232534857006367,-0.000860955516811798,0.136591087149892,2.84736973887007,-2.39323015212703,-0.185230794771622,0.0830149079081827,0.0268924293250233,-1.31444098334259,0.232897745551963,-1.22828223824536,-0.322974620760105,-0.176788182872716,-0.0375815613952325
6.7,5.9564475300747,0.648622167081498,0.235786934443335,0.056664078402626,0.186253185971934,0.0211217286517888,0.0428853821209461,2.83030190280307,-2.45715912513408,-0.23092328354951,0.0438593599028852,-0.00615721241888557,4.42064717665555,-0.00474141011041798,-0.00328783957968434,-0.000758841129268288,0.0428853821209461,2.83030190280307,-2.45715912513408,-0.23092328354951,0.0438593599028852,-0.00615721241888557,-1.64479778772236,0.466081317336081,-1.13556086625627,-0.385181654180616,-0.250540508632096,-0.0332074580053159
6.8,5.8916723840604,0.803695993086662,0.0145421588952996,-0.00713707135012703,0.143296884296948,-0.0242036900457711,-0.241891771105857,2.872857450358,-2.50536339964781,-0.305269826092694,-0.0289086513680417,-0.0313712066349871,4.46827164803045,-0.00109957270438474,-0.00093838307089113,0.00258694371278743,-0.241891771105857,2.872857450358,-2.50536339964781,-0.305269826092694,-0.0289086513680417,-0.0313712066349871,-1.27733802019406,-0.0328765599779242,-0.965276556254471,-0.0914089829945487,-0.0701828717875812,0.108083885116066
6.9,5.80883467743634,1.03628932096739,-0.0987739432312029,-0.0293060303943303,0.138439501577651,-0.00795610362489853,-0.271426205469084,2.82346471088718,-2.42527903208656,-0.140914080131524,0.0813827887102728,0.0669552988929235,4.3926723607797,-0.00477361312843352,-0.00370174266261235,-0.00283164188096806,-0.271426205469084,2.82346471088718,-2.42527903208656,-0.140914080131524,0.0813827887102728,0.0669552988929235,-1.21384665845356,-0.247777181674959,-1.11244490476583,-0.387024706556038,-0.283492065834653,-0.120351426760049
7,5.79507244475082,1.23045693623044,-0.235376541350165,0.0462104157302775,0.201272101515118,0.0507337343045945,-0.35762477805659,2.77933160294919,-2.5172900237938,-0.299237072598082,-0.031427379842814,-0.0410155506197971,4.55934019884735,-0.00427627764025135,-0.00405279667454971,-0.000428665288343394,-0.35762477805659,2.77933160294919,-2.5172900237938,-0.299237072598082,-0.031427379842814,-0.0410155506197971,-1.84004151685527,0.328338390021502,-0.884935668960773,-0.348411053404548,-0.309858648007182,-0.0189019021359295
7.1,5.71949926757453,1.38301921059193,-0.448139255646852,-0.0573614493668604,0.138150820013276,-0.0179083386613974,-0.703359020074242,2.90083422566868,-2.51631149438339,-0.308946060884144,-0.0694329696661306,-0.00680982435721346,4.57961971809025,-0.00135917580759074,-0.00188674798583223,0.001207069459736,-0.703359020074242,2.90083422566868,-2.51631149438339,-0.308946060884144,-0.0694329696661306,-0.00680982435721346,-1.26846194269598,-0.50246491819365,-0.752947479715003,-0.112254542589372,-0.144032625259521,0.0503111454624528
7.2,5.56501704267069,1.62180078458279,-0.536303237584715,-0.0687386334661218,0.127541081067807,0.00860700817887078,-0.715642984917554,2.69277270087706,-2.40714663693315,-0.188831338583762,0.0119473030354556,0.0388836861385434,4.43851695256395,-0.00366080156080929,-0.00372918881879851,-0.00221229496726995,-0.715642984917554,2.69277270087706,-2.40714663693315,-0.188831338583762,0.0119473030354556,0.0388836861385434,-1.12116352808782,-0.619387451370444,-1.02586188171197,-0.297655191980737,-0.286138294884859,-0.0937632761666139
7.3,5.49702864978506,1.72243584318417,-0.702889825853689,-0.0448577835886171,0.1472471404894,0.0175094776848224,-0.81592222885006,2.57968574421685,-2.60016169983391,-0.309064937881969,-0.08807788321633,-0.0498101575694083,4.62878921932479,-0.00130916237835589,-0.00239361297731435,0.00160213798782219,-0.81592222885006,2.57968574421685,-2.60016169983391,-0.309064937881969,-0.08807788321633,-0.0498101575694083,-1.34938865675065,-0.438828343517336,-0.661812284080076,-0.108816197465035,-0.183425194782123,0.0672947132512511
7.4,5.45110326422767,1.9013904162558,-0.903184915561772,-0.0746830157338117,0.140984293340585,0.0146341778287923,-0.943495265326648,2.64183145995009,-2.45040583734318,-0.186078998285972,-0.0078275435583087,0.0666871791143211,4.61513075664397,-0.00434126453522533,-0.00472181351613911,-0.00373356765583521,-0.943495265326648,2.64183145995009,-2.45040583734318,-0.186078998285972,-0.0078275435583087,0.0666871791143211,-1.28318306642769,-0.707556558398021,-0.696793509505799,-0.35223732215422,-0.363028510975018,-0.157650221021027
7.5,5.32026156038522,2.07049594658011,-0.99747725095809,-0.0537115617963777,0.151277329758473,0.0473706773682764,-1.09884144831947,2.47242465759609,-2.49063097187121,-0.344597570992395,-0.139775793586314,-0.0709947378987559,4.64686193631574,-0.00117865517715665,-0.00270345688606783,0.00130334450911084,-1.09884144831947,2.47242465759609,-2.49063097187121,-0.344597570992395,-0.139775793586314,-0.0709947378987559,-1.3733584802941,-0.56460639951681,-0.635665717941762,-0.0984926547718371,-0.20793731873556,0.0549855028161965
7.6,5.13494875341029,2.12097958055538,-1.21971383984068,-0.193228743520293,0.0376335759557158,-0.0655755112939485,-1.34574713135952,2.36313905085421,-2.5796361235584,-0.267172707236274,-0.102250972692598,-0.00565311837687026,4.67526111337219,0.00296112169101152,-0.000265627654122073,0.0034163384267059,-1.34574713135952,2.36313905085421,-2.5796361235584,-0.267172707236274,-0.102250972692598,-0.00565311837687026,-0.462181896385045,-1.76908337657363,-0.63999466661957,0.236882120101775,-0.0207316233600859,0.144328528257613
7.7,4.99996281683748,2.27863860816788,-1.36615207674951,-0.142136895047814,0.0812012936835087,-0.00202949665335175,-1.13024472483242,1.9188282961691,-2.36075769485138,-0.0563896402562458,0.010237647487719,0.075560278017055,4.46495234815135,-0.00281711916702331,-0.00337079128122312,-0.00344445220145695,-1.13024472483242,1.9188282961691,-2.36075769485138,-0.0563896402562458,0.010237647487719,0.075560278017055,-0.719584642120043,-1.26354163203923,-0.99927594507821,-0.228913999243472,-0.259802213448787,-0.145027054586603
7.8,4.95673243080322,2.22634558336757,-1.51033632986773,-0.094957080215419,0.0946083059481467,0.00555417834406831,-1.31334876647554,1.88275971984282,-2.73763687015701,-0.330732355533564,-0.154575193306274,-0.105449638398316,4.81575858005061,0.00245146339955453,-0.000453381827786466,0.00478518129527148,-1.31334876647554,1.88275971984282,-2.73763687015701,-0.330732355533564,-0.154575193306274,-0.105449638398316,-0.900677756236813,-0.918223590190376,-0.264751557808335,0.194627822493827,-0.0358640567461047,0.202245649196317
7.9,4.8669172619754,2.39521391689322,-1.75181169618187,-0.172657446984549,0.0677861648985545,-0.0269291555379147,-1.36761612295191,1.96600046321027,-2.41442804008745,-0.0655268528215495,0.0133361303710053,0.122837342129758,4.692759848688,-0.00260384768140014,-0.0035721417312907,-0.00448706394336952,-1.36761612295191,1.96600046321027,-2.41442804008745,-0.0655268528215495,0.0133361303710053,0.122837342129758,-0.669458524977948,-1.59499313633888,-0.58526140380123,-0.211104056243839,-0.275365279949024,-0.188855416656452
8,4.74398951215868,2.53479192474216,-1.77501121962705,-0.0787491109859333,0.128004740870101,0.0668406741148841,-1.39913357711767,1.60277022389971,-2.50268687570857,-0.289568511892,-0.144346306626395,-0.0919352240894339,4.7203536582728,0.0002842616763714,-0.0022079525029463,0.00129287942618767,-1.39913357711767,1.60277022389971,-2.50268687570857,-0.289568511892,-0.144346306626395,-0.0919352240894339,-1.14913594318612,-0.821264871881128,-0.475549548528884,0.0197792299043104,-0.171588407572876,0.0550590046084398
8.1,4.64396779593806,2.52338610979151,-1.95942275836013,-0.185481845186555,0.0590600494696249,-0.026688041032893,-1.61708945167383,1.74233012026409,-2.61570299704782,-0.168110624544616,-0.0844829571648989,0.0363589115581973,4.87637375172989,0.000519185148472526,-0.00158184177866884,-0.000404108942363482,-1.61708945167383,1.74233012026409,-2.61570299704782,-0.168110624544616,-0.0844829571648989,0.0363589115581973,-0.613582908965709,-1.78286451799497,-0.241249089325159,0.0403607753798513,-0.122836202333051,-0.0164530895850276
8.2,4.46464567128622,2.68882415145923,-2.13484776947202,-0.140672672197706,0.0841391027120713,0.0350742227752753,-1.55094761941674,1.2962237752762,-2.35993442792247,-0.150180791362719,-0.0740195562408927,0.00362929876054357,4.68822426048975,-0.000509689746024593,-0.00249045138721848,-0.00177569902413465,-1.55094761941674,1.2962237752762,-2.35993442792247,-0.150180791362719,-0.0740195562408927,0.00362929876054357,-0.733630321657426,-1.3412152357434,-0.559015451902798,-0.0430670393769782,-0.193350960707757,-0.074283350111564
8.3,4.40462149521402,2.63851506781553,-2.17774150143735,-0.126658155237835,0.100942641290025,0.0390047530876245,-1.61589143839304,1.32869265923217,-2.61224398806642,-0.179907444499745,-0.103350966914883,-0.0151076212244402,4.90234195737409,-0.000633049654846971,-0.0023953055159664,-0.0010558932620222,-1.61589143839304,1.32869265923217,-2.61224398806642,-0.179907444499745,-0.103350966914883,-0.0151076212244402,-0.931074637894938,-1.27580299550475,-0.133365595236549,-0.0529790368511262,-0.186261376128943,-0.0438790901016375
8.4,4.22934587492566,2.69468065479104,-2.47166081428319,-0.188645043358214,0.0425889509275719,-0.00892392312818323,-1.83392704752448,1.14673251627533,-2.48217764721364,-0.221054747214467,-0.139620978080288,-0.0349930289346895,4.91295622545472,0.0031820316773359,-0.000198710399849606,0.00211137284677336,-1.83392704752448,1.14673251627533,-2.48217764721364,-0.221054747214467,-0.139620978080288,-0.0349930289346895,-0.427353932077948,-1.83889477074936,-0.167158606936161,0.255008568310081,-0.017268816871301,0.089785770917772
8.5,4.03541307572364,2.71031815855661,-2.55508496449183,-0.214519909159305,0.0215655278338816,-0.0168975117540781,-1.73908597878743,0.804011421575946,-2.41564562783859,-0.0525277352179621,-0.0510497429221159,0.03908960551168,4.81073799929177,0.00136212985786252,-0.000863205419113521,-0.0010481408487163,-1.73908597878743,0.804011421575946,-2.41564562783859,-0.0525277352179621,-0.0510497429221159,0.03908960551168,-0.237299470246983,-2.04448638229346,-0.411246636635466,0.108802711025732,-0.0679958687963113,-0.043515874980168
8.6,3.97201631566875,2.65928461568746,-2.67608352345556,-0.136189344637799,0.0715529163583953,0.0332437003713207,-1.68481184283248,0.570880828319651,-2.51437479650297,-0.107015607757097,-0.0730258023697393,-0.0176131640082372,4.91509242494715,0.000476695020477382,-0.00154527247634136,-0.000725291277755792,-1.68481184283248,0.570880828319651,-2.51437479650297,-0.107015607757097,-0.0730258023697393,-0.0176131640082372,-0.651526383984021,-1.35703674837504,-0.0957579391069512,0.0369941686243679,-0.121220876658129,-0.0299027305155872
8.7,3.88673809423954,2.62276534514746,-2.86260841385384,-0.15781977714974,0.0635155609544407,0.0156123538183276,-1.84848458955369,0.648696710774036,-2.48955666883209,-0.135145777028377,-0.097695277775148,-0.00660215296355018,5.01892190640319,0.00114835091233127,-0.00114863593406993,-0.000407533786578821,-1.84848458955369,0.648696710774036,-2.48955666883209,-0.135145777028377,-0.097695277775148,-0.00660215296355018,-0.604506845771712,-1.58723310988567,0.0831072438639353,0.0914287127390344,-0.0904899064748376,-0.0165007829666366
8.8,3.65966324758365,2.65154984292634,-3.03420231157941,-0.21645690325365,0.00790582576249441,-0.0205889095751985,-1.96608113569243,0.354756361077077,-2.42361499873496,-0.137179030984398,-0.119661461742291,-0.0339081799396983,5.01536850908292,0.00464510859553975,0.000872447681257392,0.00257932577824827,-1.96608113569243,0.354756361077077,-2.42361499873496,-0.137179030984398,-0.119661461742291,-0.0339081799396983,-0.121785204028164,-2.15225593184076,-0.013641089897801,0.373583424488276,0.064983241234601,0.109511132402642
8.9,3.50139546708787,2.58258071717275,-3.13953634363686,-0.214431438803052,0.00111996257183462,-0.0243782114566995,-1.82764922101719,-0.00763129826749021,-2.38023396886166,0.0306010003283407,-0.0281018689759587,0.0434789599114521,4.98208766396727,0.00206200242272231,-2.47676613045929e-05,-0.000909658184104206,-1.82764922101719,-0.00763129826749021,-2.38023396886166,0.0306010003283407,-0.0281018689759587,0.0434789599114521,-0.0625845864347973,-2.1194002253797,-0.0740349312448494,0.165674039045588,-0.00342302647707043,-0.0377392988547736
9,3.44581685745111,2.46302084778015,-3.26469981738681,-0.135060933806392,0.0507687045356081,0.0236726411989359,-1.79810617532025,-0.181180952072995,-2.4215657266282,-0.0546478487126369,-0.0567300247053883,-0.0225279883383618,5.05808062918062,0.00156362594571367,-0.000588653857121257,-5.60499962350822e-05,-1.79810617532025,-0.181180952072995,-2.4215657266282,-0.0546478487126369,-0.0567300247053883,-0.0225279883383618,-0.476303510204693,-1.37380732277495,0.201119168765574,0.125127500688708,-0.0477102443459122,-0.00174747922597293
9.1,3.28377787252999,2.33674537676426,-3.4776011044345,-0.220047250754805,-0.0144903511728116,-0.0522250807637751,-2.03771591519465,-0.182265711171012,-2.43822038534658,-0.108974391212948,-0.118711227058056,-0.044544945633142,5.21882761847474,0.00662414314476123,0.00202795100657355,0.00458604799453813,-2.03771591519465,-0.182265711171012,-2.43822038534658,-0.108974391212948,-0.118711227058056,-0.044544945633142,0.0284623004998067,-2.28288516639505,0.374904126201811,0.53347097850564,0.154005673287643,0.194099221263036
9.2,3.1373801638586,2.412768374798,-3.55556117845283,-0.178150228579018,0.0206893108563348,0.00187710563701752,-1.78457242669392,-0.558405624618744,-2.16746261031255,0.178955303522256,0.048047683577129,0.120602211398564,5.00564556942633,-0.00147911811916258,-0.00158257439028785,-0.00579545703407965,-1.78457242669392,-0.558405624618744,-2.16746261031255,0.178955303522256,0.048047683577129,0.120602211398564,-0.200503492960539,-1.77447421025291,0.0407355001201726,-0.11961101067667,-0.122797130941882,-0.243992056479837
9.3,3.06766177645137,2.18157496870779,-3.62499328550139,-0.0948196433372945,0.0529635786993028,0.0389325052746601,-1.93187231465348,-0.636959345204043,-2.44893680005101,-0.189367480543664,-0.131284317440689,-0.145087230000886,5.26103128428996,0.00481970260027298,0.00109920336748907,0.00502946586203794,-1.93187231465348,-0.636959345204043,-2.44893680005101,-0.189367480543664,-0.131284317440689,-0.145087230000886,-0.51532829450935,-1.01703251478273,0.650109096460877,0.387440169734816,0.081002224796274,0.212748532646782
9.4,2.92976672412534,2.16803226163713,-3.83950196762969,-0.210821005512735,0.00677524002687882,-0.0380087250949983,-2.00231153349776,-0.465712424071828,-2.14484035757166,0.11633044350459,0.0177430603113176,0.128210904160961,5.18859077160251,0.000461681698200685,-0.000848020121451624,-0.00427466658011587,-2.00231153349776,-0.465712424071828,-2.14484035757166,0.11633044350459,0.0177430603113176,0.128210904160961,-0.151219339637445,-2.16737715392789,0.33719201378323,0.0370932693009761,-0.0657363984688849,-0.179877054340889
9.5,2.72591315123528,2.16874676451903,-3.89084782574205,-0.119290512248958,0.0399258614532564,0.0450712373603745,-1.97903817457901,-1.05179147767536,-2.2457576831708,-0.0853628514971648,-0.100254748482265,-0.107532972168879,5.25953824223927,0.00415507994960338,0.00102958377097137,0.00295913210509681,-1.97903817457901,-1.05179147767536,-2.2457576831708,-0.0853628514971648,-0.100254748482265,-0.107532972168879,-0.360060940316086,-1.26936404610987,0.625997370831962,0.334114542196538,0.0759102314087087,0.125336258006074
9.6,2.63961420973189,1.90048183673826,-4.02654470680162,-0.177899233057011,0.00663059369016528,-0.0311121167595066,-2.02543574551843,-0.883156861313616,-2.1175593329301,0.101763043326985,0.00220738334979555,0.0737269053125082,5.2701465184381,0.00135664538753313,-6.59162338941481e-05,-0.00201902403283509,-2.02543574551843,-0.883156861313616,-2.1175593329301,0.101763043326985,0.00220738334979555,0.0737269053125082,-0.126773652773749,-1.8621926978016,0.563714093825691,0.109167448132902,-0.00603664478632671,-0.0847623976381967
9.7,2.48826357292073,1.92498389152588,-4.11171011758783,-0.0935047499149272,0.0570384614777458,0.0514437513561756,-1.97041527387657,-1.21500587238267,-2.08748844506273,-0.000990195669896748,-0.0411327321283175,-0.0325132534923353,5.28676837028001,0.00128793000565124,-0.000497091669933448,-0.000895733063655538,-1.97041527387657,-1.21500587238267,-2.08748844506273,-0.000990195669896748,-0.0411327321283175,-0.0325132534923353,-0.548579502453291,-1.01678954101256,0.70022734115433,0.103210130828732,-0.0407696889000331,-0.0373815022919414
9.8,2.36041249739083,1.6929147890946,-4.24078668923499,-0.154388988497535,0.0160169761617678,-0.012164755045276,-2.16399807127466,-1.11876470103175,-2.065838081171,-0.013863999258875,-0.0755680592677921,-0.0264395113575709,5.38442523703038,0.00391568510007999,0.00115230272238238,0.00182766962619117,-2.16399807127466,-1.11876470103175,-2.065838081171,-0.013863999258875,-0.0755680592677921,-0.0264395113575709,-0.190557213888104,-1.65379922631101,0.829397379549594,0.315338631196542,0.0868132009421107,0.077504101970112
9.9,2.15521282535703,1.68904464752046,-4.34453733563033,-0.145242566011703,0.0117145694638443,0.00119943728041056,-2.06853911950068,-1.42486354236056,-1.91739793597433,0.119403177893275,0.00377464555189325,0.0465450719457757,5.34517290297987,0.00119828866388425,-1.08163103019398e-05,-0.00225775904001934,-2.06853911950068,-1.42486354236056,-1.91739793597433,0.119403177893275,0.00377464555189325,0.0465450719457757,-0.122055460807143,-1.54738740754749,0.767059521740983,0.0963706465544133,-0.00208916665900605,-0.0949228610275278
10,2.04527133942726,1.45652331106588,-4.41468443935996,-0.0987979960272009,0.0322521367067031,0.0214162760222039,-2.08323267418461,-1.56409591300456,-1.92983355410423,0.00383198136220861,-0.0522040345472298,-0.0552697435544625,5.41344367642763,0.00303954039579297,0.000723225156826447,0.00160525049079391,-2.08323267418461,-1.56409591300456,-1.92983355410423,0.00383198136220861,-0.0522040345472298,-0.0552697435544625,-0.324478042913853,-1.0751305610782,0.958486338744153,0.24464021382766,0.0534652058963101,0.0680594245654093
10.1,1.91796606636459,1.32219211424529,-4.52699281047036,-0.131396841630922,0.0172403641314233,-0.0100397291298195,-2.14519861127107,-1.52553823411119,-1.79860909165643,0.100900258899806,-0.0098983476376693,0.0403983079761174,5.41742391616717,0.00166759015089658,0.000171679446869615,-0.00143545734081956,-2.14519861127107,-1.52553823411119,-1.79860909165643,0.100900258899806,-0.0098983476376693,0.0403983079761174,-0.19941987546647,-1.41764105133346,0.929853495866844,0.134278225257585,0.0121920524555695,-0.060272642499994
10.2,1.71338953722261,1.21231708018985,-4.61850005050405,-0.118026252228256,0.00480732981381892,-0.000743352177586074,-2.1844127532845,-1.79897530964233,-1.79491824563353,0.026636413001219,-0.0578547228607424,-0.0528552373516087,5.51283625778678,0.0042991126664432,0.00161102176832264,0.00254761152410982,-2.1844127532845,-1.79897530964233,-1.79491824563353,0.026636413001219,-0.0578547228607424,-0.0528552373516087,-0.0536001706899137,-1.29826015279841,1.13884021337565,0.346335595390355,0.122148318241371,0.107771146856407
10.3,1.56643235964396,0.995876953068192,-4.71534587684021,-0.138598841225104,-0.0138967290477976,-0.0353014384644392,-2.14308295530941,-1.88645932865252,-1.61981491862292,0.154847097557842,0.010292910480083,0.0423319351325662,5.49575271387906,0.00273832873131047,0.00105523078067019,-0.000316770985001287,-2.14308295530941,-1.88645932865252,-1.61981491862292,0.154847097557842,0.010292910480083,0.0423319351325662,0.0975866876806937,-1.52293030693282,1.0750517539904,0.220701680481351,0.0804569460434077,-0.0131252842187971
10.4,1.48778204112884,0.889946955245187,-4.70983528979057,-0.0380494830456463,0.0573327264514935,0.0469055173390818,-2.02995640556799,-2.01281233539564,-1.55531861376277,0.137241390421979,0.0276560988774146,0.0149978424165424,5.43821844336691,-0.000784080517817375,-0.00136173201992768,-0.00292261889991578,-2.02995640556799,-2.01281233539564,-1.55531861376277,0.137241390421979,0.0276560988774146,0.0149978424165424,-0.602698436454172,-0.442489144338378,1.04070676513482,-0.0635237429353486,-0.106191313651731,-0.123087610426467
10.5,1.35327335067095,0.66099744914512,-4.81823456700883,-0.0757492177466416,0.0263318843857581,-0.000300152807537779,-2.31655405705939,-1.85778372238311,-1.58469372504802,-0.0395998634385092,-0.104139785029838,-0.0781253704153076,5.58451629217987,0.00470459939497063,0.00173586133972374,0.00371977939521872,-2.31655405705939,-1.85778372238311,-1.58469372504802,-0.0395998634385092,-0.104139785029838,-0.0781253704153076,-0.293478107404342,-0.845148569543558,1.32314346293815,0.379033792098269,0.131921529554403,0.157181253700665
10.6,1.09589901529396,0.645097200935153,-4.90878127236957,-0.130979567001896,-0.0183271782790881,-0.028094447554984,-2.2477993665496,-2.00964855597115,-1.35969028559843,0.21224271645584,0.0371658064896561,0.0833671880967079,5.54541898330172,0.0012858440932032,0.000324299558136059,-0.00260175410068104,-2.2477993665496,-2.00964855597115,-1.35969028559843,0.21224271645584,0.0371658064896561,0.0833671880967079,0.160741789242077,-1.45361211121683,1.18399202786537,0.103649916325181,0.0246750838982681,-0.109598621937406
10.7,0.942190185211976,0.406876831728216,-4.93804432623596,-0.0537192154677263,0.00947223299307281,0.0067721424451213,-2.18280316982234,-2.34549995969358,-1.38441099491084,0.0522159925032262,-0.0451259819609799,-0.0842797816783054,5.64013987496087,0.0040963639516521,0.00161827980163543,0.00368668908453285,-2.18280316982234,-2.34549995969358,-1.38441099491084,0.0522159925032262,-0.0451259819609799,-0.0842797816783054,-0.102589567073783,-0.606385025590289,1.45350228916219,0.330018991143899,0.122935194826655,0.155734507449021
10.8,0.860683554149758,0.1395683328047,-5.01114187132182,-0.0911809791647144,-0.00757169659392632,-0.0423866490349763,-2.21728642330386,-2.17426773393793,-1.15048438861921,0.200268030860673,0.0278877193623621,0.0749525267839095,5.57174551911798,0.00171482425520164,0.000658062520852998,-0.00152140734095146,-2.21728642330386,-2.17426773393793,-1.15048438861921,0.200268030860673,0.0278877193623621,0.0749525267839095,0.0409528985630472,-1.01731614272774,1.28688169014566,0.138248872632371,0.0503986294188909,-0.0640415396202339
10.9,0.683969721063534,0.0766006220970228,-5.00146680330279,-0.0274517474541475,0.0199385422183128,0.0185837992968379,-2.19165424510585,-2.3690313065415,-1.18723907107672,0.105839888610515,-0.0103341748001255,-0.0440019442410775,5.63810047064409,0.00203445873187838,0.000659195866318044,0.00121633506908381,-2.19165424510585,-2.3690313065415,-1.18723907107672,0.105839888610515,-0.0103341748001255,-0.0440019442410775,-0.218941013725123,-0.31363522062889,1.45971186185336,0.16378104373288,0.0495020348285701,0.0514684519620361
11,0.562945865764084,-0.15269223058345,-5.07549848888337,-0.049646798048101,0.0117169174011462,-0.0209129088534579,-2.2546358555813,-2.23093056511264,-1.00021861690967,0.135495940234905,-0.00261822515163619,0.0244024854158104,5.60662122819528,0.00203830352976946,0.000569561875221167,-0.000152813286113647,-2.2546358555813,-2.23093056511264,-1.00021861690967,0.135495940234905,-0.00261822515163619,0.0244024854158104,-0.142827673452103,-0.553607249633604,1.38865731481454,0.164236823827387,0.0432414244078316,-0.00631529294741852
11.1,0.40761780741156,-0.200838798708795,-5.04262446950712,-0.00539251516552461,0.0394609963520156,0.0317793360415621,-2.21170463877114,-2.29280383255316,-0.957834185899278,0.163388366948565,0.0174510164601207,0.014773024413581,5.60168560191678,-0.000434776660039181,-0.000866088735909498,-0.00219459172527143,-2.21170463877114,-2.29280383255316,-0.957834185899278,0.163388366948565,0.0174510164601207,0.014773024413581,-0.439832278657507,-0.0744268611612168,1.38448679216138,-0.035279930479518,-0.0674169807810116,-0.0924795918530598
11.2,0.277768669039471,-0.384389254461534,-5.08198124156838,0.0150603169687626,0.0476905784333158,0.02987244310637,-2.31425942589944,-2.20075210484872,-0.877380204477567,0.0618358968706315,-0.0410123130721372,-0.0329277924899287,5.62920653816575,0.00103413955886835,-0.00026862267889589,0.000147997403800578,-2.31425942589944,-2.20075210484872,-0.877380204477567,0.0618358968706315,-0.0410123130721372,-0.0329277924899287,-0.541480518514927,0.153444378570856,1.43433718224716,0.0831223926356896,-0.0215056728712828,0.00635399001116203
