time,x,y,z,roll,pitch,yaw,xdot,ydot,zdot,p,q,r,thrust,roll angle,pitch angle,yaw angle,_xdot,_ydot,_zdot,_p,_q,_r,_xddot,_yddot,_zddot,_phiddot,_thetaddtot,_yawddot
0,2.01841953230695,2.01841953230695,0.0184195323069548,0.0184195323069548,0.0184195323069548,0.0184195323069548,0.0184195323069548,0.0184195323069548,0.0184195323069548,0.0184195323069548,0.0184195323069548,0.0184195323069548,8.89442287037517,-0.00528916520267527,0.00252694157446001,-0.00177338948258217,0.0184195323069548,0.0184195323069548,0.0184195323069548,0.0184195323069548,0.0184195323069548,0.0184195323069548,-0.333567243166202,0.321554432609422,7.97281103845417,-0.426545694304088,0.19438023538735,-0.07482656377478
0.1,1.22036642022637,1.22036642022637,0.0203664202263731,0.0201135490067535,0.0197202617545105,0.0194755207543015,-0.0818629185315242,0.117602498575316,4.39792777497535,-0.224821189047511,0.116959845563611,-0.0312475916017988,5.56611147926106,-0.000488852652398897,-0.00122778450924108,0.000534067102064045,-0.0818629185315242,0.117602498575316,4.39792777497535,-0.224821189047511,0.116959845563611,-0.0312475916017988,-0.223790264617343,0.219576899690975,1.31780714700033,-0.039426528650817,-0.0944420131303711,0.0225343909868786
0.2,1.29706004658223,1.38658588982545,2.02570608325404,-0.101141594236745,0.0562808929769372,-0.0137708728049761,-0.0594200989876377,0.0623877514229908,1.12770613573327,-0.0406520649632047,-0.0387947878322647,0.0100545122537875,6.76055487655991,0.000623036631905804,0.000451740423684772,0.000173628959891724,-0.0594200989876377,0.0623877514229908,1.12770613573327,-0.0406520649632047,-0.0387947878322647,0.0100545122537875,-0.775419432958951,-1.35466678825194,3.62071150578809,0.0502598753191349,0.0347722782676062,0.00733319050881897
0.3,1.30900513011987,1.37261848154805,0.790534019602826,-0.0244595211276818,-0.00306608603110648,0.0102617618410569,-0.197610012627201,-0.203199675902165,2.52734818435775,0.0100065181348275,0.0295213718683567,0.00696336732345668,6.47606610785218,-0.00340199877241957,0.000346147484759235,-0.000821563177289756,-0.197610012627201,-0.203199675902165,2.52734818435775,0.0100065181348275,0.0295213718683567,0.00696336732345668,0.04294889568945,-0.316347296198847,3.13819712213378,-0.274352428149665,0.0266326856975124,-0.0346590720588687
0.4,1.22145940767552,1.23478362789654,1.50275214741073,-0.0234649086618135,0.00605675035317807,-0.0106721481167185,-0.146573333749294,-0.155472130802259,2.36258435335999,-0.182673127519582,0.0103341910783547,-0.0323246901724056,6.10222838657378,0.000375623085617082,-2.93688817795281e-05,0.00203062541743488,-0.146573333749294,-0.155472130802259,2.36258435335999,-0.182673127519582,0.0103341910783547,-0.0323246901724056,-0.0769502521983574,-0.285545236262801,2.39087323532056,0.0302876250771105,-0.00226777782346355,0.0856879652248363
0.5,1.28704541338515,1.30210030740305,1.60624807598192,-0.0662647668224228,0.0443727511671114,0.0164893810837941,-0.0845070891805853,-0.0957567739243789,2.14637553957464,0.00921095617540836,0.0345203259225377,0.0700069692316341,6.17441052562547,-0.00332427217532241,-0.002777825716257,-0.00407666432175777,-0.0845070891805853,-0.0957567739243789,2.14637553957464,0.00921095617540836,0.0345203259225377,0.0700069692316341,-0.533012224994837,-0.826594039346979,2.49959063567674,-0.268053341261737,-0.213576255728207,-0.171996654916484
0.6,1.26676952280786,1.28161122919639,1.61846814998249,-0.018611431500891,0.0240109297314782,0.0312630428830411,-0.201480838954718,-0.243784157605286,2.32346475123741,-0.180178673002201,-0.108629938195457,-0.0933679260838546,6.01619363842967,-0.000893902668842531,0.000703933232944418,0.00296075166693188,-0.201480838954718,-0.243784157605286,2.32346475123741,-0.180178673002201,-0.108629938195457,-0.0933679260838546,-0.281690378212547,-0.232845867391939,2.21683569827025,-0.072150695611069,0.0539992991115741,0.124943997983454
0.7,1.24836640795996,1.24948675538905,1.87337171792194,-0.0733454113992405,-0.00537009819270237,-0.00596994689876447,-0.160861830217332,-0.18965144949047,2.2965216234074,-0.0592067002302169,0.0589999390682769,0.088709204185683,5.8121068548453,-0.00246879603092736,-0.00277110540496656,-0.00389442197659921,-0.160861830217332,-0.18965144949047,2.2965216234074,-0.0592067002302169,0.0589999390682769,0.088709204185683,0.0571686502748063,-0.852175001432987,1.78279404979305,-0.199068756960949,-0.212897551879021,-0.164312281399439
0.8,1.22074736513865,1.22621941632792,1.96148005060486,-0.05598853573549,0.0349434670737701,0.04123589289824,-0.202592372337481,-0.306418067426978,2.1639084018949,-0.156750172104043,-0.114745115688314,-0.0882156472313101,5.84248751282054,-0.00077023030774138,-0.00118069837928338,0.00226670690813302,-0.202592372337481,-0.306418067426978,2.1639084018949,-0.156750172104043,-0.114745115688314,-0.0882156472313101,-0.380288485507829,-0.670129648547375,1.84954322740748,-0.0621543084882179,-0.0910331737892928,0.0956616042355534
0.9,1.20700922718771,1.17849420995853,2.05388010605646,-0.0950834947800902,-0.0290778634794914,-0.0232181517665541,-0.211456450662532,-0.352363007330367,2.29065250643193,-0.0826651446967367,-0.0429053164523994,0.0559787635269779,5.60970381600042,-0.00143145109855933,-0.000807872154508332,-0.00152570897229634,-0.211456450662532,-0.352363007330367,2.29065250643193,-0.0826651446967367,-0.0429053164523994,0.0559787635269779,0.299900354691835,-1.0724253322978,1.35400785098704,-0.115436706502267,-0.0617864040722909,-0.0643745611811552
1,1.14036880005689,1.09128111708877,2.20050250248533,-0.113704624364549,-0.0466914670892298,-0.0048569633742317,-0.276381175910388,-0.496848085927439,2.09950105451466,-0.148731791154335,-0.0737738014047892,-0.0638060473373078,5.60807202970228,0.00150822645888149,-0.000502385980431118,0.00326373609038064,-0.276381175910388,-0.496848085927439,2.09950105451466,-0.148731791154335,-0.0737738014047892,-0.0638060473373078,0.513940461059281,-1.27509237975242,1.3215718650557,0.121632725702028,-0.0386835444942898,0.137702206421329
1.1,1.11629039138878,1.0271852340615,2.26249976146356,-0.13515803611041,-0.0507017201015276,-0.0436281029142448,-0.215242327759031,-0.582285523075757,2.18426189885714,-0.0147522036040779,-0.0469389872816875,0.0558284938012719,5.44660773399031,-0.000946972468516512,-0.00164639356734078,-0.00057023059504026,-0.215242327759031,-0.582285523075757,2.18426189885714,-0.0147522036040779,-0.0469389872816875,0.0558284938012719,0.482494595169081,-1.49028883522072,0.969999136600219,-0.0764246356870986,-0.126114841187122,-0.0240892947927123
1.2,1.16279053014215,1.0022918139755,2.46546744469864,-0.044666198219846,-0.00473284240193261,0.0455966879016766,-0.115957727967151,-0.623654538908106,2.10883260696546,-0.084330540019874,-0.0707205499761049,0.00463841236934247,5.38385604011446,-0.00362966999350356,-0.00339844929069809,-0.00229443472403884,-0.115957727967151,-0.623654538908106,2.10883260696546,-0.084330540019874,-0.0707205499761049,0.00463841236934247,0.0727729184932137,-0.477972581643075,0.946852223408078,-0.292719388614571,-0.261391712879411,-0.0968534456903189
1.3,1.14803740046086,0.909000073487886,2.53000985248653,-0.114075199203809,-0.0541862630865193,-0.0106859140503463,-0.138006546624244,-0.799175575680651,2.02715642917587,-0.23771784299496,-0.180407875966461,-0.0664515784577598,5.29038962649066,0.00391678652777828,0.000885375204194966,0.00366116067676957,-0.138006546624244,-0.799175575680651,2.02715642917587,-0.23771784299496,-0.180407875966461,-0.0664515784577598,0.556425546375287,-1.2104032907795,0.6865805901413,0.31587309914589,0.0680896009573509,0.154413787913512
1.4,1.15784071332184,0.821261179403553,2.63259427619077,-0.16595792276819,-0.0881530928656523,-0.0233056880933057,-0.0937125006187811,-0.801698099776382,2.00569005123577,0.0978661943742946,0.0122902543668159,0.0858177675475217,5.17536964342173,-0.0023631084251834,-0.00307257953854457,-0.00295625730216547,-0.0937125006187811,-0.801698099776382,2.00569005123577,0.0978661943742946,0.0122902543668159,0.0858177675475217,0.858656899515202,-1.73039251064427,0.358886560102135,-0.190801538124307,-0.235577706319104,-0.124878660166268
1.5,1.1435691497329,0.752203512981588,2.73233009488186,-0.0431277334590963,-0.0260868669023493,0.0298712004614131,-0.0771547082171923,-0.930769351537013,1.92413109927516,-0.175795288621864,-0.170618058014368,-0.0744410838464851,5.17961446721082,-0.000635744529279647,-0.00194092061371998,0.00213068161532339,-0.0771547082171923,-0.930769351537013,1.92413109927516,-0.175795288621864,-0.170618058014368,-0.0744410838464851,0.283176927080243,-0.438369563067803,0.536074959611671,-0.0511979723645639,-0.149534722262554,0.0897741986838147
1.6,1.14559404431651,0.657184492136633,2.82617064838346,-0.160393192451811,-0.105774426290833,-0.0374002699236781,0.0187296902373076,-1.10540769860271,1.90543598701516,-0.109450252931883,-0.127423742538123,0.0405802153910008,4.98699330736566,0.0036947438320143,0.000294783037570315,-0.00017125842076789,0.0187296902373076,-1.10540769860271,1.90543598701516,-0.109450252931883,-0.127423742538123,0.0405802153910008,0.979222224768422,-1.63066411841424,-0.0190619776103524,0.297701996108057,0.0233504242017829,-0.00743444283051362
1.7,1.15707620593746,0.490923596810518,2.89496983588588,-0.163384938096148,-0.116728163858351,-0.0135922636473793,-0.0207330368122984,-1.13536382825704,1.73415301002112,0.0658355781429531,-0.0654250528122666,-0.0274211655431021,5.02357369359435,-8.47713136124066e-05,-0.00163303685719647,0.00191122223835734,-0.0207330368122984,-1.13536382825704,1.73415301002112,0.0658355781429531,-0.0654250528122666,-0.0274211655431021,1.13222104753086,-1.64980022474777,0.035882659154689,-0.0069133832985462,-0.125443626126142,0.0803678466241554
1.8,1.13563158589182,0.420934099159671,2.94599615640925,-0.0879074888343612,-0.0959337254644782,-0.0385431771816765,0.0762373458653682,-1.29814053074293,1.76576099299334,-0.0875340532269781,-0.143788293601614,0.0219965307268092,4.89557088239998,0.00113694922543218,-0.000993926522718754,0.000743938982243018,0.0762373458653682,-1.29814053074293,1.76576099299334,-0.0875340532269781,-0.143788293601614,0.0219965307268092,0.900421541383402,-0.894967756365896,-0.101512433891259,0.0914255348815045,-0.0759319820242455,0.031102169066012
1.9,1.21746774823348,0.32996553535164,3.10804661973485,-0.111313585075061,-0.0926597474754249,0.0242922160812003,0.245824696865792,-1.39427575923597,1.63013240118501,0.00403690939484455,-0.0878405776083075,0.0344043387286844,4.79129250680769,0.00046322379660601,-0.00191599214027142,-0.00280399395606674,0.245824696865792,-1.39427575923597,1.63013240118501,0.00403690939484455,-0.0878405776083075,0.0344043387286844,0.906758245609497,-1.04275310645704,-0.327574625331385,0.0372142845644643,-0.147132306163116,-0.118674128019935
2,1.26896993686529,0.176333089049797,3.12082320185833,-0.0942256601248627,-0.0949411954414709,0.012719050991574,0.291687242183524,-1.49377263308825,1.48599253990379,-0.0375880427532671,-0.146592182564278,-0.0625363626630306,4.81354545826298,0.00169451797444888,-0.000525525851006675,0.00233112634260663,0.291687242183524,-1.49377263308825,1.48599253990379,-0.0375880427532671,-0.146592182564278,-0.0625363626630306,0.920033438723639,-0.894147974263863,-0.268777993002839,0.136792539144958,-0.0406464713624148,0.0979634039000138
2.1,1.28595851532416,0.0319291918216691,3.14107959927077,-0.126770669605808,-0.143544572610727,-0.0457294058902775,0.360959385078739,-1.63377251227571,1.474858952846,0.00205128171221275,-0.104803653503966,0.0386812186911573,4.72194626230684,0.00343960833930918,8.91748086554953e-05,0.000317554323807517,0.360959385078739,-1.63377251227571,1.474858952846,0.00205128171221275,-0.104803653503966,0.0386812186911573,1.28414476393473,-1.25401814288661,-0.538240903742992,0.27693216814333,0.0075121608376026,0.0129331017163774
2.2,1.33252066150283,-0.124342514649678,3.22306957142041,-0.11101657468574,-0.129598903503905,-0.00293267364269016,0.418308704623462,-1.68634212192078,1.36883152600781,0.0917036793276321,-0.0826850934252386,-0.00254346232040718,4.66998774788218,0.0012431151975593,-0.00116516337547887,0.000245562694211993,0.418308704623462,-1.68634212192078,1.36883152600781,0.0917036793276321,-0.0826850934252386,-0.00254346232040718,1.19659451139694,-1.03827718652134,-0.60536614955692,0.100168327365209,-0.0895193705456189,0.00985320971406089
2.3,1.40422341966771,-0.210656151076142,3.29875347889937,-0.038697714175551,-0.0963830024309947,0.0134344697618863,0.591074470995317,-1.76476339064684,1.29311275620075,0.032921031058384,-0.108978492091062,0.0222575075435392,4.56788047269325,0.000248375150941572,-0.00133327664610537,-0.00169958190534128,0.591074470995317,-1.76476339064684,1.29311275620075,0.032921031058384,-0.108978492091062,0.0222575075435392,0.883180113441631,-0.341610963454522,-0.723448239947237,0.0199127569555064,-0.102423637338765,-0.0722234551007055
2.4,1.4818096449697,-0.37636608519239,3.32548774939581,-0.0775458068749314,-0.130633072967757,0.00755868730377194,0.69788698744527,-1.94475315878871,1.14749988424872,-0.0199130058372418,-0.135296316613919,-0.0369638870974929,4.57402239429775,0.00510093328020892,0.00121937386250112,0.00139300624974192,0.69788698744527,-1.94475315878871,1.14749988424872,-0.0199130058372418,-0.135296316613919,-0.0369638870974929,1.19338284608228,-0.699681422771789,-0.767157153668212,0.411513846532805,0.0936427305979814,0.0582354098302417
2.5,1.57993439442844,-0.568854890296778,3.33637553707532,-0.0883529663476223,-0.14003259651075,-0.0109388573127705,0.77772624348821,-1.93193472108549,1.10856268083571,0.202375951276514,-0.0226196304157111,0.0401288311296922,4.51320261224021,0.000898664772602205,-0.00106379833022635,-0.00139238905725428,0.77772624348821,-1.93193472108549,1.10856268083571,0.202375951276514,-0.0226196304157111,0.0401288311296922,1.24616243506713,-0.810152280644157,-0.906813843116488,0.0721346577054018,-0.0815025806020996,-0.0593507927568329
2.6,1.64706881683367,-0.685533099279326,3.38941283174817,0.00963178779035515,-0.096561089547325,0.0230251598508509,0.879783256599479,-1.9898597157473,0.988362905036472,0.0375725080646135,-0.115346648421333,-0.02327401028026,4.45648546123404,0.0015952485459118,-0.00027611724802517,1.18241170741538e-05,0.879783256599479,-1.9898597157473,0.988362905036472,0.0375725080646135,-0.115346648421333,-0.02327401028026,0.857065277587933,0.105606831428822,-0.938960772723973,0.128857138712315,-0.0214120376381164,-2.83805627581771e-05
2.7,1.74353915493959,-0.825268239579072,3.40908180970286,-0.0466592034001846,-0.135302366765594,0.00313354603513296,1.05032182520133,-2.13638117105543,0.945133553666305,0.0761324829768382,-0.0821081031062875,0.0119514596885576,4.40357911313167,0.00493430044393293,0.00152865487238822,-0.000735135349377761,1.05032182520133,-2.13638117105543,0.945133553666305,0.0761324829768382,-0.0821081031062875,0.0119514596885576,1.18798531276161,-0.407065294743617,-1.0928316085488,0.397807714562095,0.117678614553659,-0.0315676233618208
2.8,1.87205779616361,-1.0504319631642,3.43018869689937,-0.0340358918659323,-0.132093150920707,0.00841258089338057,1.08595091944028,-2.09060430668493,0.783017629599659,0.226179706349584,-0.0125126660879812,-0.0109729119465845,4.43301680482679,0.00157360946077628,-0.00016585800924635,8.23800641653034e-05,1.08595091944028,-2.09060430668493,0.783017629599659,0.226179706349584,-0.0125126660879812,-0.0109729119465845,1.1695599642502,-0.291876528492992,-1.02629408793505,0.126963029179984,-0.012798013677566,0.00293477168951799
2.9,1.90778619476447,-1.19424638640419,3.38434103284833,0.006894365125102,-0.138951303854491,-0.0339999956466395,1.16590465799216,-2.19941064781684,0.73551130125387,0.068918427780888,-0.107891211130589,-0.0210266203078627,4.42472945778645,0.00552693311219706,0.00248104388927039,0.00255971095438588,1.16590465799216,-2.19941064781684,0.73551130125387,0.068918427780888,-0.107891211130589,-0.0210266203078627,1.22702726605268,0.0193111940565668,-1.04604231727697,0.445609250636917,0.1909097125758,0.107562895505482
3,2.04722852214075,-1.34412573230387,3.43995853003399,-0.0187585710878778,-0.15154983648585,-0.00797934407740084,1.33458495121216,-2.19877320902357,0.726560010427886,0.276764487982263,0.0322071633665883,0.0636777816467376,4.32472887246634,0.00256327183308742,0.000875199218789318,-0.00269414178454355,1.33458495121216,-2.19877320902357,0.726560010427886,0.276764487982263,0.0322071633665883,0.0636777816467376,1.30424609939266,-0.172654366901641,-1.26118418357345,0.206251139801525,0.0675433234816323,-0.114111785431203
3.1,2.20488522660393,-1.48470192259121,3.49123764004053,0.0934808182944604,-0.0781447669075154,0.0449403736665945,1.45459028749713,-2.15554872512471,0.546344131588234,0.181063490531226,-0.00948223214580603,-0.04103396075416,4.27151248830527,0.000717733106243942,-0.000369371953085895,-0.000236321410209089,1.45459028749713,-2.15554872512471,0.546344131588234,0.181063490531226,-0.00948223214580603,-0.04103396075416,0.627505721030047,0.826471640577396,-1.33023249443787,0.0584568976628048,-0.0286054084209209,-0.0102673926363416
3.2,2.32766023890106,-1.61477461424401,3.44591681114116,0.0603920937531515,-0.104944147624043,-0.00402531459031736,1.63931934353327,-2.25298321629379,0.570894835856365,0.10225073909282,-0.0711072694228163,0.00409453252528717,4.25262593782802,0.00607497121946328,0.00390185686346824,-3.15717579646627e-06,1.63931934353327,-2.25298321629379,0.570894835856365,0.10225073909282,-0.0711072694228163,0.00409453252528717,0.891373856547174,0.50975387378614,-1.36696067139476,0.489826952103116,0.30016407538676,-0.000344232877272661
3.3,2.45833392258162,-1.89925571359397,3.43115815450865,-0.0249255051131159,-0.190595186475216,-0.0501691803054907,1.58933664943262,-2.24531948368173,0.369848337997001,0.293691337603406,0.0595837759903483,-0.0401069540533976,4.52622871604573,0.0070503693552387,0.00392404807937662,0.00448525525087309,1.58933664943262,-2.24531948368173,0.369848337997001,0.293691337603406,0.0595837759903483,-0.0401069540533976,1.7009238715812,-0.311303559868338,-0.924228585174692,0.568553883931301,0.301854093781221,0.18908299630174
3.4,2.57925137973256,-1.99136884004989,3.41068156759621,0.110678282358064,-0.0966488728625135,-0.0314921184224671,1.73497950816752,-2.09155029926289,0.514471810582809,0.395742404932883,0.104607264974066,0.0972263384843876,4.15244501197006,-0.00129066641560498,-0.000114035047672664,-0.00308699541473743,1.73497950816752,-2.09155029926289,0.514471810582809,0.395742404932883,0.104607264974066,0.0972263384843876,0.824993610606759,0.891761184872886,-1.5944448853804,-0.104766627226736,-0.00875540227906414,-0.130274965651298
3.5,2.7151128588189,-2.0480386559735,3.49876742888741,0.172314373665433,-0.0748993843100204,0.0302096169068084,1.9109345494633,-2.18254428614064,0.232079781588017,0.052866491933026,-0.0385603203704282,-0.0699362762071186,4.2331026925012,0.00577025681282871,0.00417830457968828,0.00199231882654383,1.9109345494633,-2.18254428614064,0.232079781588017,0.052866491933026,-0.0385603203704282,-0.0699362762071186,0.580007168082945,1.46982994985465,-1.49255897378729,0.466205269885614,0.321577437827553,0.0842230391541624
3.6,2.94246783380593,-2.25884087655217,3.41629850154868,0.0546005260614296,-0.124389300739585,-0.0248509582827254,2.04728840721659,-2.06473624824627,0.37017851612231,0.369129363373538,0.14323143179247,0.0517204955391485,4.26599744894853,0.00423922944035558,0.00377480407570842,-0.000584945450594514,2.04728840721659,-2.06473624824627,0.37017851612231,0.369129363373538,0.14323143179247,0.0517204955391485,1.0682202137983,0.439212028334179,-1.35654299669414,0.341647934982131,0.290319629759328,-0.0244943456862079
3.7,3.1186898171424,-2.39389812212665,3.48941985947391,0.182301107955957,-0.0525822578896447,0.00357951268728415,2.05104773881479,-1.92322247089015,0.091440675184193,0.313676608069539,0.132313642666429,-0.0172914890359996,4.20366959575928,0.000274455313783287,0.00127842773952727,0.000947579476677299,2.05104773881479,-1.92322247089015,0.091440675184193,0.313676608069539,0.132313642666429,-0.0172914890359996,0.429092326232185,1.52573769205373,-1.55340526900714,0.0226796439767633,0.0985920033038272,0.0403124134033026
3.8,3.24440312192683,-2.42478617763566,3.37806730847451,0.191840238120326,-0.0428486592603985,-0.0113161775275605,2.20766063850845,-1.86799317763121,0.193412378664287,0.163720106840666,0.0445482962436615,0.0251493658912698,4.13068191250808,0.00438169427175875,0.00474586017902279,-0.000168269060031954,2.20766063850845,-1.86799317763121,0.193412378664287,0.163720106840666,0.0445482962436615,0.0251493658912698,0.365190285229164,1.57112680699935,-1.70763436636017,0.353633496509804,0.365256552412602,-0.00667201766982331
3.9,3.50508139075825,-2.53952673540663,3.4835997231563,0.170602118234624,-0.0433777069284841,0.0392846304758871,2.29746164169278,-1.67294775232791,0.0614495776027468,0.371406953942213,0.226349291485098,0.0268937612400979,4.0982559561891,1.83012629200745e-05,0.00191893032475632,-0.00249116983144592,2.29746164169278,-1.67294775232791,0.0614495776027468,0.371406953942213,0.226349291485098,0.0268937612400979,0.295350994982536,1.40425222396891,-1.7400773850675,0.00206743403913102,0.148102241429135,-0.104634263934653
4,3.67411470597883,-2.60394231345055,3.42688692874293,0.262107287761443,0.0273335131730226,0.0217280517275053,2.31073446771269,-1.53559610670961,-0.109686944095437,0.183575744047434,0.11246815402348,-0.0399444741813894,4.08979922039083,0.00104319581806777,0.00214975765629533,0.0012364356230708,2.31073446771269,-1.53559610670961,-0.109686944095437,0.183575744047434,0.11246815402348,-0.0399444741813894,-0.261911570438112,2.11427712349057,-1.91271785822535,0.08493015884279,0.166383401670746,0.0526980020133818
4.1,3.8222044843307,-2.66681951151701,3.3409171760753,0.188587963399071,-0.0218335030906412,-0.0125805535254947,2.31929782243432,-1.34934384306776,-0.0086987670251617,0.221057693710583,0.116366441085539,0.0326427367244654,4.03122527352676,0.00337555277877885,0.00522483164780077,-0.000284628273065321,2.31929782243432,-1.34934384306776,-0.0086987670251617,0.221057693710583,0.116366441085539,0.0326427367244654,0.191897876841247,1.50918969449655,-1.89238479751807,0.272548842179681,0.40241630181121,-0.0114735128445271
4.2,3.97626699785904,-2.73845515715142,3.39535695335357,0.191332645562097,-0.0344582204354259,-0.00744184125359217,2.26232257437484,-1.22077797630847,-0.388405472425663,0.309239499206168,0.239542434821077,-0.0188705985832622,4.18689857746829,0.00098537582619972,0.00256825137632442,0.00186701252366907,2.26232257437484,-1.22077797630847,-0.388405472425663,0.309239499206168,0.239542434821077,-0.0188705985832622,0.295067218041725,1.59027136538897,-1.59389075576007,0.0800580379600404,0.198700679356086,0.0793190318296784
4.3,4.10705617883779,-2.74468187191113,3.21090607096337,0.263455223123098,0.0444864924589919,-0.0138893807984388,2.31883994577164,-1.00996646335086,-0.326945413329386,0.23260257703315,0.156256375973512,0.0435057304202082,4.05527248135937,-0.000494935019900495,0.00215267473409787,-0.00104577742490025,2.31883994577164,-1.00996646335086,-0.326945413329386,0.23260257703315,0.156256375973512,0.0435057304202082,-0.318876542824548,2.11676576872558,-1.98704914862235,-0.0395892070939003,0.166524788520271,-0.0436423072391149
4.4,4.28130947511554,-2.73662207992963,3.22217045568216,0.250574798562502,0.022895188002455,0.0196767653533028,2.32870807798,-0.799674245940679,-0.383677474582685,0.171002491032737,0.158754626492851,-0.0163698240946799,3.98047995681021,0.0010909303569491,0.00398531321984817,0.000167941186881813,2.32870807798,-0.799674245940679,-0.383677474582685,0.171002491032737,0.158754626492851,-0.0163698240946799,-0.215365413249723,1.97015033266155,-2.09968170879045,0.0884894034231316,0.308560924451517,0.00751604504977473
4.5,4.44800916629592,-2.74766509664736,3.20480363782268,0.223786895789834,0.0212171022965269,-0.0185292828018022,2.27923059802805,-0.62751977181809,-0.638188454940262,0.230526590347512,0.228646735887928,-0.0014866921231104,4.07536422372266,0.000393245607062457,0.00258946789558736,0.00124755091391298,2.27923059802805,-0.62751977181809,-0.638188454940262,0.230526590347512,0.228646735887928,-0.0014866921231104,-0.135066365898202,1.8116531139556,-1.86430655666275,0.0320308159491772,0.200931685213503,0.0529877810075245
4.6,4.58362790631143,-2.72600617721687,3.06613308027196,0.264340444293065,0.0682724972852158,-0.00961796900128016,2.26903126168622,-0.410175423308704,-0.707755951068213,0.207505588002335,0.189041513166306,0.0271561824856444,4.03326532025632,-0.001401479230441,0.00199147176465561,-0.000676167395942427,2.26903126168622,-0.410175423308704,-0.707755951068213,0.207505588002335,0.189041513166306,0.0271561824856444,-0.510885258686143,2.11257538468587,-2.04179956033536,-0.112852960789983,0.155040259122389,-0.0283242775078091
4.7,4.74393315375383,-2.65846709970923,3.0023768229083,0.282663964900401,0.0760798293151397,0.0178292848055761,2.24964680014055,-0.16146292611083,-0.761615349714322,0.139317377564455,0.188750438775369,-0.00286732924291093,3.95072664756748,-0.00145357962725307,0.00226185141060827,-0.00067802288769769,2.24964680014055,-0.16146292611083,-0.761615349714322,0.139317377564455,0.188750438775369,-0.00286732924291093,-0.615927705007798,2.19320053353429,-2.24405864038666,-0.11715163120667,0.176717772759357,-0.0285401832728914
4.8,4.92391962179462,-2.56691189149757,2.9885626263963,0.285683732043291,0.109831636508988,0.0269302504814369,2.22456088580596,0.0891950546041693,-0.935372201986306,0.150337350529341,0.224226172333193,0.0137762262310377,3.92326160110044,-0.00300591613606818,0.000439252626327243,-0.00196684156800578,2.22456088580596,0.0891950546041693,-0.935372201986306,0.150337350529341,0.224226172333193,0.0137762262310377,-0.884449039095269,2.18823434892072,-2.32686518268422,-0.242498494753452,0.0365549362520273,-0.0830761553359304
4.9,4.98142657465106,-2.55956071610746,2.80400466224065,0.222715580363866,0.0617499327480805,-0.0422935329089417,2.00263088452743,0.226253310872809,-1.12711941117532,0.0140636307556539,0.0920158348009574,-0.0808400623475949,4.04354280499342,0.00308722550782156,0.00465249680468948,0.00585844567821319,2.00263088452743,0.226253310872809,-1.12711941117532,0.0140636307556539,0.0920158348009574,-0.0808400623475949,-0.410773260615746,1.80524911866119,-1.93768810252082,0.248659197381084,0.361191108916842,0.246904045252173
5,5.07649142063117,-2.46798780867179,2.70170967582053,0.195665020897888,0.0409815326308853,-0.0520860741436738,2.00402364307025,0.450156715299043,-1.2463919769435,0.293642372614154,0.291694931769378,0.118182386008016,4.0680803703883,-0.00403477320191297,0.000933831883200631,-0.00318999937379974,2.00402364307025,0.450156715299043,-1.2463919769435,0.293642372614154,0.291694931769378,0.118182386008016,-0.244181268750219,1.59670159399702,-1.83578962357568,-0.325489735777848,0.0727080211631064,-0.134969120201966
5.1,5.24302338703752,-2.31130732479717,2.58006629030611,0.366227673915123,0.173699092811521,0.0649637671434819,2.0482488966696,0.678016804321516,-1.34300336934491,0.0155861717344448,0.201712312461806,-0.0452572530852944,4.0294298275528,-0.00545297982493345,-0.00202639409321682,-0.000990384237572613,2.0482488966696,0.678016804321516,-1.34300336934491,0.0155861717344448,0.201712312461806,-0.0452572530852944,-1.48502552453456,2.79533547429582,-2.39879107578845,-0.44065977419418,-0.151051263989578,-0.0424682469644248
5.2,5.37660347471481,-2.19469646312812,2.43506254880004,0.247569691524953,0.145538511844253,-0.0129421343128467,1.8181130475864,1.06151988275553,-1.25376093315992,-0.0604083677999382,0.0582218828987349,-0.00878898971816745,3.82848919671059,-0.000698335529519424,0.00305095963712362,0.000949341822111478,1.8181130475864,1.06151988275553,-1.25376093315992,-0.0604083677999382,0.0582218828987349,-0.00878898971816745,-1.05222527795081,1.89010683126902,-2.46495839030503,-0.0571200676507367,0.238043688024403,0.0391804235019066
5.3,5.42504974437118,-2.01331719048091,2.51130043462225,0.19446205865982,0.0768558318965679,-0.00491496585089663,1.73691153220065,1.12247189910611,-1.75705937127817,0.110917399441888,0.253849709365367,0.0208369256923323,4.045609066643,-0.00344280131472468,0.000332756088407335,-0.000846002680836565,1.73691153220065,1.12247189910611,-1.75705937127817,0.110917399441888,0.253849709365367,0.0208369256923323,-0.60184384110754,1.56651391690281,-1.89472179772013,-0.278425434494892,0.0286127598293604,-0.0366135026843167
5.4,5.52861172413427,-1.90366410761408,2.15507616428407,0.283105073015012,0.18212276199956,0.0135840160447358,1.6990902175816,1.32228343636628,-1.7427671069206,-0.00319660797319871,0.162297123927151,-0.00853276048648017,4.11434962515428,-0.00535857398606824,-0.00170986568290362,-0.000267628318960967,1.6990902175816,1.32228343636628,-1.7427671069206,-0.00319660797319871,0.162297123927151,-0.00853276048648017,-1.46212636106424,2.27894148786906,-2.03953646484466,-0.433347403949106,-0.127726815098806,-0.0124835680445376
5.5,5.58715805838415,-1.7713440754442,1.98244543412344,0.211917718951207,0.129345854523994,-0.0242224604398965,1.43401801516149,1.60937946386619,-1.70677163456533,-0.122134637684916,0.0544386447935232,-0.018606897884294,3.99527352389772,-0.00102115991002383,0.00247649635975708,0.00198827754361309,1.43401801516149,1.60937946386619,-1.70677163456533,-0.122134637684916,0.0544386447935232,-0.018606897884294,-0.966605872500264,1.70460387030326,-2.06346265382864,-0.0836132709900251,0.194013315031998,0.0825456892447332
5.6,5.60583807349318,-1.56721401718149,1.98042227153322,0.155090812263561,0.0893112939416741,-0.0235380006386416,1.38436246383164,1.70865124394305,-2.02746947329153,0.0466213212959146,0.225172853468604,0.0326083741606418,4.11530685744458,-0.00374678060057878,-0.00046144632767639,-0.000466398637413997,1.38436246383164,1.70865124394305,-2.02746947329153,0.0466213212959146,0.225172853468604,0.0326083741606418,-0.695174838087438,1.28809976344888,-1.71058439962398,-0.303239329597674,-0.0326948880824454,-0.0210354282667931
5.7,5.70460832322945,-1.39191091501737,1.70195567706174,0.251146109827337,0.194987133664311,0.0179816353507458,1.36521670003088,1.87165400848577,-2.01524592405905,-0.0591252293925932,0.132518915415319,0.000575417229187566,4.18860896678894,-0.00635274592451096,-0.00239649088473655,-0.000862627347443682,1.36521670003088,1.87165400848577,-2.01524592405905,-0.0591252293925932,0.132518915415319,0.000575417229187566,-1.60937767613353,2.05325251099364,-1.8493569400255,-0.514035542525797,-0.180443276543949,-0.0379853619963822
5.8,5.80796727651113,-1.17798247053229,1.56852326425459,0.229080074486567,0.189505877817749,0.0258087249918068,1.14560461273799,2.21407111714798,-1.97191855400712,-0.169300395404645,0.0669896176014727,0.00953379865723831,4.10216953640311,-0.0052321103740387,-0.00107649336697636,-0.0016637564604355,1.14560461273799,2.21407111714798,-1.97191855400712,-0.169300395404645,0.0669896176014727,0.00953379865723831,-1.55268313136944,1.82359446474584,-1.96303511265127,-0.423807135642376,-0.0789478340436085,-0.0718875164670087
5.9,5.80465050355791,-0.931507569786963,1.54681388522006,0.159446230391739,0.152945694815387,0.0173001923874455,0.974094262427097,2.3461866909755,-2.20147404421905,-0.157960813751349,0.102065023237612,-0.0229202288151041,4.13427887067317,-0.00398856313404967,-0.00113830064092396,0.0002664713842048,0.974094262427097,2.3461866909755,-2.20147404421905,-0.157960813751349,0.102065023237612,-0.0229202288151041,-1.26626117341003,1.2910989343951,-1.74162387439104,-0.323743979477761,-0.0835859899382494,0.00957392918047568
6,5.78529037473053,-0.754569111062767,1.28945872505309,0.129406110345234,0.150733083078537,-0.0200162720060382,0.824613233409245,2.39799539725072,-2.29939842263523,-0.142108437840652,0.0764262195113406,-0.00158914907383744,4.24276688992134,-0.00374936659703668,-0.00104732013965837,0.00101889338751451,0.824613233409245,2.39799539725072,-2.29939842263523,-0.142108437840652,0.0764262195113406,-0.00158914907383744,-1.24138884035085,1.12008844775302,-1.49082701555534,-0.304178552017818,-0.0774375896358253,0.0413091502431593
6.1,5.81867990412824,-0.542564943995213,1.09353431742209,0.153995144910123,0.170524140388874,0.0157016635642255,0.732317785896267,2.55131677686159,-2.25022857997653,-0.127101076267672,0.0970162991855172,0.038357221134385,4.25766842696029,-0.00648295737261659,-0.00291482034955736,-0.00256049714039269,0.732317785896267,2.55131677686159,-2.25022857997653,-0.127101076267672,0.0970162991855172,0.038357221134385,-1.44827474453765,1.28356262320153,-1.51747752536103,-0.524671641871022,-0.221267720682793,-0.10971169505613
6.2,5.81086162487532,-0.339553567874138,0.944367651893478,0.132502369733084,0.161620771695039,0.0102672060092532,0.517051609898632,2.67452055135234,-2.35256384786723,-0.282672267458739,-0.00342626353767178,-0.0605851129494331,4.32258150984012,-0.00303473852053413,-0.000823278364278881,0.00235746520022825,0.517051609898632,2.67452055135234,-2.35256384786723,-0.282672267458739,-0.00342626353767178,-0.0605851129494331,-1.39062239676726,1.12793750877755,-1.35229523081181,-0.247386436809528,-0.0594604427172378,0.0977868055140435
6.3,5.76299171576216,-0.130178566100568,0.77404481517087,0.0419837251378231,0.11488940631283,-0.0391674862136415,0.357301212777511,2.76539310305963,-2.3724273069969,-0.161605436246625,0.0707152661969723,0.0405677697686507,4.29755225431419,-0.00333685462740217,-0.00134926316997112,-9.54311384077857e-05,0.357301212777511,2.76539310305963,-2.3724273069969,-0.161605436246625,0.0707152661969723,0.0405677697686507,-0.969566220294251,0.399020296001316,-1.2790829530415,-0.270628185240423,-0.101759496536138,-0.00555516875667675
6.4,5.73767386429821,0.0935958657701494,0.617055353014698,0.0872200305835578,0.151572297356563,0.00989661389373281,0.319372178697849,2.71404502260837,-2.39592579074385,-0.185008142043853,0.0448402718561263,-0.0070335481145599,4.34885570340424,-0.00487313033881382,-0.0024808158289064,-0.000152859231214245,0.319372178697849,2.71404502260837,-2.39592579074385,-0.185008142043853,0.0448402718561263,-0.0070335481145599,-1.31573182430642,0.744668571481662,-1.24469193774788,-0.395345384004696,-0.187979826188591,-0.00793842699829086
6.5,5.73786722306161,0.266767189069427,0.407033075762714,0.0632908099482965,0.142836981589198,-0.014241891812063,0.124995437248255,2.84032569338382,-2.45319452466386,-0.267763481644559,-0.00929959454242293,-0.0112770253618881,4.44898103610697,-0.00311006193861841,-0.00141427604089848,0.00118213476759669,0.124995437248255,2.84032569338382,-2.45319452466386,-0.267763481644559,-0.00929959454242293,-0.0112770253618881,-1.25596159719513,0.580728883315634,-1.02028763445517,-0.253073325949873,-0.10628797716944,0.048465819026397
6.6,5.69175010411623,0.501279126793695,0.278326271120121,0.0212606823542976,0.127588040296784,-0.00859047772885451,0.00809880668801433,2.89400005700658,-2.38925798493872,-0.203300325491912,0.0333473367582783,0.0256972859962989,4.38292714872401,-0.00404316731310142,-0.00236007925394329,-0.000837095837168334,0.00809880668801433,2.89400005700658,-2.38925798493872,-0.203300325491912,0.0333473367582783,0.0256972859962989,-1.11349216628097,0.195926545147957,-1.11736233651574,-0.328095950055489,-0.179529155441558,-0.0365757572647695
6.7,5.66735638546312,0.731434204572418,0.163820722925042,0.0503628297902342,0.160980186462227,0.02192002615615,-0.0587756335683878,2.87091566096085,-2.45340223892959,-0.245954045076592,-0.0019753914669553,-0.00651105302938184,4.46450474858938,-0.00473746061380071,-0.00320536291017888,-0.000725113700062817,-0.0587756335683878,2.87091566096085,-2.45340223892959,-0.245954045076592,-0.0019753914669553,-0.00651105302938184,-1.43888761460289,0.418062613990904,-1.00761187608533,-0.38462280642143,-0.244288634005243,-0.0317521437625089
6.8,5.60430001612383,0.887596880376402,-0.0586769475969953,-0.0129504922590004,0.116792201862523,-0.0227216364171875,-0.32091362443895,2.90695804634246,-2.48945460760942,-0.318128473604283,-0.0698616225741223,-0.0314781230106178,4.51228930873335,-0.00110326299075451,-0.000718464147099483,0.00257040718658308,-0.32091362443895,2.90695804634246,-2.48945460760942,-0.318128473604283,-0.0698616225741223,-0.0314781230106178,-1.05390150341854,-0.0929491548325633,-0.847652578785778,-0.0914122185963819,-0.0533676881457146,0.107442127667686
6.9,5.52535815712672,1.11990555696056,-0.16842241738218,-0.0346808415925378,0.111317670844628,-0.00641715638518004,-0.322205030412633,2.84726310376396,-2.39386050154315,-0.154033599284595,0.046427071366326,0.0657269360450158,4.41994523319639,-0.00476063328074278,-0.00339657437870227,-0.00280729703909105,-0.322205030412633,2.84726310376396,-2.39386050154315,-0.154033599284595,0.046427071366326,0.0657269360450158,-0.983361199651791,-0.300209230603971,-1.0301060013972,-0.385687179774613,-0.26011383571893,-0.119256385329983
7,5.51628465033123,1.31319410294121,-0.296406834049761,0.0391307917227355,0.174652884650294,0.0512689618207892,-0.382289867934621,2.79853592340621,-2.49617166245804,-0.31049563794952,-0.0619947025506941,-0.0412464004045235,4.59385142853175,-0.00419320202031669,-0.00365536677919521,-0.000379345962632094,-0.382289867934621,2.79853592340621,-2.49617166245804,-0.31049563794952,-0.0619947025506941,-0.0412464004045235,-1.61161449603612,0.277204970751589,-0.768996742061766,-0.341241615992313,-0.279409784223192,-0.016740266717327
7.1,5.44782314063093,1.46569737822196,-0.512064080868278,-0.0635396275273924,0.111296714323584,-0.0159522956370509,-0.705008551966923,2.91613643097515,-2.48185067510327,-0.318208724359539,-0.0949380940404878,-0.00647210671737528,4.61203838595592,-0.00128724923838214,-0.00139278000632085,0.00114685974644173,-0.705008551966923,2.91613643097515,-2.48185067510327,-0.318208724359539,-0.0949380940404878,-0.00647210671737528,-1.03163671266585,-0.569316271551557,-0.661492090501845,-0.106025973576959,-0.106142320844809,0.04784903500812
7.2,5.30396714816562,1.70289843408886,-0.59535931617842,-0.0747728869662491,0.101150202204711,0.010578520881329,-0.688341329633418,2.6955075603834,-2.36107101424356,-0.197685224908192,-0.00810657253001777,0.0367889140009522,4.4539459868988,-0.00358091833004885,-0.00314652838551287,-0.00217815820517053,-0.688341329633418,2.6955075603834,-2.36107101424356,-0.197685224908192,-0.00810657253001777,0.0367889140009522,-0.889896502613678,-0.674899684912672,-0.972402246832667,-0.290786222976121,-0.241407189071167,-0.0922547435119765
7.3,5.2454216384029,1.80098994310888,-0.751937576794083,-0.0517646012160548,0.121946850053078,0.0177000654419467,-0.765986860461632,2.57950338284545,-2.56664091857215,-0.316992755929243,-0.102150299103495,-0.0497963845468041,4.64523208294991,-0.00115682555536793,-0.00177421421724126,0.00161099443209214,-0.765986860461632,2.57950338284545,-2.56664091857215,-0.316992755929243,-0.102150299103495,-0.0497963845468041,-1.11993830778648,-0.500602787659517,-0.600881722248952,-0.0959499959914813,-0.135887506323967,0.0677309680058019
7.4,5.21010054976701,1.97911743219163,-0.954537100688278,-0.0808272225956001,0.11703187123218,0.0164533812412398,-0.870014476795133,2.63415439171932,-2.41039724242249,-0.190850000056216,-0.0183744942839492,0.0661672792226272,4.62725707109899,-0.00427383517941132,-0.00403689233154405,-0.00378572499589345,-0.870014476795133,2.63415439171932,-2.41039724242249,-0.190850000056216,-0.0183744942839492,0.0661672792226272,-1.06463529560764,-0.764822051786762,-0.648797517542281,-0.346338380550464,-0.31040823361029,-0.159807426987968
7.5,5.09335594180471,2.14471464264023,-1.04389321035519,-0.0599332833820426,0.128369919755609,0.0481948949796676,-1.00434973918777,2.45941604093874,-2.45040721358049,-0.351975518838742,-0.145039613610325,-0.0728793516951244,4.65252929198443,-0.000997074063849397,-0.00197520419019977,0.00135316414488086,-1.00434973918777,2.45941604093874,-2.45040721358049,-0.351975518838742,-0.145039613610325,-0.0728793516951244,-1.16084125203259,-0.613986803745348,-0.598073868972984,-0.0831913616316279,-0.152006093331341,0.0571190722108463
7.6,4.92156403450986,2.19269668929808,-1.26215649687353,-0.199646957540653,0.0161618845114634,-0.0643474433782146,-1.23045940997059,2.34714688434138,-2.54155844888878,-0.269651663482242,-0.103052780655794,-0.00530557708330995,4.6805964071085,0.0031566382356379,0.000483083739358976,0.0033390039998188,-1.23045940997059,2.34714688434138,-2.54155844888878,-0.269651663482242,-0.103052780655794,-0.00530557708330995,-0.267357319209547,-1.84316546825156,-0.635950075050937,0.253136671576058,0.0368445393188027,0.141070449375501
7.7,4.80172009110078,2.3480111271014,-1.40715816065523,-0.147255801856731,0.0616131039988667,-0.000465306517304568,-0.994561710864806,1.88601427420879,-2.3244470334489,-0.0572326600714008,0.0129991349115413,0.0730866402709372,4.4645423493711,-0.00270318546762605,-0.00257243185017181,-0.00341423283067511,-0.994561710864806,1.88601427420879,-2.3244470334489,-0.0572326600714008,0.0129991349115413,0.0730866402709372,-0.544459909706931,-1.30985951594727,-0.994310292863274,-0.219270124895609,-0.198377539382182,-0.143769286012255
7.8,4.77266921444562,2.2884383801909,-1.54312770496126,-0.100280370389405,0.0768179757524692,0.0042552088032202,-1.16817568496529,1.85483866805083,-2.70786488896565,-0.334348734980074,-0.146407240949187,-0.105566147318482,4.81183786439022,0.00269088030323309,0.000251654585591725,0.00483960339907376,-1.16817568496529,1.85483866805083,-2.70786488896565,-0.334348734980074,-0.146407240949187,-0.105566147318482,-0.730727765419456,-0.966567245434495,-0.262910431675216,0.214632955180576,0.0183559585732733,0.204521149561672
7.9,4.69620421675478,2.45685426984568,-1.78647084932254,-0.177752112810323,0.05224861780354,-0.025286553427586,-1.20553274071687,1.93289895109603,-2.38758565552858,-0.0630380290902477,0.0200943070731801,0.123337238316111,4.69312698082216,-0.00251290147251438,-0.00274320612589729,-0.00461062757526133,-1.20553274071687,1.93289895109603,-2.38758565552858,-0.0630380290902477,0.0200943070731801,0.123337238316111,-0.524280223672316,-1.64692513533402,-0.584246302975847,-0.203381484548567,-0.211506269688804,-0.194115434076853
8,4.59046456321446,2.59195938853332,-1.80876125227165,-0.0831087515787701,0.112794650163988,0.0668683924044138,-1.22801932272283,1.56278505270798,-2.4740334897777,-0.292858612778182,-0.129175711839069,-0.0954454185675216,4.71078994337573,0.000499812312350059,-0.00145412856604845,0.00142902277010664,-1.22801932272283,1.56278505270798,-2.4740334897777,-0.292858612778182,-0.129175711839069,-0.0954454185675216,-1.00217008110781,-0.850980055998953,-0.48060261135458,0.037860674607966,-0.113580099183213,0.0607531606832073
8.1,4.50474702392299,2.57555216485311,-1.98777415643619,-0.190639962220969,0.0476238268483832,-0.0269082113537432,-1.43245230499873,1.70621543837103,-2.59379314552994,-0.165207199925965,-0.0692853267151926,0.0386254610446722,4.87054266593258,0.000680374833471825,-0.000868395905057892,-0.000522014130778189,-1.43245230499873,1.70621543837103,-2.59379314552994,-0.165207199925965,-0.0692853267151926,0.0386254610446722,-0.504827734582222,-1.8328931194279,-0.256236594209113,0.053835396355008,-0.0677980725379276,-0.0214963073096985
8.2,4.34313322296469,2.73971877289706,-2.16703796436682,-0.144081739261017,0.0740256188769563,0.0364974115696507,-1.36268934119715,1.24894713772653,-2.34150488711288,-0.149098934785714,-0.0578067600884824,0.00028251800483875,4.68498623739961,-0.000345708897763324,-0.00172696702994573,-0.00170754568277867,-1.36268934119715,1.24894713772653,-2.34150488711288,-0.149098934785714,-0.0578067600884824,0.00028251800483875,-0.636255567931876,-1.36950429038868,-0.562512718074288,-0.0293339945370647,-0.134489461667335,-0.0714847030295154
8.3,4.29613110828022,2.68208900543657,-2.20465426327251,-0.13053742080364,0.0920850826077842,0.0377635537868991,-1.4227752797738,1.28520188295417,-2.5917346187275,-0.17803966468151,-0.0819269584296983,-0.0143884891287906,4.89150157634812,-0.000473744058345674,-0.00174651699385669,-0.00105999706219171,-1.4227752797738,1.28520188295417,-2.5917346187275,-0.17803966468151,-0.0819269584296983,-0.0143884891287906,-0.843228812956287,-1.30619127635409,-0.151326167416086,-0.0396029833813812,-0.136152713550874,-0.0441341682966665
8.4,4.13550361576763,2.73671143721946,-2.49704122794567,-0.191960865168055,0.0371232976340381,-0.00833598157430206,-1.63343394347112,1.09947138603494,-2.46860589449038,-0.218500424689164,-0.120374099080301,-0.035794702105008,4.90576988693593,0.00338714854510211,0.000444402581442873,0.00210882438597666,-1.63343394347112,1.09947138603494,-2.46860589449038,-0.218500424689164,-0.120374099080301,-0.035794702105008,-0.373055705369244,-1.86884105109277,-0.185314275223767,0.272001587882656,0.0324325692115396,0.0895926336722488
8.5,3.95750934529629,2.74780109478036,-2.58199832717507,-0.217318607252954,0.0163123274876473,-0.0165955153411962,-1.54165715452365,0.754518266724753,-2.40773808480971,-0.0471629052898861,-0.0295544897756845,0.0383125933845473,4.81440694409436,0.00151428234196922,-0.000234058196131125,-0.00103049892681593,-1.54165715452365,0.754518266724753,-2.40773808480971,-0.0471629052898861,-0.0295544897756845,0.0383125933845473,-0.187798233381586,-2.07325759203121,-0.408915399061682,0.12142815361762,-0.0192954547323288,-0.0428629516208188
8.6,3.90572468294704,2.69220273282921,-2.70107250673936,-0.137876787729846,0.0685854244896207,0.0326741073586085,-1.48424104655978,0.51886258513752,-2.49881869608765,-0.10364612697063,-0.0493402435114803,-0.0179463924678603,4.91024349517955,0.00062633180983905,-0.00100961095763296,-0.000692318159698956,-1.48424104655978,0.51886258513752,-2.49881869608765,-0.10364612697063,-0.0493402435114803,-0.0179463924678603,-0.622178231909697,-1.37078845743289,-0.105578431430406,0.0494674220695821,-0.0797061012080172,-0.0285962876951271
8.7,3.83493932322854,2.65112117679194,-2.88280567068978,-0.159865614658249,0.0628364669922429,0.0152401506112345,-1.65038818491573,0.599380267326446,-2.47972894596177,-0.131020519151627,-0.0756177920811305,-0.00653582805815983,5.01230985874811,0.00130646258638178,-0.000637562186678637,-0.000404422276232751,-1.65038818491573,0.599380267326446,-2.47972894596177,-0.131020519151627,-0.0756177920811305,-0.00653582805815983,-0.597079251311999,-1.60506008518603,0.067260701784134,0.104528214456766,-0.05082902305344,-0.0164479004797522
8.8,3.61993159571515,2.67793864064507,-3.05664700389098,-0.218030241800342,0.00794408642596112,-0.0206850517733263,-1.77284311480316,0.302874223945419,-2.41913265094178,-0.131944857254011,-0.096616314875509,-0.0344613620347617,5.01644312607221,0.00481658932284555,0.00132564805258772,0.00261117765714207,-1.77284311480316,0.302874223945419,-2.41913265094178,-0.131944857254011,-0.096616314875509,-0.0344613620347617,-0.122684876510599,-2.16810897077361,-0.0149472456553408,0.387717805402043,0.100221300619652,0.110781933437818
8.9,3.47250717552439,2.60432996872944,-3.16228077013095,-0.215152557780067,0.00283878824521448,-0.0244565563177666,-1.6371485751243,-0.0594472049656498,-2.37493907120029,0.0372478022491175,-0.00555591846224318,0.0435993130035749,4.99039561352482,0.00217588397644253,0.000395691114293218,-0.00090796838053289,-1.6371485751243,-0.0594472049656498,-2.37493907120029,0.0372478022491175,-0.00555591846224318,0.0435993130035749,-0.0797801728900931,-2.12954958734798,-0.0593668309698678,0.175094015014471,0.0293513612597704,-0.03773422056326
9,3.42872110454415,2.48089078258867,-3.28519916522333,-0.134989287105003,0.0537505822381251,0.0231942632191204,-1.61398015815421,-0.232279975903616,-2.41044989040131,-0.0504275300920988,-0.0335650158885233,-0.0230721664575927,5.05931408213378,0.00169043331149583,-0.000237670491749097,-7.74153618784399e-06,-1.61398015815421,-0.232279975903616,-2.41044989040131,-0.0504275300920988,-0.0335650158885233,-0.0230721664575927,-0.506947743229203,-1.3738886646771,0.202096176596346,0.135611949564372,-0.0203016981270558,0.000238059341817831
9.1,3.2765601447764,2.35141489436212,-3.49449006846226,-0.220568676459421,-0.00991055198994975,-0.052832121449645,-1.85970665926594,-0.231593895206376,-2.42998887676596,-0.103192397900067,-0.096978227540441,-0.0439854246414554,5.21896764464762,0.00676670179968234,0.00230685246867541,0.00459389411091663,-1.85970665926594,-0.231593895206376,-2.42998887676596,-0.103192397900067,-0.096978227540441,-0.0439854246414554,-0.0197973822941976,-2.28580296650418,0.374557229722344,0.545186003269818,0.175902403534046,0.194389570796804
9.2,3.13945446432499,2.4254099172845,-3.57375901367755,-0.177767090372914,0.0260333070006208,0.0019942506827804,-1.61671120494958,-0.606251842364508,-2.16761161462248,0.18598679740218,0.0679907860451233,0.120324729382397,5.02071484652521,-0.00142684057044335,-0.00127023017173355,-0.00578497883906426,-1.61671120494958,-0.606251842364508,-2.16761161462248,0.18598679740218,0.0679907860451233,0.120324729382397,-0.253721375161478,-1.77615857218974,0.069837876741591,-0.115236606178751,-0.0983043340255845,-0.243580402034822
9.3,3.07722668001521,2.19078156394523,-3.64466065157753,-0.0935737158181767,0.0587808730912058,0.0377130878626603,-1.77016388179063,-0.6866003617654,-2.43079759524214,-0.186638396147753,-0.108492983651156,-0.145334448001077,5.25638975431218,0.00495382344975708,0.00126263072852689,0.00509986160540181,-1.77016388179063,-0.6866003617654,-2.43079759524214,-0.186638396147753,-0.108492983651156,-0.145334448001077,-0.577419256799287,-1.0047704366138,0.63871075150119,0.398457909698876,0.0939879149900871,0.215702303491789
9.4,2.94787018214769,2.17365019979127,-3.85119328196702,-0.211106678571023,0.0149719203005976,-0.0386361411662862,-1.84815411531651,-0.510919509283201,-2.14313143401962,0.124307342250024,0.0351450792960796,0.129436547455313,5.19391786741688,0.000532064901685475,-0.000649157607179579,-0.0043000247383631,-1.84815411531651,-0.510919509283201,-2.14313143401962,0.124307342250024,0.0351450792960796,0.129436547455313,-0.236031902552669,-2.16919104410702,0.346083418770856,0.0429039868274393,-0.04995183766833,-0.180951239874706
9.5,2.7511969097087,2.17368711555143,-3.90971406748295,-0.116989008177989,0.0471534163979252,0.0447478802554918,-1.83995039990712,-1.09849804693116,-2.24120149009987,-0.0811030190329284,-0.0802834136290007,-0.108433077070875,5.26728364050172,0.00421052401949863,0.00113087884639156,0.00301932271979988,-1.83995039990712,-1.09849804693116,-2.24120149009987,-0.0811030190329284,-0.0802834136290007,-0.108433077070875,-0.437664449152464,-1.25044898817009,0.64092986082678,0.338710422589067,0.0841241526156683,0.127881875593752
9.6,2.66853789969974,1.90058119226118,-4.04199149920704,-0.176869577670959,0.0160213854485728,-0.0321349785014787,-1.89146139824505,-0.924781068103653,-2.10518644596386,0.106824021111077,0.0184654309610874,0.0747932739038381,5.27134818228627,0.00143573413290585,1.43183284321959e-05,-0.00201817183507465,-1.89146139824505,-0.924781068103653,-2.10518644596386,0.106824021111077,0.0184654309610874,0.0747932739038381,-0.225779891658139,-1.84867561215945,0.566891083417065,0.115658531846662,0.000607662656460088,-0.0847082807865899
9.7,2.52448261436256,1.92530102949492,-4.12472364736193,-0.0917560477117883,0.0660135570406481,0.051122438488752,-1.85171952287369,-1.25452745109596,-2.08603767432742,0.00435971684426602,-0.0251106490908179,-0.0327296316455287,5.2946126741635,0.00131618537195335,-0.000452354027076788,-0.000868981935604498,-1.85171952287369,-1.25452745109596,-2.08603767432742,0.00435971684426602,-0.0251106490908179,-0.0327296316455287,-0.645097047184787,-1.00453962879264,0.711712950444417,0.105566662619058,-0.0369005405691771,-0.0362257784421035
9.8,2.39871186124239,1.6907197770383,-4.25679143679739,-0.152277138573444,0.0258373940623109,-0.0131528791476594,-2.05339370426954,-1.16000351682894,-2.0531988738224,-0.00988499458893465,-0.0609051967105999,-0.0260337723156932,5.38342450002252,0.00397355824250721,0.0011351176571597,0.00185720902254713,-2.05339370426954,-1.16000351682894,-2.0531988738224,-0.00988499458893465,-0.0609051967105999,-0.0260337723156932,-0.296394697108293,-1.62945852901117,0.828705394714609,0.320080521315657,0.0859285925328758,0.0787866950134963
9.9,2.19796575300618,1.6840814790706,-4.35614484350847,-0.14350778685741,0.0218960738494272,0.000594777925071253,-1.97087904208348,-1.45842735420335,-1.91691158573917,0.124785397409346,0.0160167622156291,0.0470743123198314,5.35396073539303,0.00121133582509951,-3.4331773188557e-05,-0.00225219549765685,-1.97087904208348,-1.45842735420335,-1.91691158573917,0.124785397409346,0.0160167622156291,0.0470743123198314,-0.231121847167405,-1.53153878955137,0.785308105590069,0.0974905713204722,-0.00346574751590288,-0.0946429846699242
10,2.08988930079996,1.4519268279926,-4.43068021462374,-0.0959984504959017,0.0421643683734849,0.0209116373965725,-1.9969669581856,-1.59902176350996,-1.91958330422415,0.0071443588572028,-0.0401329990767673,-0.055251130810312,5.41695744318293,0.00305704692455172,0.000646541945927657,0.00162943600095015,-1.9969669581856,-1.59902176350996,-1.91958330422415,0.0071443588572028,-0.0401329990767673,-0.055251130810312,-0.432753851607829,-1.04772033540826,0.964447455332008,0.246079880065613,0.0479726786065671,0.0691294397491374
10.1,1.96439603316514,1.31462153266883,-4.53830916589633,-0.129455304920181,0.0278520558975697,-0.0108854505690603,-2.0686333015892,-1.55582289271496,-1.7908281068551,0.10486442830985,-0.000296568898766884,0.0408778358530499,5.41957230752637,0.00168994442347684,7.60593018315471e-05,-0.00141688666557909,-2.0686333015892,-1.55582289271496,-1.7908281068551,0.10486442830985,-0.000296568898766884,0.0408778358530499,-0.31454126675714,-1.39592764807002,0.934277815604336,0.136137034649454,0.00523843952789108,-0.0594327061568652
10.2,1.761447872102,1.2050001622284,-4.6310091114907,-0.115385342583603,0.0149835709552673,-0.00125282003542021,-2.12068244213628,-1.82754326601698,-1.79049419756859,0.0305682253055198,-0.0492238095187003,-0.0524628655366072,5.51829771952748,0.00427447718813746,0.00148331766658335,0.00255377911883858,-2.12068244213628,-1.82754326601698,-1.79049419756859,0.0305682253055198,-0.0492238095187003,-0.0524628655366072,-0.165853602158848,-1.27043067506504,1.15197689141303,0.344361611909025,0.112707076527943,0.10809028467097
10.3,1.61410487255898,0.986875777251842,-4.72853151723725,-0.135948693278024,-0.00354002365108298,-0.0359139027707789,-2.09000179766164,-1.91124125273745,-1.61074873904569,0.157107901920382,0.0170829664845608,0.0424868971699724,5.49856582169216,0.00273632164255793,0.000904228570381105,-0.000294384144994802,-2.09000179766164,-1.91124125273745,-1.61074873904569,0.157107901920382,0.0170829664845608,0.0424868971699724,-0.0149702258643624,-1.49086852015362,1.08559504248745,0.220588268929721,0.0692047737989755,-0.0121178810863592
10.4,1.53557782066417,0.880903248439348,-4.72095167639558,-0.0357000832277246,0.0672950554728629,0.0464068530981029,-1.98736169439511,-2.03286743900794,-1.54831011010769,0.140043819090603,0.0331572155167798,0.0155302148436697,5.44230500285655,-0.000794035666609236,-0.00152244426816114,-0.00292361243877941,-1.98736169439511,-2.03286743900794,-1.54831011010769,0.140043819090603,0.0331572155167798,0.0155302148436697,-0.712651296749003,-0.422013323732435,1.04305338880741,-0.0643224858016298,-0.118209296266056,-0.123067970032328
10.5,1.40025811301921,0.652318512695941,-4.8299014007126,-0.0730593142698365,0.0361266255054657,-0.000773892051644912,-2.28249430405707,-1.88123535814037,-1.57417143173715,-0.0370544094316135,-0.0996646924767732,-0.0780827345559481,5.58357433968907,0.00468030488093092,0.00154739371067585,0.00373949353838795,-2.28249430405707,-1.88123535814037,-1.57417143173715,-0.0370544094316135,-0.0996646924767732,-0.0780827345559481,-0.402898379938722,-0.814827061289479,1.32009161610856,0.377061054700666,0.117742606940268,0.158072580657465
10.6,1.14198672682069,0.63382676490225,-4.91878139210811,-0.128538501357143,-0.00861132247941503,-0.0290941693552501,-2.22466951078112,-2.02685691261786,-1.35482703616984,0.214334690033268,0.0397646874900109,0.0839062497445101,5.54778020582671,0.00126479132007997,0.000119478574229389,-0.00258044689335877,-2.22466951078112,-2.02685691261786,-1.35482703616984,0.214334690033268,0.0397646874900109,0.0839062497445101,0.0533436435006639,-1.42443721720936,1.19361731062006,0.102007964109782,0.00922646430136461,-0.10863620721952
10.7,0.986184576398465,0.396786709612425,-4.95019769247459,-0.0508725772292802,0.0184770036012134,0.00656249701494224,-2.17023334500932,-2.35880388541707,-1.3770547441669,0.0540214355645466,-0.0437041287286556,-0.083676561163466,5.64238706156281,0.00403049238194692,0.00140611329959936,0.00366670448771027,-2.17023334500932,-2.35880388541707,-1.3770547441669,0.0540214355645466,-0.0437041287286556,-0.083676561163466,-0.204456942723114,-0.575192075192441,1.45825090442939,0.3246697828082,0.106902327045317,0.15494824507612
10.8,0.902178366867113,0.129649818639436,-5.02176804307826,-0.0887955902906299,0.00120051130376444,-0.0429331389749476,-2.21292001601875,-2.18607139671307,-1.14084890874021,0.200304209062619,0.028003564683844,0.0746548947983251,5.57029781300263,0.00170408117711093,0.000433396285132049,-0.00148291567234167,-2.21292001601875,-2.18607139671307,-1.14084890874021,0.200304209062619,0.028003564683844,0.0746548947983251,-0.0557116182171261,-0.986454176562487,1.28669659291925,0.137433543285003,0.0333657131482991,-0.0623614757157508
10.9,0.723073165208722,0.0668523849741485,-5.01111219889875,-0.0253612116507597,0.0280652778084499,0.0180057376265781,-2.19487970225525,-2.3771385378634,-1.18132204574347,0.107814451015863,-0.0114128142500818,-0.0429881019284961,5.63959780955769,0.00197529989996003,0.00043714644601432,0.00119421665574607,-2.19487970225525,-2.3771385378634,-1.18132204574347,0.107814451015863,-0.0114128142500818,-0.0429881019284961,-0.311209346703833,-0.291673934855117,1.46112811002172,0.158979100800593,0.0326663115012645,0.0505841023014887
11,0.599428100583213,-0.161864023605999,-5.08638492427038,-0.0469458411782421,0.019388934503218,-0.0211768912074676,-2.26550843191572,-2.24040029226384,-0.990850152409646,0.135413841374634,-0.00453501914127518,0.0240972776970535,5.6054162442331,0.00200169757146818,0.000336732871605607,-0.000127920628781123,-2.26550843191572,-2.24040029226384,-0.990850152409646,0.135413841374634,-0.00453501914127518,0.0240972776970535,-0.228204840788903,-0.521393262192193,1.38637605215322,0.161299387422419,0.025537132336873,-0.00522022422518828
11.1,0.440879954720866,-0.211183609079113,-5.05174687720951,-0.00337631273339564,0.046616213672011,0.0310453398888001,-2.22872418071481,-2.29674806670504,-0.949866369418792,0.164019275325493,0.0142637139133414,0.0155145230336722,5.6011502688994,-0.000467782468132981,-0.00109427238858665,-0.00219610127589444,-2.22872418071481,-2.29674806670504,-0.949866369418792,0.164019275325493,0.0142637139133414,0.0155145230336722,-0.520591184128953,-0.0540077568913195,1.38006726165531,-0.0379534133910409,-0.084771977984975,-0.0925037232753381
11.2,0.308046637143286,-0.392766709291964,-5.09153085352235,0.0174072576550106,0.0541457874445795,0.029688584126077,-2.33742246046491,-2.20608943145621,-0.869421049475271,0.0624822761146282,-0.0448338862258574,-0.0327440989483353,5.62947155830872,0.000980280521071725,-0.000494416332000545,0.000146852615698667,-2.33742246046491,-2.20608943145621,-0.869421049475271,0.0624822761146282,-0.0448338862258574,-0.0327440989483353,-0.614783154847375,0.177806420466604,1.43073959544407,0.0787514168098476,-0.0387020400979173,0.00633866032625058
