time,x,y,z,roll,pitch,yaw,xdot,ydot,zdot,p,q,r,thrust,roll angle,pitch angle,yaw angle,_xdot,_ydot,_zdot,_p,_q,_r,_xddot,_yddot,_zddot,_phiddot,_thetaddtot,_yawddot
0,1.01841953230695,2.01841953230695,0.0184195323069548,0.0184195323069548,0.0184195323069548,0.0184195323069548,0.0184195323069548,0.0184195323069548,0.0184195323069548,0.0184195323069548,0.0184195323069548,0.0184195323069548,8.86278667070708,-0.00525674780835478,0.000530674348485543,-0.00175517580910121,0.0184195323069548,0.0184195323069548,0.0184195323069548,0.0184195323069548,0.0184195323069548,0.0184195323069548,-0.332380791829074,0.320410709134336,7.90956010369749,-0.423931390132113,0.040821219839669,-0.0740580543986476
0.1,0.620366420226373,1.22036642022637,0.0203664202263731,0.0203348329556547,0.0197240221647771,0.0197005006265015,-0.0812185626212759,0.11697958423551,4.36313949564049,-0.223386956411175,0.0325095310549358,-0.0308250163577381,5.59144955873196,-0.00048675380560711,-0.00102393162262824,0.000525958445228243,-0.0812185626212759,0.11697958423551,4.36313949564049,-0.223386956411175,0.0325095310549358,-0.0308250163577381,-0.224948401619771,0.222998676920336,1.36841234156604,-0.0392572668127697,-0.0787610218524604,0.0221922535676464
0.2,0.631403470409895,1.38626671078556,2.00846692790167,-0.100405852043451,0.0174397865707456,-0.0130542707738551,-0.0599255262341378,0.0631922209648287,1.15241564676062,-0.0412850680531658,-0.0379921814845877,0.0097508187899787,6.76073063711303,0.000638244631649015,0.000451086489472398,0.000155525483555887,-0.0599255262341378,0.0631922209648287,1.15241564676062,-0.0412850680531658,-0.0379921814845877,0.0097508187899787,-0.252284520509856,-1.35217577901436,3.64131548116217,0.0514767930818648,0.0347210628342233,0.00656489942402796
0.3,0.643646241298312,1.37294108368487,0.798475645844299,-0.0246477744164938,-0.00777661057701374,0.0102215573116542,-0.0940261227141332,-0.201930771409283,2.52460901456139,0.0108244219651901,0.0225987990121971,0.00656351391682238,6.47665611722773,-0.00340522653386426,-0.00059256261687433,-0.000791634537252933,-0.0940261227141332,-0.201930771409283,2.52460901456139,0.0108244219651901,0.0225987990121971,0.00656351391682238,0.103959045235371,-0.318192009491151,3.1389862230718,-0.27461474670593,-0.0455760574421174,-0.0334014946336082
0.4,0.602724840318294,1.23600764602095,1.49447926015141,-0.0230092492292588,-0.00214090375585948,-0.0106948401580878,-0.0845262805329687,-0.15531212268503,2.36386644559583,-0.182615348222069,-0.0362751535030336,-0.0316477773323934,6.11170005460318,0.000359406340395947,-2.47958578886534e-05,0.00201095948011888,-0.0845262805329687,-0.15531212268503,2.36386644559583,-0.182615348222069,-0.0362751535030336,-0.0316477773323934,0.0231530655033088,-0.281490155092221,2.4101365564338,0.0289831836863636,-0.00191537280332878,0.0848527289746639
0.5,0.653653472655916,1.30224853881106,1.605968890379,-0.0660840656411914,0.017506577591338,0.016954151091268,-0.013723056216975,-0.0951130823056666,2.15739681796987,0.00842008523932544,0.0241452747201753,0.0695260429400906,6.17013847810589,-0.00332599935087804,-0.00278901135195971,-0.00406971354840046,-0.013723056216975,-0.0951130823056666,2.15739681796987,0.00842008523932544,0.0241452747201753,0.0695260429400906,-0.201707158135753,-0.818439477401095,2.50145427641266,-0.268225931103314,-0.214438538100588,-0.171717949501705
0.6,0.641257810295401,1.28201412722862,1.62183834275262,-0.0189666674900094,0.011019811669829,0.0312054888846686,-0.0913327048379939,-0.241598089072145,2.31950221618946,-0.179855375216173,-0.119611042645125,-0.0932031168911886,6.02496980518091,-0.000902672688658192,0.000200919915124527,0.0029678778056286,-0.0913327048379939,-0.241598089072145,2.31950221618946,-0.179855375216173,-0.119611042645125,-0.0932031168911886,-0.125566517332585,-0.232564448456686,2.2370407752446,-0.072804624288499,0.0153065920554085,0.125229338860956
0.7,0.644689327124736,1.25090213123113,1.86654777652647,-0.0732718815081771,-0.0192608048243982,-0.00606718918461938,-0.0442840023055001,-0.188245338839476,2.30813897272752,-0.0598338247098802,0.027207732256782,0.0888689008066385,5.81106235176236,-0.00247927932285513,-0.00267726143841866,-0.0038865836407721,-0.0442840023055001,-0.188245338839476,2.30813897272752,-0.0598338247098802,0.027207732256782,0.0888689008066385,0.218070916164896,-0.852151917392554,1.77879048086929,-0.199984564287699,-0.205679735556312,-0.16400522811889
0.8,0.625749784846759,1.22712368665215,1.96407013924629,-0.0564144090872625,0.0108164970311588,0.041717559173336,-0.0736076407572284,-0.304764002810494,2.16641474379984,-0.156279959195016,-0.123296139447659,-0.0880235076483194,5.84261718226043,-0.000797237478620437,-0.00110036035470147,0.00223828896491946,-0.0736076407572284,-0.304764002810494,2.16641474379984,-0.156279959195016,-0.123296139447659,-0.0880235076483194,-0.0986016666669726,-0.663555534128675,1.85596219427428,-0.0642710462789227,-0.0848544892762144,0.0944312303476023
0.9,0.624570191028314,1.17958183424168,2.05484898386672,-0.0946730129293557,-0.0444088437667199,-0.0227030669236034,-0.0583714855899484,-0.350198816659179,2.29350303689959,-0.0841158889123099,-0.0517015141149629,0.055346054925903,5.61012600476786,-0.001435152695153,-0.00105008695853617,-0.00151411481249643,-0.0583714855899484,-0.350198816659179,2.29350303689959,-0.0841158889123099,-0.0517015141149629,0.055346054925903,0.471677865656587,-1.07165272915822,1.34899348403017,-0.115822032798227,-0.0804218013277772,-0.0639259187514766
1,0.576458174821509,1.09287725780967,2.19853567226139,-0.114328901721276,-0.0626803054411303,-0.00512261421438386,-0.107874881304216,-0.494635276688455,2.1042256987668,-0.148790498348628,-0.095813765047566,-0.0635677632024517,5.60766189361067,0.00151553201437035,-0.000238646699738796,0.00326428712030453,-0.107874881304216,-0.494635276688455,2.1042256987668,-0.148790498348628,-0.095813765047566,-0.0635677632024517,0.691370117339313,-1.28300254544768,1.31022479455509,0.122230378163562,-0.0183943699171918,0.137678675656613
1.1,0.568226231271965,1.02861711552073,2.26627306816414,-0.134976705081035,-0.0732953908229994,-0.0434667024438053,-0.0306414253412658,-0.58028208368298,2.18748311328102,-0.0150761089925978,-0.0485412166850072,0.0558058982670996,5.44036561605442,-0.000966507837634753,-0.00149717099141196,-0.00057910766732018,-0.0306414253412658,-0.58028208368298,2.18748311328102,-0.0150761089925978,-0.0485412166850072,0.0558058982670996,0.72517709942465,-1.49711504061546,0.942817159936348,-0.0781165725932127,-0.114636283920926,-0.0245242622134694
1.2,0.632309858072343,1.00362501003554,2.47029315124476,-0.0449827004838639,-0.0192722349619319,0.0456361939935509,0.0833781457358008,-0.621635023941381,2.10623342989961,-0.0851210471797414,-0.0761351256159413,0.0044336415773738,5.38394483197364,-0.00362276578726612,-0.00340944886220528,-0.002288855439343,0.0833781457358008,-0.621635023941381,2.10623342989961,-0.0851210471797414,-0.0761351256159413,0.0044336415773738,0.229172342525548,-0.474244259339375,0.94499977846804,-0.292168538979394,-0.262237947469169,-0.0966797626722123
1.3,0.635453295657986,0.910507127787335,2.53210738627392,-0.114482885524116,-0.070553810471453,-0.0105852634685917,0.0817018642264385,-0.798304254356234,2.0276264131424,-0.237545285316104,-0.192020304295489,-0.0663522228752939,5.28485970541383,0.00392118869146994,0.00128371620653906,0.00364952693625632,0.0817018642264385,-0.798304254356234,2.0276264131424,-0.237545285316104,-0.192020304295489,-0.0663522228752939,0.727415919063249,-1.21517830905695,0.664405767465658,0.31623069502403,0.0987330760487328,0.153854577681359
1.4,0.666380759460731,0.822671400599938,2.63348921399277,-0.165684088661018,-0.107703493265053,-0.0226705482328562,0.138704156396534,-0.799701607971841,1.99888781938043,0.0976770080357685,0.0178101973451645,0.0854989045901293,5.17390665649375,-0.00239500420243679,-0.00283453668170231,-0.0029728587756349,0.138704156396534,-0.799701607971841,1.99888781938043,0.0976770080357685,0.0178101973451645,0.0854989045901293,1.05814056122501,-1.73106613554309,0.336969446465657,-0.193513187530306,-0.217264843309927,-0.125665815874316
1.5,0.671843585446098,0.753871195675297,2.73328260086258,-0.0435505533715528,-0.0385050107804443,0.029398867160045,0.170090890430157,-0.929713356545028,1.92080716297534,-0.177250713954477,-0.170253780799751,-0.0748623382061483,5.17333944946633,-0.000605754594524169,-0.00174220056344314,0.00216863849449167,0.170090890430157,-0.929713356545028,1.92080716297534,-0.177250713954477,-0.170253780799751,-0.0748623382061483,0.41099207599539,-0.438569717293129,0.519206472627067,-0.0487376773219293,-0.134244301899043,0.091296996447373
1.6,0.695223616846259,0.658090943830601,2.83023429413655,-0.160899177616781,-0.120200186653028,-0.0371716141634708,0.285480673263903,-1.10441112823303,1.89378489764933,-0.108462946904086,-0.127776466842845,0.0413703868589596,4.98177378997133,0.00367993593395961,0.000781200551673928,-0.000217266589557802,0.285480673263903,-1.10441112823303,1.89378489764933,-0.108462946904086,-0.127776466842845,0.0413703868589596,1.11917178844429,-1.63894245621873,-0.0461072050674716,0.296390208927807,0.0607790841793382,-0.00946551356920533
1.7,0.730751072893911,0.492611156017896,2.89150709296058,-0.1633089168156,-0.131449605180715,-0.0128384049785804,0.254783264531506,-1.13286119985625,1.72010844706147,0.0652298034969231,-0.0528974753806435,-0.0284992829839457,5.02104570375937,-0.000100083648821877,-0.00131000462464304,0.00192930796758502,0.254783264531506,-1.13286119985625,1.72010844706147,0.0652298034969231,-0.0528974753806435,-0.0284992829839457,1.27765043602033,-1.64922166036406,0.0129973590185148,-0.00817551737946604,-0.100594209366551,0.0810344376379724
1.8,0.730961086411314,0.422523737599923,2.94561791730792,-0.0881699151513445,-0.104772837564794,-0.0390649960118396,0.365903716038794,-1.29703166664998,1.75071683969008,-0.0883311174814547,-0.136217972240912,0.022314275991283,4.88791470618011,0.00115376156566844,-0.000647939040721477,0.000757621424682771,0.365903716038794,-1.29703166664998,1.75071683969008,-0.0883311174814547,-0.136217972240912,0.022314275991283,0.984000903550494,-0.899934525151633,-0.125543341424919,0.0926917754785789,-0.0493020496739234,0.0315915809496116
1.9,0.836708727259078,0.330923538149335,3.10712306709957,-0.111922989612513,-0.102980485345234,0.0247295010324753,0.549158219085146,-1.39267996034549,1.6053764948716,0.00458418419805746,-0.0781033377051571,0.0346513134588811,4.78803477061401,0.000418713849635039,-0.00136230220438154,-0.00283081436693878,0.549158219085146,-1.39267996034549,1.6053764948716,0.00458418419805746,-0.0781033377051571,0.0346513134588811,1.00439446255178,-1.04502995815147,-0.344261148299291,0.033581855610791,-0.104529169479969,-0.11989608387037
2,0.913224816746336,0.178253307680579,3.11341579545356,-0.0942694867605152,-0.10384356836034,0.0129126892459697,0.601721017502857,-1.49315202770531,1.46458488993744,-0.039738908299758,-0.126693036187002,-0.0632018868295533,4.80804239816372,0.00172019425698698,-0.000155830754438381,0.00235917752731512,0.601721017502857,-1.49315202770531,1.46458488993744,-0.039738908299758,-0.126693036187002,-0.0632018868295533,1.00395410505203,-0.892272331626599,-0.288182261179186,0.138887080003649,-0.0122011714285865,0.09906092588271
2.1,0.952815350205682,0.0334071889476659,3.13372033440602,-0.127704744687069,-0.147205558964662,-0.045544616553272,0.681596612904475,-1.63351209349437,1.44874535681616,0.00316901701009301,-0.0905210875894988,0.0392347299980252,4.71980147281564,0.00344966722192493,0.000531855776500278,0.000285708373604882,0.681596612904475,-1.63351209349437,1.44874535681616,0.00316901701009301,-0.0905210875894988,0.0392347299980252,1.31711508925338,-1.26348512355923,-0.548525119864758,0.277652034791039,0.041583786768901,0.0115086222164308
2.2,1.02432566823217,-0.122940121652703,3.21215434261317,-0.110958686191311,-0.134607916558553,-0.00232512826060053,0.748835645467391,-1.68414338128656,1.33778468253683,0.0919328150803774,-0.0639363266355904,-0.00332773691021265,4.66814659687497,0.00120417978972467,-0.000587452715856221,0.00025550741066239,0.748835645467391,-1.68414338128656,1.33778468253683,0.0919328150803774,-0.0639363266355904,-0.00332773691021265,1.24283495820132,-1.03671095995859,-0.615057789641309,0.0970082758084819,-0.0450704474057359,0.0101982769780518
2.3,1.12279162375538,-0.208756706226422,3.28644040403797,-0.0387193213684242,-0.0984972961776324,0.0129740960989845,0.923761399292589,-1.76487153923718,1.26296009934148,0.0309355557942422,-0.0828211211061037,0.022362013648369,4.56431369020108,0.000266533015520354,-0.000940690037325398,-0.001681359845513,0.923761399292589,-1.76487153923718,1.26296009934148,0.0309355557942422,-0.0828211211061037,0.022362013648369,0.901528104980197,-0.341698522247462,-0.732427249200761,0.0213443220046274,-0.0722050786212852,-0.0715177272398535
2.4,1.22276706192767,-0.375249403451731,3.310868795624,-0.07870384721541,-0.128186816993582,0.00766349572201081,1.03753840957961,-1.94571375665954,1.1183121491634,-0.019574280243319,-0.114740432064425,-0.0366437966882599,4.57420887545608,0.00514153177457806,0.00170049528554649,0.00137266125710183,1.03753840957961,-1.94571375665954,1.1183121491634,-0.019574280243319,-0.114740432064425,-0.0366437966882599,1.17135518015335,-0.710316841978089,-0.764729170934954,0.414783551635917,0.130668984552519,0.0573241760029871
2.5,1.34604361846072,-0.567494798353181,3.31839169841481,-0.0883702257187127,-0.138602747327972,-0.0101488704709985,1.12196177853156,-1.93139099708589,1.07596945652752,0.204169785651523,0.00317576656980395,0.0395974750943338,4.51711495972858,0.000838793770161005,-0.000498955007675955,-0.00140505747955547,1.12196177853156,-1.93139099708589,1.07596945652752,0.204169785651523,0.00317576656980395,0.0395974750943338,1.23513751817847,-0.809894986349037,-0.897322755765829,0.0672670245512657,-0.0380384114805201,-0.0599309551953977
2.6,1.43904274763521,-0.683698329181457,3.36977316800723,0.0100347907269832,-0.091522290379344,0.0224384903070487,1.22130304696724,-1.99148856624852,0.959641295358639,0.0345322578040943,-0.0841939400516467,-0.0237085190877295,4.4552879994716,0.00164684100552625,7.84670487229903e-05,5.48389731576879e-05,1.22130304696724,-1.99148856624852,0.959641295358639,0.0345322578040943,-0.0841939400516467,-0.0237085190877295,0.812126144960264,0.107662722464466,-0.937163672432234,0.13300669510492,0.00588096471466128,0.00175608008131457
2.7,1.55720143006337,-0.824676585208107,3.38915797838443,-0.0481202224914522,-0.126239448870839,0.00311883123314296,1.39393328099434,-2.13907028238271,0.919588469985475,0.0781899950789058,-0.0575942565446767,0.0128041997887249,4.40850147299807,0.00495882059438306,0.00202603889390824,-0.00076583352567401,1.39393328099434,-2.13907028238271,0.919588469985475,0.0781899950789058,-0.0575942565446767,0.0128041997887249,1.11013194246141,-0.420652160544629,-1.07328438256912,0.399750880528355,0.155961504935665,-0.03288399593487
2.8,1.7098354476883,-1.04973914838472,3.40763944309633,-0.0335096352311278,-0.124154306413902,0.00928135507616309,1.42798320199853,-2.09119003683023,0.755332177352741,0.227129895970626,0.0194347170921037,-0.0117426063369036,4.44070405053393,0.00152259438947102,0.000300517691920347,9.2097653420395e-05,1.42798320199853,-2.09119003683023,0.755332177352741,0.227129895970626,0.0194347170921037,-0.0117426063369036,1.10193135130034,-0.287342157867137,-1.00190192839297,0.122832062889942,0.023088760812826,0.00333305868311558
2.9,1.76935544035429,-1.19276907931471,3.36077946228357,0.00717888397275235,-0.126169102817285,-0.0342449331666728,1.49927186314516,-2.20328757797326,0.715008958739456,0.0668726682246299,-0.075406575813092,-0.0209616004407165,4.42872342402263,0.00560447505967538,0.00276413193925102,0.00259040222844612,1.49927186314516,-2.20328757797326,0.715008958739456,0.0668726682246299,-0.075406575813092,-0.0209616004407165,1.11606843356731,0.0253887032371192,-1.02318537060845,0.451832962629325,0.212702066877391,0.108856261705174
3,1.92778207549261,-1.34449744804812,3.41742231436919,-0.0198961512568413,-0.136576038537661,-0.00703328771685448,1.66351695689256,-2.2023478086967,0.703593840935041,0.28028114390896,0.0588258157981797,0.0642795208763357,4.33927043292311,0.00253288184406353,0.00133076184169366,-0.00271349598935942,1.66351695689256,-2.2023478086967,0.703593840935041,0.28028114390896,0.0588258157981797,0.0642795208763357,1.18012189561074,-0.180962714147451,-1.2139755486765,0.203778386355635,0.102602490824917,-0.1149236874317
3.1,2.1073744640609,-1.48501753158933,3.46611401818464,0.0947787049745645,-0.0639369210790646,0.0451654382984476,1.77620727266765,-2.1575006380139,0.533263426802697,0.179264422068279,0.0255552654173896,-0.0415725372150539,4.27887048090907,0.000711168810198577,-5.73817021901879e-05,-0.000192867671606447,1.77620727266765,-2.1575006380139,0.533263426802697,0.179264422068279,0.0255552654173896,-0.0415725372150539,0.507207707589363,0.833628403959143,-1.30807466540346,0.0578899033855722,-0.00460007019082846,-0.00842555204837718
3.2,2.2501700171896,-1.61434139896184,3.42397577271204,0.0596503676044001,-0.0853136095217101,-0.00436289470793143,1.94638367306251,-2.25587773019592,0.574329729521218,0.102223834260448,-0.0405212293767161,0.00497939584276829,4.25718097712561,0.00613749895306918,0.00410667984343497,4.72311027884914e-05,1.94638367306251,-2.25587773019592,0.574329729521218,0.102223834260448,-0.0405212293767161,0.00497939584276829,0.726427383904803,0.50441916891724,-1.34169296459187,0.494846464138307,0.315926774841185,0.00179060686413886
3.3,2.39541037565025,-1.8991486207339,3.41341077096329,-0.0252481105815666,-0.170785470520194,-0.0486203273452047,1.88642100768292,-2.24755863967865,0.364745948371864,0.296743940400994,0.0869793949508139,-0.0389360879429469,4.53958693358438,0.00701022138750949,0.0041755729477231,0.0045218782062421,1.88642100768292,-2.24755863967865,0.364745948371864,0.296743940400994,0.0869793949508139,-0.0389360879429469,1.52960963792037,-0.303907593983975,-0.865765396626704,0.565303524297673,0.321204883323649,0.190637157486194
3.4,2.53500928115119,-1.99089902674304,3.39006561246044,0.111857533436677,-0.0764854244668027,-0.0297515912883631,2.01184678009857,-2.09474801842367,0.504184343237633,0.394538367589908,0.13500066070941,0.0981296145796367,4.17092546173468,-0.0013231802104851,6.72712852704371e-05,-0.00311648003178787,2.01184678009857,-2.09474801842367,0.504184343237633,0.394538367589908,0.13500066070941,0.0981296145796367,0.660843520166024,0.911899558165782,-1.54451744499703,-0.107329997860106,0.00519145339363443,-0.131517678707388
3.5,2.68306717356254,-2.04928363123987,3.47663438747148,0.171902153204446,-0.0518402432304765,0.030782526227084,2.17642026000446,-2.18404502676165,0.256857898017184,0.0506061191169613,-0.0103916291575551,-0.0705272293087724,4.23439417876248,0.00588575153312336,0.00423366152734249,0.00208199391070565,2.17642026000446,-2.18404502676165,0.256857898017184,0.0506061191169613,-0.0103916291575551,-0.0705272293087724,0.387568937274272,1.46126435834269,-1.47724097081598,0.475448016385691,0.325838208202951,0.0879897599554609
3.6,2.92419889572152,-2.25888373656961,3.40808519789725,0.0536555968312569,-0.100574537702627,-0.0243169137144916,2.29033944650795,-2.06374435693417,0.384665942514038,0.374737105802064,0.166684562682442,0.0539207744205291,4.27683364034945,0.00413068870732065,0.00385798250526929,-0.000581091277712572,2.29033944650795,-2.06374435693417,0.384665942514038,0.374737105802064,0.166684562682442,0.0539207744205291,0.8684958874564,0.437744297227147,-1.31180496972355,0.332928797133178,0.296720547024832,-0.0243550106243548
3.7,3.10917159870906,-2.39179945720133,3.47725893168633,0.184579040273761,-0.0291524948784011,0.00562892340223808,2.27892833888157,-1.92414160960849,0.107195216520669,0.308745689545555,0.15768361074079,-0.0169690474917664,4.21238770247121,0.000279057756174239,0.00124608209345477,0.000911719528653262,2.27892833888157,-1.92414160960849,0.107195216520669,0.308745689545555,0.15768361074079,-0.0169690474917664,0.232689766480608,1.54755642245467,-1.53185013329565,0.0230100937097826,0.0961230179272832,0.0387540180466215
3.8,3.24644807401087,-2.42428960476672,3.36808962688684,0.189843993920818,-0.0172067617986535,-0.0103023828613554,2.41030140142838,-1.86529025989748,0.232362158734025,0.163941710095145,0.0650401715135727,0.0245654303078253,4.1271566574333,0.00445818848206207,0.00465236978513909,-0.000121326927609904,2.41030140142838,-1.86529025989748,0.232362158734025,0.163941710095145,0.0650401715135727,0.0245654303078253,0.155511041064434,1.55611639869324,-1.70518622238555,0.359792016053197,0.358093588239612,-0.00476389565928012
3.9,3.51099454612508,-2.53747224751337,3.48522346213731,0.170636954934872,-0.0183262319950742,0.0399073299515559,2.48072430671824,-1.67011144330277,0.0858926741667871,0.374414859777719,0.243937865258753,0.0281900362330097,4.10195219362414,-9.17896511609827e-05,0.00181156321262307,-0.0025563490429256,2.48072430671824,-1.67011144330277,0.0858926741667871,0.374414859777719,0.243937865258753,0.0281900362330097,0.0924565141424306,1.39790743997898,-1.72660011026575,-0.00689353694660791,0.139869226173069,-0.107474111155744
4,3.68625924762161,-2.60050959803079,3.42371803539418,0.26351156293118,0.0521950557968056,0.0233263423160181,2.47307736827253,-1.53298151029072,-0.0742844465425647,0.178510883170723,0.129485481062144,-0.0412019522261975,4.0854954851795,0.00108376790017952,0.0019243516803912,0.00123438605897987,2.47307736827253,-1.53298151029072,-0.0742844465425647,0.178510883170723,0.129485481062144,-0.0412019522261975,-0.461106073278751,2.1181397285933,-1.93180485662938,0.0880492111123921,0.14909803027393,0.0524892683236358
4.1,3.83806712403853,-2.66354989834198,3.34463728945895,0.186215463383843,0.0038150077119285,-0.012315449701233,2.45235970071408,-1.34366376259383,0.033401943214223,0.222863166285581,0.127615282299895,0.0327550809650251,4.01579713673226,0.00339718884383725,0.0049463558443658,-0.000301197495462993,2.45235970071408,-1.34366376259383,0.033401943214223,0.222863166285581,0.127615282299895,0.0327550809650251,-0.0117961770152821,1.48723641713833,-1.91731381193365,0.27422506482598,0.381033645071928,-0.0123175839797406
4.2,3.98946291293438,-2.73356535940765,3.40505083512468,0.191911795831293,-0.0103347932661292,-0.00618816033314577,2.3810465976782,-1.22126626609982,-0.373120844544049,0.309861981747901,0.247815530400201,-0.0191078358630724,4.18337458927628,0.000902739068714277,0.00225104133205319,0.00180649274396517,2.3810465976782,-1.22126626609982,-0.373120844544049,0.309861981747901,0.247815530400201,-0.0191078358630724,0.0947532917727523,1.59528397127352,-1.59729139190329,0.0732281072849304,0.174344859794661,0.0765976408580382
4.3,4.12509860192407,-2.74174399536427,3.21053456382284,0.26352734586941,0.0678685023547299,-0.0125770675709616,2.41347962204839,-1.00985924816197,-0.298498064428746,0.228789279646648,0.161918643694587,0.0421962519757725,4.04827274325157,-0.000415971520169736,0.00179513301956439,-0.00105233756965722,2.41347962204839,-1.00985924816197,-0.298498064428746,0.228789279646648,0.161918643694587,0.0421962519757725,-0.503556008128355,2.11555122343283,-2.01096652252832,-0.0333437888545157,0.139069796017229,-0.0441170170665333
4.4,4.29702049442045,-2.73421833640584,3.22949311357567,0.248839000417747,0.0456407219262816,0.020316050381049,2.39950763869817,-0.796321694694064,-0.350741283976012,0.17384779353816,0.161265151680655,-0.016544253417519,3.96161274654883,0.00110580251848993,0.00356881649920596,0.000140932991766107,2.39950763869817,-0.796321694694064,-0.350741283976012,0.17384779353816,0.161265151680655,-0.016544253417519,-0.389929904625366,1.94380298680033,-2.13881450931751,0.0894292824585904,0.27654250155299,0.00615500459964043
4.5,4.45860462716958,-2.74319008764918,3.21642769703047,0.224665892930748,0.0428329551058217,-0.017685934496539,2.3338137154499,-0.629798195368294,-0.626142519813683,0.23107489030129,0.227291190378303,-0.00215322050366846,4.06357646067283,0.000342370723043045,0.0021310833103635,0.00123251164655232,2.3338137154499,-0.629798195368294,-0.626142519813683,0.23107489030129,0.227291190378303,-0.00215322050366846,-0.307184668715331,1.8162891428369,-1.89436067421864,0.0277131214558913,0.165691475591728,0.0521157025740527
4.6,4.59261841232805,-2.72330108326675,3.06946013159043,0.264312452794884,0.088210934783108,-0.00867934861486883,2.30439653403647,-0.411717403403304,-0.688609503069768,0.205026693499003,0.184400695819273,0.0267039416376358,4.01954801363711,-0.00130986466457206,0.0015476038798573,-0.000695193405936022,2.30439653403647,-0.411717403403304,-0.688609503069768,0.205026693499003,0.184400695819273,0.0267039416376358,-0.665368466915123,2.1060331613633,-2.08025394581366,-0.105675830495092,0.1209018541996,-0.0293833108301449
4.7,4.74873258752147,-2.6565266691869,3.01105517124262,0.281403194771298,0.0944652805427382,0.0189406765727913,2.26592348339888,-0.162450741866176,-0.74612548501536,0.142889877765989,0.182969069199456,-0.00344301954143785,3.93218160182789,-0.00142676170464126,0.00176461324384913,-0.000689004115544791,2.26592348339888,-0.162450741866176,-0.74612548501536,0.142889877765989,0.182969069199456,-0.00344301954143785,-0.753862698589673,2.17007595066037,-2.2886523814508,-0.115275470202491,0.138459055144528,-0.0292736353460605
4.8,4.92193625509574,-2.56431287114846,2.99664955446047,0.286929182173455,0.127420949395776,0.0276819799617442,2.2268694505026,0.0848973261994153,-0.930681364230782,0.151509375874966,0.214370416065404,0.0133312413335224,3.90928791612409,-0.00299767403585672,-6.5072326262957e-05,-0.00196270954785497,2.2268694505026,0.0848973261994153,-0.930681364230782,0.151509375874966,0.214370416065404,0.0133312413335224,-1.01381716232642,2.1854981986892,-2.3718617632156,-0.242104858872296,-0.00226256978059275,-0.0831790439391682
4.9,4.97410097667426,-2.55816460472468,2.8071488782111,0.223115396584943,0.0770691963281655,-0.0414056297080977,1.98812822948734,0.223303672393527,-1.11958759582788,0.0143259359615429,0.0799766717429179,-0.0809619228186522,4.02390860515295,0.00308599673841924,0.00413888812967599,0.00584190754175855,1.98812822948734,0.223303672393527,-1.11958759582788,0.0143259359615429,0.0799766717429179,-0.0809619228186522,-0.530037094243871,1.80421802120331,-1.98496198979285,0.248262944177027,0.321645924954398,0.245925002666823
5,5.06178180908698,-2.46655318171931,2.70804723356801,0.195296821143875,0.0547045518405384,-0.0520729182490419,1.97943105415643,0.443672488071852,-1.25352325989055,0.293739714997944,0.277233371512803,0.117582616234856,4.0525993651256,-0.00394173107296615,0.000440468172673615,-0.00312766806404175,1.97943105415643,0.443672488071852,-1.25352325989055,0.293739714997944,0.277233371512803,0.117582616234856,-0.352288987919145,1.59337262670078,-1.87077443333814,-0.318055169715601,0.0347172559049187,-0.132610896360699
5.1,5.22394078689008,-2.31228247473527,2.57942589887462,0.366569020662104,0.185670985220958,0.0667442681559104,2.01312825306469,0.67130024723706,-1.35122326972282,0.0195101246716686,0.186618297062181,-0.0440640086920449,4.02200501799212,-0.00543420831060257,-0.00252731719907252,-0.00111070422457981,2.01312825306469,0.67130024723706,-1.35122326972282,0.0195101246716686,0.186618297062181,-0.0440640086920449,-1.57551509693994,2.78421064846128,-2.42948371024599,-0.439502904414965,-0.189647414827673,-0.0478259171564077
5.2,5.3514727288435,-2.19632103620849,2.43267651477507,0.249077780732526,0.156254024011945,-0.0113367836162236,1.7665125388998,1.05819986558834,-1.25715054813762,-0.0594429037511441,0.0403991660879642,-0.0117280226579272,3.81119201597852,-0.000711945418787529,0.00253322367810679,0.00103237399362068,1.7665125388998,1.05819986558834,-1.25715054813762,-0.0594429037511441,0.0403991660879642,-0.0117280226579272,-1.12820679966726,1.89190774610717,-2.51283802920355,-0.0584556390884248,0.19819707645862,0.0424151893772464
5.3,5.38795730937471,-2.01299665140612,2.51068467024152,0.194957799605956,0.0854756009981347,-0.00600121735266455,1.68324269380765,1.11523188785961,-1.77437696600867,0.110961097989394,0.233320414642985,0.022351002940192,4.03334300512156,-0.00337148039174627,-8.94220746998809e-05,-0.000841960032318789,1.68324269380765,1.11523188785961,-1.77437696600867,0.110961097989394,0.233320414642985,0.022351002940192,-0.666229027915727,1.56674620381261,-1.92502261239429,-0.272844748990063,-0.00397769753525115,-0.0366908665668624
5.4,5.48813443844846,-1.90614815611281,2.14847926011526,0.283356116400361,0.188295221785749,0.015365452004182,1.6387087484191,1.31476915163192,-1.76128661092312,0.000120748396129355,0.144100246520518,-0.00866925520195693,4.11069734682485,-0.00535579283762092,-0.00217171982966169,-0.000332407062894611,1.6387087484191,1.31476915163192,-1.76128661092312,0.000120748396129355,0.144100246520518,-0.00866925520195693,-1.51269190594552,2.2755597592329,-2.0559738400868,-0.433332737314269,-0.163321437603994,-0.0154524222241111
5.5,5.54054481696895,-1.77481702835049,1.97266309430812,0.213524366793594,0.135445073291487,-0.023373700290182,1.36552887047423,1.60349457086906,-1.72224583582858,-0.12146474078186,0.0326733811358787,-0.0203623503585783,3.98888270474309,-0.00104640719385563,0.00202556442718788,0.00204053322442552,1.36552887047423,1.60349457086906,-1.72224583582858,-0.12146474078186,0.0326733811358787,-0.0203623503585783,-1.01298608625989,1.71467611437769,-2.08481482806913,-0.0858201352324313,0.159257038442284,0.0845313657575273
5.6,5.55058657279326,-1.57019771747778,1.97034984734202,0.155687681149788,0.092686712329907,-0.0242529172068874,1.31347689282267,1.70311928640301,-2.04691232252371,0.0462405204849165,0.202108835564534,0.0334143616809334,4.10872365074644,-0.00370024612622073,-0.00080140299257684,-0.000461407260770113,1.31347689282267,1.70311928640301,-2.04691232252371,0.0462405204849165,0.202108835564534,0.0334143616809334,-0.720238422133692,1.29203941005297,-1.7267870910779,-0.299579779881743,-0.0589696912193397,-0.0210170157597195
5.7,5.64425036842099,-1.39567941522405,1.68964532756549,0.251437463992211,0.196382348688586,0.0191545403972765,1.29333544895821,1.86508751375848,-2.03809205122102,-0.0565130949075797,0.11250987973704,0.000410535484418724,4.19002483142604,-0.00634857266249719,-0.00278468919585573,-0.000905957740411762,1.29333544895821,1.86508751375848,-2.03809205122102,-0.0565130949075797,0.11250987973704,0.000410535484418724,-1.62336351397824,2.05421080655183,-1.84946350956186,-0.513830781562163,-0.210402311503346,-0.0399864853040691
5.8,5.74215628911741,-1.18279909034967,1.55165772405125,0.230557840692507,0.19099054904761,0.0267521436764186,1.07137227398105,2.20882914781631,-1.99197294363394,-0.168359493560722,0.0434772757359199,0.00823225519025737,4.10517741848095,-0.00524152066119574,-0.00143828356449511,-0.00164440589771116,1.07137227398105,2.20882914781631,-1.99197294363394,-0.168359493560722,0.0434772757359199,0.00823225519025737,-1.56698699861583,1.83497685698759,-1.96223992279883,-0.424672083059575,-0.106876451560275,-0.071223972833241
5.9,5.73253802205923,-0.936106210284469,1.52894387813613,0.160336121955413,0.151627063609924,0.0174733956985792,0.898473731594314,2.34290288429176,-2.22073116058249,-0.157476658942265,0.078118016303583,-0.0228795590418359,4.13772507250811,-0.00399057509091564,-0.00139424471783304,0.000256722827483025,0.898473731594314,2.34290288429176,-2.22073116058249,-0.157476658942265,0.078118016303583,-0.0228795590418359,-1.25684290370377,1.29941400124059,-1.73442297594541,-0.323975252447518,-0.103405824780532,0.00903686186254155
6,5.70760320661028,-0.758839935867072,1.27120397219447,0.130186825559777,0.147736483418825,-0.0195206233107233,0.752970371043582,2.39416903166785,-2.31893765433113,-0.141628596432486,0.0555794367545974,-0.00219216466081679,4.25043669488914,-0.0037564350667648,-0.00129857712989079,0.00102633533048389,0.752970371043582,2.39416903166785,-2.31893765433113,-0.141628596432486,0.0555794367545974,-0.00219216466081679,-1.21895890449857,1.12758634903762,-1.47288199653812,-0.30476660839613,-0.0968910469268428,0.0415227716407541
6.1,5.73731458969977,-0.547595607490369,1.07213508687933,0.154804705036763,0.16754173952986,0.0158398724048452,0.664399142458539,2.54819711333239,-2.26530448316924,-0.126583818804751,0.075404540989926,0.0381325019470133,4.26544041497629,-0.00647811334698998,-0.00314627036207874,-0.00254798002707265,0.664399142458539,2.54819711333239,-2.26530448316924,-0.126583818804751,0.075404540989926,0.0381325019470133,-1.42624715743456,1.29292370625361,-1.49915798065144,-0.524265281856465,-0.239208573161678,-0.109263326625037
6.2,5.7260252767619,-0.344600671379821,0.92274880826429,0.133344375697133,0.157018756029567,0.0108530346272503,0.451448161279529,2.6725959126283,-2.36738167048581,-0.2816008179068,-0.0251983405987115,-0.0606804301929293,4.33462502529717,-0.00305807387141805,-0.000978723723250643,0.00234793733018565,0.451448161279529,2.6725959126283,-2.36738167048581,-0.2816008179068,-0.0251983405987115,-0.0606804301929293,-1.35604341832048,1.13792315930841,-1.32341213614865,-0.249247785283394,-0.0715503964018095,0.0973243535503047
6.3,5.67469316998139,-0.134986771555308,0.751525452482431,0.0431765004290738,0.108935041347825,-0.0388397730418453,0.297007855101039,2.76465494722029,-2.38152216676702,-0.162191687711506,0.0511830452219879,0.0399567458105436,4.30668300586787,-0.00334963642183922,-0.00146942444459388,-7.32672328845523e-05,0.297007855101039,2.76465494722029,-2.38152216676702,-0.162191687711506,0.0511830452219879,0.0399567458105436,-0.920428206850777,0.407827269632863,-1.25566993351895,-0.271586823432035,-0.111130143935767,-0.00466051295651307
6.4,5.64699132960655,0.0890717772486327,0.595232377842507,0.0876829902912565,0.145310856716256,0.00982051575775693,0.267146403730187,2.71303375184035,-2.40500365875948,-0.184668224291504,0.0263201621007086,-0.00691081330634071,4.35926993303833,-0.00486936314630615,-0.00256809140140204,-0.000140187918161791,0.267146403730187,2.71303375184035,-2.40500365875948,-0.184668224291504,0.0263201621007086,-0.00691081330634071,-1.26503188807984,0.751101598835612,-1.21648627703803,-0.394950521119722,-0.194822932696294,-0.00742910487467211
6.5,5.64589319342363,0.262153920740209,0.383875296336116,0.0641468623201891,0.135870364487815,-0.0137980822292868,0.0781149570000841,2.83989890988067,-2.4599480221713,-0.267012028383716,-0.0269580246471607,-0.0113342191869635,4.46153270195436,-0.00313447510643689,-0.00145374743071667,0.0011830330844995,0.0781149570000841,2.83989890988067,-2.4599480221713,-0.267012028383716,-0.0269580246471607,-0.0113342191869635,-1.1981605153211,0.588582005070354,-0.98735420606349,-0.254931873422884,-0.109441720561047,0.0484909605902269
6.6,5.59883320313473,0.496812898512776,0.255091309376558,0.0223764067821753,0.119912695310279,-0.00821118374801902,-0.0312641376803715,2.89453871378196,-2.39142233575461,-0.20373194248119,0.0173201534841071,0.0253809986376932,4.39308418553356,-0.00405633661087034,-0.00236480764205209,-0.00082083906387547,-0.0312641376803715,2.89453871378196,-2.39142233575461,-0.20373194248119,0.0173201534841071,0.0253809986376932,-1.04913731343931,0.20520795164796,-1.08910811677671,-0.329031261914863,-0.179998039637135,-0.0358924965812701
6.7,5.57426759604513,0.727345969106454,0.141820840103372,0.0509096526256353,0.152974691452808,0.0221278428197961,-0.089978321640145,2.87221415307812,-2.45590773153847,-0.245791457487667,-0.016627416949088,-0.00645835783654893,4.47566917709061,-0.00474599984129423,-0.00316950050289451,-0.000712835628655668,-0.089978321640145,2.87221415307812,-2.45590773153847,-0.245791457487667,-0.016627416949088,-0.00645835783654893,-1.3719717918481,0.42526051047688,-0.974655907569989,-0.385157450917261,-0.241627173557312,-0.031228937638224
6.8,5.51171683572052,0.883927570120106,-0.0813509025459007,-0.012100593485826,0.108469531980449,-0.0222441552186101,-0.344535555627702,2.90874958685213,-2.48859561112116,-0.318002056588012,-0.0828831170465122,-0.0314910553637229,4.52422522382236,-0.00112187468696571,-0.000642489066209767,0.00256719913377107,-0.344535555627702,2.90874958685213,-2.48859561112116,-0.318002056588012,-0.0828831170465122,-0.0314910553637229,-0.981678949105952,-0.0876758205724263,-0.815386339878112,-0.0927468408927358,-0.0476066883052589,0.107316804025695
6.9,5.43418620451811,1.11649505689988,-0.190395642406991,-0.0337318542037678,0.102866446285198,-0.00599730868332412,-0.336830249533546,2.84904058496921,-2.38855682606098,-0.154356903362015,0.0351955626433276,0.0653751929957954,4.4272786805253,-0.00478480566296333,-0.00329627097184307,-0.00279412578253314,-0.336830249533546,2.84904058496921,-2.38855682606098,-0.154356903362015,0.0351955626433276,0.0653751929957954,-0.910488718745751,-0.293168822592651,-1.00725904080827,-0.387475103386236,-0.252467679268407,-0.118688871184068
7,5.42676290211426,1.3101196534609,-0.316269796287877,0.0396190505083205,0.166219344705788,0.0513324740401914,-0.38912644329652,2.80123860826612,-2.49383082458634,-0.310800104944354,-0.0717697354645045,-0.041203722256684,4.60365100776328,-0.00420753981627428,-0.00352186592373314,-0.000363132546201756,-0.38912644329652,2.80123860826612,-2.49383082458634,-0.310800104944354,-0.0717697354645045,-0.041203722256684,-1.53890573237901,0.286104852406667,-0.736724760848501,-0.34218223620623,-0.269197758297441,-0.016042758707896
7.1,5.36046957853409,1.46318845310381,-0.533018607744478,-0.0627960919175513,0.102901173274968,-0.015323195718455,-0.704341631196129,2.9202663673756,-2.47517534723085,-0.318519507573233,-0.103112351658625,-0.00634649991560477,4.62138605982682,-0.0013091213085218,-0.00123167996893772,0.00112591580808372,-0.704341631196129,2.9202663673756,-2.47517534723085,-0.318519507573233,-0.103112351658625,-0.00634649991560477,-0.956319502775867,-0.565441667127216,-0.63424034831265,-0.107592251866646,-0.093793946521002,0.0469764765256601
7.2,5.22004656417132,1.70092344403061,-0.614833749547685,-0.0740874029296052,0.0928777882729895,0.0111447478761942,-0.678546837924984,2.69885615855297,-2.35107298175885,-0.198207368131883,-0.0145837054495274,0.0360885352845529,4.45916231944682,-0.00360958982134014,-0.00296024066341921,-0.00216255542884249,-0.678546837924984,2.69885615855297,-2.35107298175885,-0.198207368131883,-0.0145837054495274,0.0360885352845529,-0.817446853286414,-0.669282834561156,-0.954473166766917,-0.292905330973423,-0.227103068970833,-0.0915893631790235
7.3,5.16466160282569,1.79935995122307,-0.769021103817389,-0.0513493619511023,0.113952147234489,0.01759915271751,-0.749565076095268,2.58382735881944,-2.55920202924589,-0.31783808623076,-0.106764542698176,-0.0496812532149332,4.65121788991176,-0.00116891096196578,-0.00157359953779512,0.00161602771484401,-0.749565076095268,2.58382735881944,-2.55920202924589,-0.31783808623076,-0.106764542698176,-0.0496812532149332,-1.04777960279936,-0.495980140499705,-0.580077300327581,-0.0966858217870028,-0.120469318833148,0.067947316330591
7.4,5.13257491710751,1.97814600015895,-0.972066068018571,-0.0803215015652872,0.109532505753563,0.0170110102169996,-0.846096344586018,2.63877344910306,-2.40042600320485,-0.191175369208765,-0.021851074301361,0.0660659748155901,4.63187023518662,-0.00431610594440443,-0.00382391714345314,-0.00380411535535507,-0.846096344586018,2.63877344910306,-2.40042600320485,-0.191175369208765,-0.021851074301361,0.0660659748155901,-0.99659883751703,-0.760340072182599,-0.631461922826476,-0.349551446033876,-0.294025172836021,-0.160585645573941
7.5,5.02034286712046,2.14409855118461,-1.05982274610542,-0.0595744507852852,0.121089783427624,0.0483213545438161,-0.974095028437765,2.46448155760293,-2.43998503600392,-0.353528265851767,-0.147066018767171,-0.0735058759317663,4.65595772302952,-0.00100822306283936,-0.00173870567161,0.00137712476866556,-0.974095028437765,2.46448155760293,-2.43998503600392,-0.353528265851767,-0.147066018767171,-0.0735058759317663,-1.09473808316085,-0.608012505622867,-0.582668934256429,-0.0838359570665736,-0.133795284522999,0.0581234696735553
7.6,4.85278187972432,2.19266320863634,-1.27694707004661,-0.199457954875909,0.009362673207755,-0.0640165030582227,-1.19383098775661,2.3531760310085,-2.53052255790825,-0.270126656019616,-0.103382123925363,-0.00499428630176248,4.68326204848721,0.00314714738451077,0.000724704985390478,0.00330800170957911,-1.19383098775661,2.3531760310085,-2.53052255790825,-0.270126656019616,-0.103382123925363,-0.00499428630176248,-0.204504588494614,-1.84656462027118,-0.629577861794701,0.252566430848264,0.0554653411476888,0.139747985264755
7.7,4.73766731702834,2.34865094274349,-1.42107556545754,-0.146837360617158,0.0554638904450552,1.2539386459765e-05,-0.950980921507624,1.88922838815117,-2.31340772582177,-0.0575895563388411,0.0138162331404648,0.0721796859881718,4.46583341809233,-0.00274221879113352,-0.00232504799250934,-0.00339747403722938,-0.950980921507624,1.88922838815117,-2.31340772582177,-0.0575895563388411,0.0138162331404648,0.0721796859881718,-0.489786427678196,-1.30680067425389,-0.988035721811565,-0.222238507255482,-0.179297530552775,-0.143082881891367
7.8,4.71338993505429,2.28858684290578,-1.55491053162329,-0.100084396855984,0.0711597113194979,0.00356186725667257,-1.1221620850715,1.86025860338028,-2.69810288789853,-0.336040830661342,-0.144213858196685,-0.105424216742462,4.81260539794899,0.00269678379484874,0.00048396030978078,0.00486240714033268,-1.1221620850715,1.86025860338028,-2.69810288789853,-0.336040830661342,-0.144213858196685,-0.105424216742462,-0.677494806154891,-0.964145212966314,-0.257193728468152,0.215363797539187,0.0362910717703567,0.20546143862586
7.9,4.64097170982035,2.45799453224961,-1.79828780517585,-0.177701966439743,0.0473184586739001,-0.0247503931024033,-1.15417550422498,1.93842562367429,-2.37786031130913,-0.0628611785946012,0.0223404260938853,0.123651953137806,4.69468756856338,-0.00255980012058942,-0.0024907716014828,-0.00465708250598176,-1.15417550422498,1.93842562367429,-2.37786031130913,-0.0628611785946012,0.0223404260938853,0.123651953137806,-0.478072340424808,-1.64841651170845,-0.57882806427364,-0.207012114343183,-0.192008432494542,-0.196104241130513
8,4.54067020069932,2.5933808789964,-1.81975034688027,-0.0828910831280281,0.107969225795616,0.0667059659350727,-1.173613032374,1.56714171284203,-2.46302052041148,-0.295056191424371,-0.124954277546139,-0.0966890779897939,4.7096085142021,0.000494717332390638,-0.00120999359816931,0.00148797872963984,-1.173613032374,1.56714171284203,-2.46302052041148,-0.295056191424371,-0.124954277546139,-0.0966890779897939,-0.957292373848208,-0.845565625867096,-0.477783783500103,0.0376980235136241,-0.0947109712935886,0.0632110607858574
8.1,4.45959577629525,2.57693666913128,-1.99698622196099,-0.190949458551207,0.0438660800918803,-0.0271203893600865,-1.37431738087643,1.71288721582816,-2.58483935107589,-0.165659211227915,-0.0644541473761456,0.0397319010821057,4.87042504737238,0.000662748482547214,-0.000644139229031947,-0.000569960949389206,-1.37431738087643,1.71288721582816,-2.58483935107589,-0.165659211227915,-0.0644541473761456,0.0397319010821057,-0.469369944620883,-1.83667492825668,-0.25539495158022,0.0525878503472736,-0.0504300401918099,-0.0235535310334932
8.2,4.30334592195486,2.74225222799507,-2.17696016652246,-0.144030774471413,0.0708330867665827,0.0369695612091524,-1.3027688573194,1.25293688378107,-2.33196780459069,-0.150208799325214,-0.0529528174329164,-0.000968735758665972,4.68461999103185,-0.000367076022956501,-0.00148829315968126,-0.00167675463891923,-1.3027688573194,1.25293688378107,-2.33196780459069,-0.150208799325214,-0.0529528174329164,-0.000968735758665972,-0.606077649052039,-1.36813416664948,-0.561025103998453,-0.0308760047337637,-0.11601288791485,-0.0702212433291593
8.3,4.26076362916016,2.6839314127053,-2.21249254604849,-0.130741571610553,0.0891781091512806,0.0371257085900729,-1.36176925371964,1.29075688390861,-2.5826638780691,-0.179377581654326,-0.0754506570104666,-0.0139153980646727,4.89008307020041,-0.00048644019007523,-0.00153990813093488,-0.00105994378959442,-1.36176925371964,1.29075688390861,-2.5826638780691,-0.179377581654326,-0.0754506570104666,-0.0139153980646727,-0.815666640728392,-1.30620992673862,-0.15183488998376,-0.040440561807784,-0.120114380820413,-0.0441683249910407
8.4,4.10459321393663,2.7394351005521,-2.5044471187919,-0.192301686960306,0.0352737754920166,-0.00818394700554325,-1.57004358086162,1.10461201566277,-2.4598982152634,-0.219471397197628,-0.114430641281004,-0.0359673543512131,4.90377073643168,0.0033864798158838,0.000650786241953966,0.00210664136395626,-1.57004358086162,1.10461201566277,-2.4598982152634,-0.219471397197628,-0.114430641281004,-0.0359673543512131,-0.354830187235516,-1.8715629714038,-0.189229899626977,0.272107085167914,0.0484587166542736,0.0894641069212472
8.5,3.93166828694684,2.750696212919,-2.58890984759197,-0.217541495229995,0.0145952595155941,-0.016546653962649,-1.47885306334452,0.758951253787558,-2.40138803206326,-0.0476018016984292,-0.0228180390371315,0.0380867162964396,4.81506032845817,0.00149932892359382,-3.57188858611718e-05,-0.00102330801856364,-1.47885306334452,0.758951253787558,-2.40138803206326,-0.0476018016984292,-0.0228180390371315,0.0380867162964396,-0.171607825660012,-2.07591099180338,-0.407853001837887,0.120348059165691,-0.00386921333881357,-0.042596498422791
8.6,3.88371598622154,2.69501448811144,-2.70755177704185,-0.138019584798388,0.0675744159781523,0.0323502168579016,-1.42054243995112,0.523053879875396,-2.49045388464087,-0.104871418261575,-0.0420634533946678,-0.017964815378215,4.90914353815437,0.00061915900661684,-0.000838533760380934,-0.000678684671350383,-1.42054243995112,0.523053879875396,-2.49045388464087,-0.104871418261575,-0.0420634533946678,-0.017964815378215,-0.612620519702044,-1.3713501143981,-0.10727584255887,0.0490312115004805,-0.0663688141194219,-0.0280549715321824
8.7,3.81748236264511,2.65407545607883,-2.88773937257068,-0.160319954134579,0.0625106403934635,0.0150082541103005,-1.5874758507448,0.603948063972908,-2.47266818524663,-0.131883339462182,-0.068732559184362,-0.00638827540804018,5.0106032211136,0.00130479526415612,-0.000474746050491078,-0.000403377267445442,-1.5874758507448,0.603948063972908,-2.47266818524663,-0.131883339462182,-0.068732559184362,-0.00638827540804018,-0.593918376105475,-1.60882046107658,0.0633751191920933,0.104517635611477,-0.0381194492834454,-0.0164348248397088
8.8,3.60631676649093,2.68136243781056,-3.06161655245575,-0.218419457737036,0.00787920201902614,-0.0207791811510946,-1.71126469239673,0.30628815379969,-2.4132970092498,-0.132548874333835,-0.0894331985358894,-0.0345769377905321,5.01530589233956,0.00482076017095111,0.00147352639087527,0.00262156734881316,-1.71126469239673,0.30628815379969,-2.4132970092498,-0.132548874333835,-0.0894331985358894,-0.0345769377905321,-0.12229837016395,-2.17142990254084,-0.0180079625262035,0.38816328324761,0.111788834299585,0.111191916565561
8.9,3.46242850878409,2.60747592696465,-3.16693389565901,-0.215442451019702,0.00330282824477947,-0.02453904220827,-1.57641914070881,-0.0558491112930275,-2.3701975730201,0.0369543924608488,0.00163421735326537,0.0437020599068358,4.99155382596025,0.00216668589516413,0.000528771319976819,-0.000907778530577731,-1.57641914070881,-0.0558491112930275,-2.3701975730201,0.0369543924608488,0.00163421735326537,0.0437020599068358,-0.0845660843489744,-2.13275261481149,-0.0577359935640569,0.174438082896653,0.0397937916438665,-0.0377514504062496
9,3.42238299222805,2.48423118051987,-3.28956799744631,-0.135229566612391,0.054661032309217,0.0229422147638499,-1.55520493086811,-0.228999986316731,-2.40396095106559,-0.0514753851886338,-0.0263863252992387,-0.0231927417905353,5.05889101805106,0.00169306481524978,-0.000124111858705024,1.00076704166666e-05,-1.55520493086811,-0.228999986316731,-2.40396095106559,-0.0514753851886338,-0.0263863252992387,-0.0231927417905353,-0.516290574071479,-1.37626295546922,0.200437435526931,0.135918596479477,-0.0113670107054313,0.000966727694594389
9.1,3.27339761770398,2.35481679030433,-3.49751716331993,-0.221130198178194,-0.0085687010948534,-0.0531180239798566,-1.80288457135852,-0.22861510660576,-2.4246174492595,-0.103584906645933,-0.090094924595545,-0.0436937033723817,5.21740527581838,0.00677843629649583,0.00240097493887643,0.0045952655744102,-1.80288457135852,-0.22861510660576,-2.4246174492595,-0.103584906645933,-0.090094924595545,-0.0436937033723817,-0.0344021781278829,-2.29009597436741,0.370351082692395,0.546214720240023,0.183348557724977,0.194431628906554
9.2,3.13926417009021,2.42901983263048,-3.57689636927005,-0.178112934178327,0.0276806124458123,0.00199477333910055,-1.56295939916804,-0.603529942379531,-2.16508161776938,0.186024195768153,0.0744523161075767,0.120273365032205,5.02371577772009,-0.00144357450011702,-0.00117608330675114,-0.00578163505505178,-1.56295939916804,-0.603529942379531,-2.16508161776938,0.186024195768153,0.0744523161075767,0.120273365032205,-0.270132702592373,-1.78067275118312,0.0746908771816912,-0.116524037687526,-0.0908535914105582,-0.24345115055404
9.3,3.07948445126587,2.19425391574528,-3.64829506401751,-0.0937618312234012,0.0606258603022257,0.037203396672688,-1.71838040368556,-0.684919643706943,-2.42332962526756,-0.188090711944497,-0.101629464898068,-0.145349961047795,5.25400462737193,0.00497509104458813,0.00132327154071118,0.00512509368312963,-1.71838040368556,-0.684919643706943,-2.42332962526756,-0.188090711944497,-0.101629464898068,-0.145349961047795,-0.596839268679661,-1.00670315393163,0.632633295534648,0.400252391766086,0.098844275797743,0.216760082271339
9.4,2.95286018347362,2.1769486487194,-3.85241657248093,-0.211955701531942,0.0173635322496825,-0.0389154043395562,-1.79876350084949,-0.50887134459057,-2.14093014918158,0.124906723440537,0.0410010830224943,0.129951662455849,5.19485256294799,0.000531949915620518,-0.000586917152766981,-0.00431024111123269,-1.79876350084949,-0.50887134459057,-2.14093014918158,0.124906723440537,0.0410010830224943,0.129951662455849,-0.261258592720081,-2.17718945569318,0.345666527846291,0.0429509999705084,-0.0449530044140676,-0.181384950427473
9.5,2.75850176543623,2.17743153626955,-3.91296295919624,-0.116996163443438,0.0495288629809912,0.0445843686857375,-1.79483220143659,-1.09831923726176,-2.23716258121333,-0.0818201866205458,-0.0741186838221726,-0.10870113522724,5.26714803688555,0.00421383941083466,0.00116598320527893,0.00304043859619118,-1.79483220143659,-1.09831923726176,-2.23716258121333,-0.0818201866205458,-0.0741186838221726,-0.10870113522724,-0.462652765960728,-1.25152636118524,0.639451083921902,0.339033183263677,0.0870096438999812,0.128774055734418
9.6,2.67725780387876,1.9032949173649,-4.04378309024167,-0.177450322900128,0.0188736258067499,-0.0325663455280257,-1.84848953930272,-0.923281931640549,-2.1018056453226,0.106643164661773,0.0237324655461278,0.0752398258349232,5.27140170508665,0.00144790076235781,4.29511218342737e-05,-0.00201809407851805,-1.84848953930272,-0.923281931640549,-2.1018056453226,0.106643164661773,0.0237324655461278,0.0752398258349232,-0.256336791756399,-1.85365743987808,0.565401162862987,0.116690627959544,0.00301135694604666,-0.0846996451653404
9.7,2.53531875916045,1.92893994234193,-4.12680413966767,-0.0921125087716502,0.0688554394664234,0.0509519302353569,-1.81323407305071,-1.2540859330351,-2.08361277789652,0.00427251208496945,-0.0199960509370357,-0.0327351686490962,5.2952798852589,0.00131857490129492,-0.000436880361213038,-0.000860223467579372,-1.81323407305071,-1.2540859330351,-2.08361277789652,0.00427251208496945,-0.0199960509370357,-0.0327351686490962,-0.674997949864158,-1.00983220725902,0.710673596960023,0.105800596838445,-0.035530394204581,-0.0358476465921537
9.8,2.41041558430542,1.69378138595111,-4.25876783924586,-0.152619703685838,0.0289153384070488,-0.0135565066507723,-2.01739719678294,-1.16074102531987,-2.04966897184305,-0.0101697406458398,-0.0562302500873659,-0.0258324421851498,5.38233855464217,0.00398831331180305,0.00113424314533953,0.00186738436739679,-2.01739719678294,-1.16074102531987,-2.04966897184305,-0.0101697406458398,-0.0562302500873659,-0.0258324421851498,-0.329760042562911,-1.63221102113119,0.825103138379855,0.321310852440647,0.0860423866192409,0.0792278286266291
9.9,2.21116575394441,1.6868535917744,-4.35761057023511,-0.143969342224201,0.0250806010479611,0.00032562390054313,-1.93912464574886,-1.45822129742047,-1.91619645043814,0.125050323835134,0.0200646701513109,0.0473274306510923,5.35531229160233,0.00121481540995199,-4.12214616327059e-05,-0.00225084137344763,-1.93912464574886,-1.45822129742047,-1.91619645043814,0.125050323835134,0.0200646701513109,0.0473274306510923,-0.265321484250422,-1.53676668186462,0.786482040651697,0.0978087445823148,-0.00381724989941973,-0.0945710645867922
10,2.10367074745421,1.45498694378368,-4.43309302294251,-0.0961678000233709,0.0453451120705034,0.0206906315253937,-1.968730960201,-1.60010067245745,-1.91685918340856,0.00686626640118329,-0.0363192037343112,-0.0551856437919065,5.41699212162679,0.00306662943727729,0.000624927008211726,0.00163713420128885,-1.968730960201,-1.60010067245745,-1.91685918340856,0.00686626640118329,-0.0363192037343112,-0.0551856437919065,-0.467203687346052,-1.05016607571995,0.962840224889819,0.24687838460356,0.0464722203902959,0.0694707833704734
10.1,1.97884464892084,1.317114361239,-4.53968197502335,-0.129928355181988,0.0311604879159697,-0.011236383467804,-2.04360753046583,-1.55669387505715,-1.78917489883823,0.10500260705905,0.00286915735867089,0.0410982826058785,5.41971774062196,0.00170311250505111,4.84383033637992e-05,-0.00141036363401461,-2.04360753046583,-1.55669387505715,-1.78917489883823,0.10500260705905,0.00286915735867089,0.0410982826058785,-0.350619769054706,-1.4005396823315,0.9328541797705,0.137233235729878,0.00327655319666304,-0.0591386995458474
10.2,1.77640589881541,1.20768688411486,-4.63284992731186,-0.115622873956746,0.0182332072523476,-0.00147867747951658,-2.09955579495274,-1.82911975600698,-1.78947578048926,0.0308030097610632,-0.0463870352326256,-0.0522555714330587,5.51884087498704,0.00427708234285243,0.0014433104830378,0.00255484023465368,-2.09955579495274,-1.82911975600698,-1.78947578048926,0.0308030097610632,-0.0463870352326256,-0.0522555714330587,-0.201780204248782,-1.27306987934955,1.15216202421662,0.344592575710883,0.109778959361677,0.108154848391696
10.3,1.62907604432095,0.989082240347727,-4.73045981632852,-0.136199772966417,-0.000253944842903663,-0.0361670636212451,-2.07246036551132,-1.91267777023841,-1.60939485552732,0.1570339480356,0.0192877040397787,0.0425843309706391,5.49898668972918,0.00274706346152709,0.00085785015241637,-0.000286848652143281,-2.07246036551132,-1.91267777023841,-1.60939485552732,0.1570339480356,0.0192877040397787,0.0425843309706391,-0.0512311027727085,-1.49241810523049,1.08612233909677,0.2214857712528,0.0657829036208811,-0.0117788745959916
10.4,1.55054013455882,0.883163325013888,-4.72272098921246,-0.0360062914071406,0.070459244078684,0.0461815315975368,-1.97325611507493,-2.03399396094484,-1.5470936742964,0.140223773803763,0.0349622581400408,0.0157772003358154,5.44305980946801,-0.000783251593266202,-0.00157067515461199,-0.00292449330084558,-1.97325611507493,-2.03399396094484,-1.5470936742964,0.140223773803763,0.0349622581400408,0.0157772003358154,-0.74698856433999,-0.426823991143831,1.04207029663525,-0.0634350773385921,-0.121787569633176,-0.12308430360305
10.5,1.41495956027329,0.65461864639241,-4.83170384666469,-0.0732646245037038,0.0392394852239715,-0.000978937719628394,-2.27078651819789,-1.88433109854961,-1.57234194458807,-0.0367948310473283,-0.0981143064241808,-0.078013317733116,5.58314101002361,0.00468944901311301,0.00148831453180098,0.00374570907900183,-2.27078651819789,-1.88433109854961,-1.57234194458807,-0.0367948310473283,-0.0981143064241808,-0.078013317733116,-0.437671535084588,-0.816933713284499,1.31775435955995,0.377810841591948,0.113316072329934,0.15835523596521
10.6,1.15661093461782,0.635299518105404,-4.92033077702805,-0.128792333587044,-0.00551467431230061,-0.0294949181323325,-2.21658792303321,-2.0292447946538,-1.35449547867087,0.214638229951629,0.0406688922570727,0.0841433314081557,5.54837896085364,0.00127565297283193,5.58574387427736e-05,-0.00257285850766647,-2.21658792303321,-2.0292447946538,-1.35449547867087,0.214638229951629,0.0406688922570727,0.0841433314081557,0.0186305344165138,-1.4263993816702,1.19468418811424,0.102916707897324,0.00445499956310122,-0.108294631533404
10.7,1.00011994718203,0.398385662927379,-4.95238731217739,-0.0509454568659745,0.0213770730696036,0.00645398294362053,-2.16568873936888,-2.36091728919755,-1.37609476232399,0.0543289443069731,-0.0431756567885482,-0.0833982902428355,5.64287734977208,0.00402974215751708,0.00133798737446778,0.00365826689002497,-2.16568873936888,-2.36091728919755,-1.37609476232399,0.0543289443069731,-0.0431756567885482,-0.0833982902428355,-0.237210881094238,-0.576252195977181,1.45853688563006,0.324612869727573,0.101764265549027,0.154611788610498
10.8,0.915272252457694,0.131131835774675,-5.02362032088486,-0.0889917269924412,0.00398727896774422,-0.0431580260879839,-2.21098900827912,-2.18868149912263,-1.13949220194261,0.200241987320339,0.0280603515877825,0.0745810280291006,5.57019869889148,0.00172072563920216,0.00036373067527273,-0.00146920205155493,-2.21098900827912,-2.18868149912263,-1.13949220194261,0.200241987320339,0.0280603515877825,0.0745810280291006,-0.0869200688491628,-0.987264317620449,1.28622495488056,0.138806105291574,0.0281050216524873,-0.0617637178369629
10.9,0.735452401916557,0.0681433554656867,-5.01288292778358,-0.0255799217498515,0.0306634752579361,0.0177592145443816,-2.19543348369922,-2.37947009209246,-1.18059132603349,0.108443643343573,-0.0116614273144069,-0.0425664622997442,5.64008626444483,0.00197797135742437,0.00036676057104967,0.00118548936537582,-2.19543348369922,-2.37947009209246,-1.18059132603349,0.108443643343573,-0.0116614273144069,-0.0425664622997442,-0.340543912671512,-0.294608395667536,1.46118130535844,0.159199184086828,0.0273370796590446,0.0502328790618136
11,0.610978192289165,-0.160669100981436,-5.08840957704418,-0.0469372484098101,0.0218505406606535,-0.0212939723408884,-2.26839712179628,-2.24394445464206,-0.989415523471199,0.135535180970033,-0.00509185344768028,0.0240290472122975,5.60543865691407,0.00201173745384916,0.000263370940262058,-0.000119747244824294,-2.26839712179628,-2.24394445464206,-0.989415523471199,0.135535180970033,-0.00509185344768028,0.0240290472122975,-0.255819091701038,-0.520685590101635,1.38585696828466,0.162127004703746,0.0199692614196793,-0.00485969361031537
11.1,0.451498421021491,-0.210637841818611,-5.05347854812746,-0.00352023886015124,0.0489141069465125,0.0307514775002208,-2.23372297131846,-2.299315205127,-0.948488878255832,0.164462582083538,0.013314921775926,0.0158209048286759,5.60122467887133,-0.000456478324207284,-0.00116511147058384,-0.00219707144634511,-2.23372297131846,-2.299315205127,-0.948488878255832,0.164462582083538,0.013314921775926,0.0158209048286759,-0.546264468097457,-0.0562576061532893,1.37898126843695,-0.0370323840039211,-0.0901530241016656,-0.0925306555220208
11.2,0.317673858104132,-0.3919355329057,-5.09332092322268,0.0174235379836866,0.056228347704672,0.0295959798105885,-2.34427865253329,-2.2097402540011,-0.868129794071238,0.0630234463954351,-0.0459331031386786,-0.0326318385031345,5.62982710371114,0.000985242522624551,-0.000566294479408517,0.000145526602002609,-2.34427865253329,-2.2097402540011,-0.868129794071238,0.0630234463954351,-0.0459331031386786,-0.0326318385031345,-0.638210164402311,0.177365062240589,1.43015312580182,0.079155205024679,-0.0441751452493708,0.00629465375768413
