time,x,y,z,roll,pitch,yaw,xdot,ydot,zdot,p,q,r,thrust,roll angle,pitch angle,yaw angle,_xdot,_ydot,_zdot,_p,_q,_r,_xddot,_yddot,_zddot,_phiddot,_thetaddtot,_yawddot
0,3.01841953230695,5.01841953230695,0.0184195323069548,0.0184195323069548,0.0184195323069548,0.0184195323069548,0.0184195323069548,0.0184195323069548,0.0184195323069548,0.0184195323069548,0.0184195323069548,0.0184195323069548,9.23712004032728,-0.0109020667548392,0.00449752661942683,-0.00200581604668762,-0.0888481324729728,0.124353657888517,4.77476948236102,-0.473756473558965,0.200313386071738,-0.0366410528870494,-0.212846454280515,0.213950616915523,1.13790435127923,-0.0496858600012689,-0.0759277949775672,0.0212603987399158
0.1,1.82036642022637,3.02036642022637,0.0203664202263731,0.0198947651992839,0.0190724125086459,0.0186097108002216,-0.0888481324729728,0.124353657888517,4.77476948236102,-0.473756473558965,0.200313386071738,-0.0366410528870494,5.47603159606336,-0.000616068361144501,-0.000987099673254629,0.000503873485811027,-0.0888481324729728,0.124353657888517,4.77476948236102,-0.473756473558965,0.200313386071738,-0.0366410528870494,-0.212846454280515,0.213950616915523,1.13790435127923,-0.0496841928801755,-0.0759330444013618,0.0212662362650289
0.2,1.96000868440684,3.38781793231259,2.19671173247442,-0.215664122825824,0.0944790027459302,-0.0173824579725497,-0.0571970121121226,0.060808286393263,1.06287156732349,-0.0676087775487045,-0.0173670665946868,0.00941987307906003,6.65674111114424,0.000126255432808323,0.000324826538900421,0.000328972050664593,-0.0571970121121226,0.060808286393263,1.06287156732349,-0.0676087775487045,-0.0173670665946868,0.00941987307906003,-1.27621415407292,-2.82727928289915,3.13706832347095,0.0102162820137353,0.0250587763195237,0.0139058917186763
0.3,1.9746967719556,3.36763329412749,0.780703830707296,-0.0517981497422222,0.0117238966697139,0.00957364367639319,-0.2979608515006,-0.495432065197049,2.48695258320693,-0.0352553189548172,0.0325666847106002,0.0100212952351668,6.44158355516706,-0.00562748838413925,0.00111313917766669,-0.000995878258988947,-0.2979608515006,-0.495432065197049,2.48695258320693,-0.0352553189548172,0.0325666847106002,0.0100212952351668,-0.144442202256515,-0.668439298249105,3.05500369792245,-0.453814414722251,0.0856660994034636,-0.0419935206130096
0.4,1.83471747894876,3.08529756492789,1.56974833178538,-0.0608747461378671,0.0136079013809454,-0.0097475173934255,-0.227447075584222,-0.358274706167803,2.32235930218126,-0.306557179075529,0.0507623162028409,-0.0365802334430905,6.08812609666676,3.83996655489357e-05,0.000234205716990936,0.00211298343197943,-0.227447075584222,-0.358274706167803,2.32235930218126,-0.306557179075529,0.0507623162028409,-0.0365802334430905,-0.172593905301676,-0.739121325755989,2.34257291627271,0.00309428522686384,0.0180099065858189,0.0891884776492509
0.5,1.91176708178911,3.19530317056823,1.62135131797965,-0.142543562069446,0.0692879845121671,0.0139101942755093,-0.165071116908803,-0.333985892730387,2.12640440218355,-0.0395230950067612,0.0578745080560562,0.0714680180455768,6.13316351600896,-0.0038481039253682,-0.00291417726262368,-0.00404945750813619,-0.165071116908803,-0.333985892730387,2.12640440218355,-0.0395230950067612,0.0578745080560562,0.0714680180455768,-0.816296150036041,-1.75409498270032,2.30278622958052,-0.310244093456213,-0.223901685252133,-0.170800858854736
0.6,1.88677777896221,3.1464299508605,1.64259455767958,-0.0675340658522923,0.0437110181923471,0.0302681296062914,-0.315185834662227,-0.586320109129765,2.2815606901033,-0.239388291586001,-0.103578088421243,-0.0931189318538305,5.99974246837324,-0.00185333387946061,0.00110735356640726,0.00298898321143905,-0.315185834662227,-0.586320109129765,2.2815606901033,-0.239388291586001,-0.103578088421243,-0.0931189318538305,-0.498401677274054,-0.825219518063753,2.15069593553413,-0.149569144722751,0.0848972286298128,0.126195860163066
0.7,1.84582278066894,3.04844038620665,1.91467564084421,-0.13009156366171,0.00727138399045323,-0.0060811215960713,-0.28895643255116,-0.567347463127256,2.25632605516746,-0.139099807669397,0.0891014662645385,0.0889782155606757,5.79456391181532,-0.00240491164493412,-0.00281094241453011,-0.0039108371339167,-0.28895643255116,-0.567347463127256,2.25632605516746,-0.139099807669397,0.0891014662645385,0.0889782155606757,-0.092696940638755,-1.5028629217559,1.68089613685797,-0.193826914765948,-0.215659580959862,-0.164945028337333
0.8,1.80769678408991,2.99594629251157,1.97968654413845,-0.125671281465193,0.0599729938738629,0.0396480521409171,-0.342017486100586,-0.734723086647778,2.11932971472985,-0.196158183686772,-0.105542616178439,-0.0887904309401073,5.81794207740441,-0.000745642004277853,-0.00135680968004364,0.00241228141428567,-0.342017486100586,-0.734723086647778,2.11932971472985,-0.196158183686772,-0.105542616178439,-0.0887904309401073,-0.633567188688052,-1.48473038268194,1.71336619101771,-0.0602229213992574,-0.104726411509745,0.101890574610131
0.9,1.78196059574935,2.90044418473204,2.07868340689374,-0.151368545658388,-0.0129160833871345,-0.0254157293694089,-0.3724116055903,-0.85286244906719,2.23069352663975,-0.122608151535562,-0.0357506290365868,0.0590102277690578,5.60284068866017,-0.00158519301865316,-0.000697071544343475,-0.00153465168623485,-0.3724116055903,-0.85286244906719,2.23069352663975,-0.122608151535562,-0.0357506290365868,0.0590102277690578,0.100087606748077,-1.69280804964023,1.2666275782872,-0.127729022847545,-0.0528904024818183,-0.0646699102587027
1,1.69527360408494,2.7548349444599,2.22131062828576,-0.172356133691607,-0.0300526754418097,-0.00412050300825853,-0.453727683576183,-1.04983422723394,2.04124075851498,-0.19682648027719,-0.0577580699194983,-0.0640295857406598,5.586613150733,0.00213540714351578,-0.000822533313310463,0.00326984565507011,-0.453727683576183,-1.04983422723394,2.04124075851498,-0.19682648027719,-0.0577580699194983,-0.0640295857406598,0.322861644045242,-1.91760015410236,1.19270675750121,0.172206729071743,-0.0633022318679833,0.138043909344573
1.1,1.65699170979842,2.63726812332122,2.27913785140324,-0.200262402743116,-0.0306032433127679,-0.0448004825660444,-0.41072731945615,-1.19137272569851,2.10157934118001,-0.0282819232886501,-0.0462568939025539,0.0559404961579226,5.44633994559709,-0.000427531976645945,-0.00187736174124619,-0.000497261761389138,-0.41072731945615,-1.19137272569851,2.10157934118001,-0.0282819232886501,-0.0462568939025539,0.0559404961579226,0.229267253008904,-2.17929714165482,0.859984803508341,-0.0344095227906004,-0.143445715801771,-0.0209227587366842
1.2,1.68546032830937,2.55249958187325,2.4709082584438,-0.0963504136814615,0.010552344737104,0.0447759274390944,-0.327028082043981,-1.28682488826406,2.0400140102254,-0.100658385906285,-0.0696582014005291,0.00631484951301804,5.37892186845987,-0.00306189411390999,-0.00337719069427637,-0.00229325987647668,-0.327028082043981,-1.28682488826406,2.0400140102254,-0.100658385906285,-0.0696582014005291,0.00631484951301804,-0.0665546027467987,-1.03894004714059,0.897351490041036,-0.246922728162268,-0.25969017990468,-0.096723737097762
1.3,1.65162115625948,2.39456851259726,2.54429862039077,-0.168007166678148,-0.0392845863846881,-0.0111932085992869,-0.369963728321827,-1.51832464792834,1.93949637850235,-0.249664354513097,-0.168961031022442,-0.0662900986982339,5.29030064772459,0.00496591579827787,0.000348469150171413,0.00368890326666406,-0.369963728321827,-1.51832464792834,1.93949637850235,-0.249664354513097,-0.168961031022442,-0.0662900986982339,0.389867700559609,-1.77374090910641,0.613577607361277,0.400477033809166,0.0267984125586285,0.155656331523095
1.4,1.63779175928495,2.24885397610734,2.61214676065011,-0.219221307361471,-0.0692182450113894,-0.0260837066032874,-0.337247697131309,-1.56871766803603,1.91491731547748,0.1095288129531,0.00151948588234328,0.0866009481150347,5.20718945732893,-0.00140200353769553,-0.00329502129574137,-0.00286093387700712,-0.337247697131309,-1.56871766803603,1.91491731547748,0.1095288129531,0.00151948588234328,0.0866009481150347,0.643743790397775,-2.28237685363596,0.33079079797929,-0.113153387515957,-0.252216579320636,-0.120800394891902
1.5,1.60533180098559,2.10905931480283,2.71698307859616,-0.0857583701451414,-0.0146544238441921,0.0306482956605324,-0.333089990585066,-1.75225471400009,1.85009154915754,-0.163757486252405,-0.171714555681213,-0.0720146216040521,5.17527840115743,0.000479762611303508,-0.00213162099329942,0.00197205267663195,-0.333089990585066,-1.75225471400009,1.85009154915754,-0.163757486252405,-0.171714555681213,-0.0720146216040521,0.178214916462945,-0.881512097906385,0.501411250781397,0.0387181278923712,-0.164343256886976,0.0831282047974241
1.6,1.5884914839381,1.93716906540092,2.82207388934573,-0.202524913017148,-0.0927779338209705,-0.0386701245574698,-0.260495833302739,-1.97358686532922,1.80352512055076,-0.0868180919879992,-0.127327623380612,0.0373069107627894,5.02343582502253,0.00504452988646919,-0.000318782135115675,3.7276000244201e-05,-0.260495833302739,-1.97358686532922,1.80352512055076,-0.0868180919879992,-0.127327623380612,0.0373069107627894,0.832958551801279,-2.05459928893397,-0.0107943298769175,0.406672626854002,-0.023526943136273,0.0013886659556966
1.7,1.57010431028045,1.70699424515472,2.84626061898896,-0.19958603876022,-0.101617466669148,-0.0172923649075258,-0.304849023130204,-2.0439909792848,1.65082977409317,0.103031707598406,-0.0842291674176257,-0.0224843610843851,5.08160324576908,0.00118877555987529,-0.00196130450195182,0.0018472050958168,-0.304849023130204,-2.0439909792848,1.65082977409317,0.103031707598406,-0.0842291674176257,-0.0224843610843851,0.97552314825509,-2.03216603843259,0.100066698519386,0.0958142885556679,-0.150587803164339,0.0776750955277414
1.8,1.53205396188003,1.5561280118681,2.91912175854849,-0.11632815996144,-0.0903845337246872,-0.0373443235448582,-0.220499326569071,-2.25483447050572,1.69881752108274,-0.0478801797365805,-0.153361309312458,0.021052013084751,4.92060054585964,0.00260164658174807,-0.00129217656876242,0.000729595220021306,-0.220499326569071,-2.25483447050572,1.69881752108274,-0.0478801797365805,-0.153361309312458,0.021052013084751,0.839017341319789,-1.17437263665445,-0.0752099283601027,0.209641034152588,-0.0986960497990691,0.0304831541274273
1.9,1.59080188597525,1.38597543620587,3.08083204393024,-0.136197213856142,-0.0835496867930806,0.0220334984434271,-0.0693381142601593,-2.37981710937611,1.55564869082062,0.0571138747183147,-0.096826266159969,0.0344809522271569,4.84144558900823,0.00199130283968026,-0.00246122090372588,-0.00270234165170538,-0.0693381142601593,-2.37981710937611,1.55564869082062,0.0571138747183147,-0.096826266159969,0.0344809522271569,0.829349556533493,-1.2967521776681,-0.250240867673513,0.160497019647339,-0.189021441561476,-0.114418682293104
2,1.61188262774341,1.16205751203455,3.06806819593575,-0.110580681857924,-0.0860752688342357,0.0119870619193489,-0.0258897685209241,-2.50812415246766,1.43211541128416,0.0244273435845119,-0.167225061641647,-0.0597891063989584,4.87917582059437,0.00306595975934344,-0.000979134703698289,0.00224449353159105,-0.0258897685209241,-2.50812415246766,1.43211541128416,0.0244273435845119,-0.167225061641647,-0.0597891063989584,0.846640489156154,-1.06681548655165,-0.147157180577448,0.247384411303277,-0.0756835693121993,0.0942644617302427
2.1,1.60769628158274,0.939549732718365,3.09521202437485,-0.136130095813076,-0.141522605536383,-0.0468306373189539,0.0371593557781251,-2.68091359318838,1.45025684819447,0.062773705639404,-0.12493787841367,0.0373026115428554,4.79427743882897,0.00507064877645148,-0.000336352270532703,0.000444555687447431,0.0371593557781251,-2.68091359318838,1.45025684819447,0.062773705639404,-0.12493787841367,0.0373026115428554,1.27757395805347,-1.36256473885441,-0.405128562495284,0.408587684397769,-0.0251010748405427,0.0182302417341459
2.2,1.63039248379779,0.702683168494693,3.18072292161453,-0.116995891772267,-0.127389559375274,-0.00584686633674087,0.086437778657241,-2.75498257063017,1.35179715639294,0.169746569443239,-0.102290178997975,0.00083743927406215,4.75778533523087,0.00279732694781314,-0.00172198574359237,0.000234390560305129,0.086437778657241,-2.75498257063017,1.35179715639294,0.169746569443239,-0.102290178997975,0.00083743927406215,1.19412921907691,-1.11774561755365,-0.436058175605206,0.22555898944782,-0.13239741663983,0.00931068245702159
2.3,1.67751470954222,0.535938319022352,3.2591290202643,-0.0332103069323688,-0.0959750048008334,0.0144186840332495,0.261073415674326,-2.84642142474709,1.31013957912308,0.114508466423086,-0.135735415035196,0.0227194711953021,4.62532352001299,0.00168248226257874,-0.00169065514728955,-0.00174830814243608,0.261073415674326,-2.84642142474709,1.31013957912308,0.114508466423086,-0.135735415035196,0.0227194711953021,0.890316313854493,-0.294354210352888,-0.607002492705247,0.135657682207531,-0.130006606467454,-0.0743515482623576
2.4,1.73317768194054,0.29431336130668,3.29557494611805,-0.0656080647357824,-0.134525832964789,0.00689619340887351,0.365001731917422,-3.03498861291148,1.18723371674556,0.0625403147245321,-0.155588326083825,-0.0373780016680666,4.66025237443246,0.00662130964242431,0.000679497963569706,0.00140766958324772,0.365001731917422,-3.03498861291148,1.18723371674556,0.0625403147245321,-0.155588326083825,-0.0373780016680666,1.25156508481648,-0.602445040040124,-0.593576963603883,0.534205567766512,0.0519480460797905,0.0587833085061322
2.5,1.80568246474187,0.0256252768343157,3.30320360177502,-0.0713681022213731,-0.143017514820436,-0.0137558821239603,0.447849218998636,-3.02705667948761,1.17773873762888,0.29379218879746,-0.0533076746966227,0.0410924530157146,4.61324805625194,0.00240937300379326,-0.00149622416049684,-0.0013890174775283,0.447849218998636,-3.02705667948761,1.17773873762888,0.29379218879746,-0.0533076746966227,0.0410924530157146,1.30253508698692,-0.675899579170565,-0.700949960610927,0.194085016998684,-0.11482860464956,-0.0592692859834994
2.6,1.85165002388156,-0.167331910296183,3.37412392735168,0.0358636760495183,-0.104721280774913,0.02315344075632,0.557597264169367,-3.08071456787566,1.07923028123642,0.135642238819019,-0.141714532435196,-0.0225535410134496,4.52513584412762,0.00285161704514113,-0.000641663172572167,-7.5281447760986e-05,0.557597264169367,-3.08071456787566,1.07923028123642,0.135642238819019,-0.141714532435196,-0.0225535410134496,0.93765023059387,0.346307147752927,-0.815095829542331,0.230283333030187,-0.0496650893187522,-0.00374773252994329
2.7,1.92964961494229,-0.379746798225528,3.40801996874284,-0.0119463098614585,-0.144288747419543,0.00252716793382272,0.730433111053754,-3.20613498139281,1.0874191238651,0.168462055178128,-0.108730867980057,0.0106225069893422,4.48026693983248,0.00628607690218796,0.00111193122257307,-0.000827289623218041,0.730433111053754,-3.20613498139281,1.0874191238651,0.168462055178128,-0.108730867980057,0.0106225069893422,1.28859712663032,-0.103786601667588,-0.943212915876581,0.506960336210829,0.0855180571342434,-0.0354737617114571
2.8,2.03452677440095,-0.671431023214466,3.44408234073455,0.00397926659777162,-0.142246952311177,0.00538650237663351,0.775565702791789,-3.15165119496046,0.920196503962963,0.327779307360298,-0.0424827156357173,-0.0126238994670682,4.53176976039627,0.00275443062258162,-0.000468157609932103,7.34063206331997e-05,0.775565702791789,-3.15165119496046,0.920196503962963,0.327779307360298,-0.0424827156357173,-0.0126238994670682,1.28469432838011,0.0429867440963014,-0.838073714779616,0.222314278882586,-0.036133727752333,0.00256913641515167
2.9,2.05283541166935,-0.885426397256532,3.40885791143924,0.0546440749220721,-0.152549570073615,-0.036272200486322,0.870002289123795,-3.22768808115259,0.91902768381916,0.168280343032376,-0.135896467412547,-0.0209235598544828,4.50654742790293,0.00647455400753357,0.00226792130512106,0.00238446971331821,0.870002289123795,-3.22768808115259,0.91902768381916,0.168280343032376,-0.135896467412547,-0.0209235598544828,1.3845249878019,0.442349367330102,-0.914872318222253,0.52213036510355,0.17446067755738,0.100220744517377
3,2.17711523757872,-1.09385010940011,3.49244175431919,0.0342162575831168,-0.165966513994148,-0.0108647343459293,1.05150755415908,-3.19086165077178,0.943293669406342,0.370327361834031,0.00708355775601391,0.0599389227335866,4.39433037965954,0.00364641036213845,0.000736092650459275,-0.00270487843540593,1.05150755415908,-3.19086165077178,0.943293669406342,0.370327361834031,0.00708355775601391,0.0599389227335866,1.45426733432321,0.28487330264038,-1.14717646121322,0.293700337959569,0.0567499447822587,-0.114465475014966
3.1,2.31791017153872,-1.29160250939618,3.56578900334077,0.14950162338501,-0.0930512956858395,0.0412969579709341,1.18354605712173,-3.11733124705411,0.748199029290526,0.285558828288636,-0.030277131490146,-0.0413971147508594,4.32400892756183,0.00143795898456075,-0.0006718348542929,-0.000310781992554261,1.18354605712173,-3.11733124705411,0.748199029290526,0.285558828288636,-0.030277131490146,-0.0413971147508594,0.740729056399529,1.31978831572206,-1.29544234330246,0.116608587301081,-0.0517819900103138,-0.0132648434200977
3.2,2.42658758748797,-1.47796211072823,3.52899462302654,0.127142087413591,-0.11959306292643,-0.00464156891797328,1.38056529783368,-3.13703875076204,0.834906118185791,0.194280424662971,-0.101285252159102,0.00226199351349459,4.27603966698529,0.00652166508694176,0.0039199666134465,-0.000117968082591189,1.38056529783368,-3.13703875076204,0.834906118185791,0.194280424662971,-0.101285252159102,0.00226199351349459,1.01711968990385,1.07969273528282,-1.38754239735729,0.525888006139568,0.301536481396712,-0.00498853249610011
3.3,2.54478674102212,-1.79677320952973,3.55097514275593,0.0426872467579587,-0.21034377193805,-0.0554289380038715,1.34315192102786,-3.09363722786979,0.60154451724048,0.375958744883778,0.0412676529134313,-0.0429686221677216,4.59791549502074,0.00743187470441363,0.00400870120021856,0.00484871867555762,1.34315192102786,-3.09363722786979,0.60154451724048,0.375958744883778,0.0412676529134313,-0.0429686221677216,1.93709909465008,0.285547669557096,-0.82504495151346,0.599329911127236,0.308360393475289,0.204678060420042
3.4,2.65241077351075,-1.93801243304026,3.53437003325926,0.179133833355122,-0.112715472815386,-0.0374876066807421,1.51267976393162,-2.89061115912139,0.735328071744958,0.477489189531815,0.0874842005893527,0.105136405823973,4.20503697652539,-0.000842651354517657,-0.000176955167122547,-0.00330591954869246,1.51267976393162,-2.89061115912139,0.735328071744958,0.477489189531815,0.0874842005893527,0.105136405823973,0.986310426936519,1.4625463490248,-1.58701430048345,-0.0687262598637254,-0.0138206711389857,-0.13920724182291
3.5,2.77912741432479,-2.02973627482933,3.63618138005904,0.245301220522154,-0.092829843731684,0.0313603409987984,1.70456358784265,-2.90004065919773,0.51679464005761,0.140125967628482,-0.0557869678025934,-0.0747602426049219,4.20787816668709,0.00560661973547701,0.00422556377339338,0.00214232594231184,1.70456358784265,-2.90004065919773,0.51679464005761,0.140125967628482,-0.0557869678025934,-0.0747602426049219,0.692304125269524,2.06647754259831,-1.68132604745403,0.453179676983958,0.325590337185149,0.090900282803976
3.6,2.9993809960205,-2.26306401520149,3.59529506145932,0.135381858004271,-0.142769613024923,-0.0293424403984758,1.85132921802619,-2.70185585897245,0.610970112566485,0.429502042651743,0.12546281756872,0.0550651078618232,4.24223028867723,0.00402966951224177,0.003840481164535,-9.76661223736802e-05,1.85132921802619,-2.70185585897245,0.610970112566485,0.429502042651743,0.12546281756872,0.0550651078618232,1.22924746804567,1.1095501555986,-1.48870680704037,0.324740941083078,0.295285637234767,-0.00352845719840612
3.7,3.1674953836148,-2.41480672522688,3.66877734565043,0.255617428982842,-0.0716654950327099,0.000376603095383329,1.86345550543753,-2.5406666705975,0.254298386248199,0.372789467089572,0.117461659259779,-0.00587927696548831,4.22459290675387,0.00012472530892942,0.00141420677463975,0.00075268349223007,1.86345550543753,-2.5406666705975,0.254298386248199,0.372789467089572,0.117461659259779,-0.00587927696548831,0.584534375228767,2.13653628954054,-1.65633375966168,0.0107347351575538,0.109362699665277,0.0325188495883896
3.8,3.28075312675056,-2.48449957715051,3.53977794991962,0.268329638085075,-0.0627527388228081,-0.00877940588920036,2.04032762991335,-2.36416971915752,0.438082104272615,0.223973747069385,0.0334274762247588,0.0217817454251029,4.06845548258795,0.00375013487303821,0.00490887476529302,0.000194563115607127,2.04032762991335,-2.36416971915752,0.438082104272615,0.223973747069385,0.0334274762247588,0.0217817454251029,0.510938447704864,2.15286504536777,-1.9797104744275,0.302974755862353,0.378217681079778,0.00908852950834107
3.9,3.53878280970398,-2.58675282214132,3.69542504112674,0.251540321511558,-0.0622214424961839,0.0358742198361818,2.13644844861579,-2.12901223548783,0.206004400362407,0.409965848607317,0.217088500629471,0.0360909562672098,4.04639644591386,-0.000669571254035011,0.00192422210345209,-0.00238574010171782,2.13644844861579,-2.12901223548783,0.206004400362407,0.409965848607317,0.217088500629471,0.0360909562672098,0.414825886218291,2.03044937992332,-1.98705352250767,-0.0531381529668378,0.149113707912509,-0.0997035377063881
4,3.69869000462588,-2.66986702307306,3.61176846902141,0.336174907978215,0.0084470044071773,0.0223198980828018,2.16420096803003,-1.93296517856313,0.0189158320945717,0.217374791569462,0.0973337388373544,-0.0359972598205753,4.04659652714394,0.000386218973712948,0.00249080576542838,0.00124851918139185,2.16420096803003,-1.93296517856313,0.0189158320945717,0.217374791569462,0.0973337388373544,-0.0359972598205753,-0.1241037150163,2.66766539779272,-2.17010907098064,0.0323698445121395,0.193718484544572,0.0536773649499959
4.1,3.84319654015006,-2.74099911697433,3.53169078679589,0.263429754791936,-0.043171638780832,-0.0117726068261224,2.17992902353548,-1.64552218396437,0.110803179663503,0.252806984482477,0.114639971589817,0.0347097921943664,3.94857003694033,0.00219771730591655,0.00537821240748,-0.000145925565502793,2.17992902353548,-1.64552218396437,0.110803179663503,0.252806984482477,0.114639971589817,0.0347097921943664,0.353254346818901,2.05234764613805,-2.19239526804278,0.177939800147612,0.415121384667547,-0.00514613952341645
4.2,3.99060820841666,-2.79209946584943,3.59281748935295,0.266905680562482,-0.0506959392654669,-0.00867914623363324,2.1391040282353,-1.50260428418572,-0.362036163278338,0.315833105536427,0.231834752083857,-0.0138443530514609,4.14447225827389,-3.86942070438697e-05,0.00272334583484802,0.00186174309225696,2.1391040282353,-1.50260428418572,-0.362036163278338,0.315833105536427,0.231834752083857,-0.0138443530514609,0.424121852508866,2.18259335444162,-1.82482573128306,-0.00208308980081732,0.211954503690522,0.0795671034111747
4.3,4.11606741720445,-2.81712170224914,3.37319919235868,0.329425708751495,0.0256314771948734,-0.0143529703444835,2.21840585265639,-1.21218701740154,-0.283064938918146,0.241318126372137,0.148723402863173,0.0455040271337447,4.00455356754045,-0.00154989265585074,0.00259959776675908,-0.00101979445899352,2.21840585265639,-1.21218701740154,-0.283064938918146,0.241318126372137,0.148723402863173,0.0455040271337447,-0.157018973783858,2.5934642679905,-2.23404558925199,-0.12426650472517,0.202281226607779,-0.042111532724008
4.4,4.2935407220867,-2.79440541685216,3.3979280052473,0.317949366710744,0.00305715054619662,0.0193941043849597,2.23466725901114,-0.936659414403015,-0.384002353001113,0.17431193932951,0.165130881717294,-0.0136181866966397,3.91873667135192,-0.000399723913141547,0.00409838976496289,7.89996987306928e-05,2.23466725901114,-0.936659414403015,-0.384002353001113,0.17431193932951,0.165130881717294,-0.0136181866966397,-0.0702704995286305,2.44924381023559,-2.36538750420735,-0.031249989693033,0.3191731968095,0.0041798000910312
4.5,4.45556947738952,-2.78723664746937,3.3631405944026,0.289138744764047,0.00811696372861292,-0.0186398399299793,2.20103289328517,-0.724243582299104,-0.67398897275291,0.210144003099347,0.222202372470392,-0.00136868137757255,4.02309384687397,-0.000853450491095787,0.0028865025332882,0.00122478196083748,2.20103289328517,-0.724243582299104,-0.67398897275291,0.210144003099347,0.222202372470392,-0.00136868137757255,-0.0198272494375098,2.2949521904026,-2.09806524100684,-0.0681064005127809,0.225688730944776,0.0524066766873518
4.6,4.59145895667782,-2.75975449636687,3.21095017538298,0.319190795837585,0.0499036896332052,-0.0110502552329897,2.20610642748714,-0.456122640815641,-0.768343429612225,0.192170860704586,0.190870013571714,0.0286907361567161,3.99899080641517,-0.0027488580826589,0.00237672345843239,-0.000724845860531188,2.20610642748714,-0.456122640815641,-0.768343429612225,0.192170860704586,0.190870013571714,0.0286907361567161,-0.351055405353689,2.51378594131761,-2.2254531959531,-0.221179825972039,0.186628852027858,-0.0300416762549764
4.7,4.75390654682095,-2.67795481339182,3.13448456963378,0.338435832508713,0.0607210436615911,0.0171394602514288,2.19891712518434,-0.156216520971285,-0.846232239856139,0.114452402964686,0.195829622204293,-0.0019867345871948,3.92487083903454,-0.00303852259238759,0.00237256686952683,-0.000746747610465723,2.19891712518434,-0.156216520971285,-0.846232239856139,0.114452402964686,0.195829622204293,-0.0019867345871948,-0.493931509588346,2.59812519360282,-2.41917991325611,-0.244634511821529,0.187540194431399,-0.031143073324216
4.8,4.93371377910691,-2.56508748913504,3.1028875276705,0.336263555295113,0.0973484636772893,0.0259975072715096,2.18456343852901,0.140050103738689,-1.02612032474146,0.10949607529724,0.221257209180933,0.0141026049957371,3.89998930400182,-0.00440305858959506,0.000728212365701666,-0.00198693089604626,2.18456343852901,0.140050103738689,-1.02612032474146,0.10949607529724,0.221257209180933,0.0141026049957371,-0.782318560785789,2.55422534359614,-2.48172756723006,-0.354912976644179,0.0611137807340406,-0.0836757451607559
4.9,4.99364675555431,-2.53701419226235,2.91423718021824,0.264440341875096,0.0451330991136092,-0.0431623606983095,1.97145091166315,0.320078647640837,-1.24042222633992,-0.0247779001319189,0.0975979826182975,-0.0794804039406168,4.02294072175606,0.00163813175281198,0.00519483513022677,0.0057487112338846,1.97145091166315,0.320078647640837,-1.24042222633992,-0.0247779001319189,0.0975979826182975,-0.0794804039406168,-0.259327375060391,2.1161053757344,-2.05171052651521,0.132011639980381,0.405372389333362,0.242478588308153
5,5.09055635858613,-2.42333481520963,2.79517843988012,0.23614226077974,0.0292868165011662,-0.0497642346782328,1.99606584741184,0.562644056634981,-1.38917916863613,0.246326930105769,0.309301432804289,0.11740721161069,4.07831617677894,-0.00553265808679846,0.00093106719586913,-0.00333578681097849,1.99606584741184,0.562644056634981,-1.38917916863613,0.246326930105769,0.309301432804289,0.11740721161069,-0.137006982743676,1.91746332806775,-1.88313335401043,-0.446286315011247,0.0743144844006003,-0.140941948730683
5.1,5.26209209252045,-2.25418575497092,2.6456260175281,0.400080916771486,0.165881245939999,0.0616132344801179,2.05261017542292,0.826163968000431,-1.46235080454834,-0.0384249855658926,0.196734545946889,-0.0470836625140076,4.07014913543535,-0.00688673821479646,-0.00158560452466807,-0.000743856443055538,2.05261017542292,0.826163968000431,-1.46235080454834,-0.0384249855658926,0.196734545946889,-0.0470836625140076,-1.43086883001803,3.08834356672143,-2.41546118112065,-0.556161362714198,-0.114377838270323,-0.0319527455500202
5.2,5.40161407575816,-2.11495975959517,2.50377761361906,0.275849645823007,0.130036486057076,-0.0148935841181851,1.81003176312032,1.27598767121103,-1.36234542840203,-0.118464111865604,0.0743035881097205,-0.00176692170440461,3.84526119418131,-0.00232568010785947,0.00338720283342976,0.000714804049810964,1.81003176312032,1.27598767121103,-1.36234542840203,-0.118464111865604,0.0743035881097205,-0.00176692170440461,-0.92822951323979,2.10868376362799,-2.47269958624638,-0.188377501139856,0.266195064996856,0.0293690230008533
5.3,5.4482971410592,-1.88938320516548,2.58185054561396,0.217353959941696,0.0702370899205161,-0.000517628099363903,1.75174066497048,1.32305404744267,-1.89930804990897,0.0379242153768709,0.266842593748095,0.0171813892354999,4.08546739313198,-0.00456620178449067,0.0003916317566537,-0.000867165334407312,1.75174066497048,1.32305404744267,-1.89930804990897,0.0379242153768709,0.266842593748095,0.0171813892354999,-0.559026793745345,1.76232389630789,-1.85098757321264,-0.369143464015994,0.0355526303885426,-0.0374449660170497
5.4,5.55881627605142,-1.77491235375622,2.19378513198452,0.295572341377125,0.17521849611579,0.010791869883697,1.72108175201948,1.54695490822471,-1.84863255011336,-0.0591989013400842,0.164554108105556,-0.00764568023159471,4.17537002598645,-0.00669387629778283,-0.00121473933995424,-0.000155418682448284,1.72108175201948,1.54695490822471,-1.84863255011336,-0.0591989013400842,0.164554108105556,-0.00764568023159471,-1.41877093043665,2.41729539329907,-1.94370281237053,-0.541201020699454,-0.0872916504925132,-0.00772688654823129
5.5,5.62317013553166,-1.61749361451577,2.0300852628299,0.227955776785401,0.118413870678913,-0.0241161446091784,1.45087590466842,1.85896457478884,-1.80456625971697,-0.192885270474963,0.0763552359808808,-0.0147172986641866,4.05346221286387,-0.00242356009887665,0.0027296145652951,0.00181845705710465,1.45087590466842,1.85896457478884,-1.80456625971697,-0.192885270474963,0.0763552359808808,-0.0147172986641866,-0.888505188744549,1.85402110577265,-1.96810049073665,-0.196964246113608,0.215742567903672,0.0753879176740813
5.6,5.64279504809928,-1.38572562629552,2.02192261337094,0.160916177639339,0.0873817553583419,-0.0202957035661034,1.41740963166895,1.96301207330398,-2.11911637706782,-0.0327213235742247,0.238693639424185,0.0301807980209495,4.17109486661125,-0.0046176194375464,-0.000323480703724493,-0.000475104026669808,1.41740963166895,1.96301207330398,-2.11911637706782,-0.0327213235742247,0.238693639424185,0.0301807980209495,-0.691348883453178,1.3509161263068,-1.60700104314798,-0.373842337153712,-0.0199074019918223,-0.0214117697477126
5.7,5.74737085561692,-1.19309391906236,1.73808426388826,0.248669867323894,0.190564799295109,0.0164754901969128,1.39672777345744,2.1227622667037,-2.08498333341116,-0.11991307053191,0.141573804805305,0.00161145757589643,4.26337910112199,-0.00743575119189737,-0.00204485450847245,-0.000836089820785703,1.39672777345744,2.1227622667037,-2.08498333341116,-0.11991307053191,0.141573804805305,0.00161145757589643,-1.59976503270206,2.07248829566333,-1.69512787876376,-0.601776706067116,-0.151244419022636,-0.0368894953223781
5.8,5.85431975618851,-0.960129211337076,1.6083144739988,0.230535565496976,0.184017419113244,0.0255954467021082,1.1680430770082,2.47312457071407,-2.02961609067688,-0.243446994192162,0.0863718855151536,0.0113148606141842,4.20280077040359,-0.00633079968462726,-0.00102849197658368,-0.00177587116590373,1.1680430770082,2.47312457071407,-2.02961609067688,-0.243446994192162,0.0863718855151536,0.0113148606141842,-1.54603614924867,1.88172033479039,-1.76493703755697,-0.512890755515715,-0.0731757088575884,-0.0766451789171758
5.9,5.8508014810114,-0.693395813039923,1.58431903626973,0.151087172516846,0.152576826725412,0.0173106448671582,0.995399153926944,2.61536713587206,-2.22270665447293,-0.237326649232601,0.110276904485978,-0.0242978893370402,4.20742461122486,-0.00466802146718832,-0.000948521707004179,0.000289139243891438,0.995399153926944,2.61536713587206,-2.22270665447293,-0.237326649232601,0.110276904485978,-0.0242978893370402,-1.28609985388654,1.24446862127954,-1.5876565108817,-0.379087659043735,-0.066992357713748,0.0105022003908152
6,5.83198627853072,-0.495109065264087,1.3407971792025,0.114109680510914,0.146481462999084,-0.0200167139078974,0.845757828469936,2.64148892810442,-2.31528756184479,-0.207223050932744,0.0915378294742969,-6.01686690100914e-05,4.29611169250681,-0.00435858869455923,-0.000821537684906145,0.00090811919128969,0.845757828469936,2.64148892810442,-2.31528756184479,-0.207223050932744,0.0915378294742969,-6.01686690100914e-05,-1.22611810629543,1.00307165394206,-1.36507345535514,-0.353916585586063,-0.0583594505149078,0.0366214015515422
6.1,5.86727838077924,-0.272680426495487,1.14411875165652,0.140492392732791,0.16981233799037,0.0169893564522978,0.76145693962117,2.76899956809261,-2.26880859095061,-0.192077533036735,0.113541232369174,0.0368187569924215,4.33606323134533,-0.00705429353687142,-0.00291359020695491,-0.00261664719248555,0.76145693962117,2.76899956809261,-2.26880859095061,-0.192077533036735,0.113541232369174,0.0368187569924215,-1.4715475911887,1.1895359285286,-1.34682510245086,-0.571431621895245,-0.219563121771966,-0.112086281801543
6.2,5.86368753791838,-0.0624890946921237,0.988228475327632,0.11514479940188,0.162740750994479,0.00936936268590927,0.535191763449032,2.88871710102697,-2.33898847022229,-0.34827662661273,0.00441579140108309,-0.061082756509947,4.3861691653534,-0.00342276573580511,-0.000682273629963803,0.00235094939453978,0.535191763449032,2.88871710102697,-2.33898847022229,-0.34827662661273,0.00441579140108309,-0.061082756509947,-1.42129273812176,0.994585843769282,-1.21089273585194,-0.279364549945627,-0.0471385084155438,0.0975173542228076
6.3,5.81396612257453,0.159340449411105,0.833958094198634,0.0204367177927364,0.112540194952472,-0.0382228537073733,0.373167031200926,2.95606430261018,-2.35641164639696,-0.221568350993828,0.0860088604015898,0.0410609820253319,4.33938678482018,-0.00357159906137292,-0.00123522010589622,-0.000224901730714258,0.373167031200926,2.95606430261018,-2.35641164639696,-0.221568350993828,0.0860088604015898,0.0410609820253319,-0.96695788487574,0.214460833987613,-1.18792892208317,-0.290295946921763,-0.0917854520394443,-0.010991565041958
6.4,5.78899574010553,0.388865898868549,0.678819551667877,0.0643085166824591,0.153367532496723,0.011424122701138,0.345191849683977,2.86796904873471,-2.37913743020172,-0.239938015679942,0.0576202392499379,-0.00937166755849228,4.38673667771173,-0.00495396568875486,-0.00245895362056469,-0.000174048386361698,0.345191849683977,2.86796904873471,-2.37913743020172,-0.239938015679942,0.0576202392499379,-0.00937166755849228,-1.34388041306677,0.548503720521348,-1.15743021858389,-0.402627746734173,-0.185209899337908,-0.00878939070880768
6.5,5.79313138051596,0.562570731082586,0.468813139599257,0.0390467556414962,0.144404943876123,-0.0144325767704777,0.140371902230794,2.97522069434263,-2.43661724935474,-0.31657665368087,0.00110404099597342,-0.0113842933107985,4.48752249697089,-0.00312461175483169,-0.00137532991456089,0.00114331486065296,0.140371902230794,2.97522069434263,-2.43661724935474,-0.31657665368087,0.00110404099597342,-0.0113842933107985,-1.28536597759014,0.368946268318933,-0.935139685717482,-0.255006282065244,-0.102405878197518,0.046889507379528
6.6,5.74549375279909,0.79860340606202,0.342234602205043,-0.00344784208021492,0.128605896966818,-0.00765619161725903,0.0206786476725926,3.00121859996413,-2.36256104677726,-0.249708726809639,0.0444790629646224,0.025116275881449,4.40947662330753,-0.00394384525781358,-0.00233511975975388,-0.000905544216097301,0.0206786476725926,3.00121859996413,-2.36256104677726,-0.249708726809639,0.0444790629646224,0.025116275881449,-1.13123847141456,-0.021746041319265,-1.06392871076041,-0.320859799487105,-0.176885815788356,-0.039385332390617
6.7,5.720720752115,1.02693303663721,0.234025523136228,0.0238446064824265,0.163263787930662,0.0226758622364991,-0.0442990861929491,2.95037331158084,-2.43038744289171,-0.287466494085696,0.00809341400988653,-0.00784027005787054,4.48383762707527,-0.00447242093965246,-0.00320613393870715,-0.000740932888080529,-0.0442990861929491,2.95037331158084,-2.43038744289171,-0.287466494085696,0.00809341400988653,-0.00784027005787054,-1.46165997543585,0.180715324866315,-0.964091818729329,-0.364028344656201,-0.243800619211138,-0.0323222813296117
6.8,5.65883210492749,1.17967895626366,0.0123238185599184,-0.040040931343548,0.119024280259631,-0.0224596490675618,-0.311793629260361,2.95910679868223,-2.47100930237297,-0.351820970634643,-0.0600235169395656,-0.0317435066635074,4.52229381554697,-0.00080063962695741,-0.000753929174534562,0.0025490290618271,-0.311793629260361,2.95910679868223,-2.47100930237297,-0.351820970634643,-0.0600235169395656,-0.0317435066635074,-1.08098502208015,-0.337865657111542,-0.836601335262065,-0.0677772950362038,-0.0557113218582096,0.106654114924211
6.9,5.57904543610778,1.40544878827103,-0.0980294517744489,-0.0606957857046633,0.113705512743762,-0.00565386693596408,-0.313400560501483,2.86619471369006,-2.37938342341508,-0.185119693328982,0.0548206269196197,0.0652844209369972,4.42517248871578,-0.00433847510565801,-0.00337748397966795,-0.00285058708323831,-0.313400560501483,2.86619471369006,-2.37938342341508,-0.185119693328982,0.0548206269196197,0.0652844209369972,-1.00533608532001,-0.531173360765913,-1.03299820918817,-0.352402655485956,-0.258370329461886,-0.120959237916257
7,5.56983025077746,1.58985967695232,-0.224003794700863,0.0124064933891124,0.177912347572989,0.0526023776598146,-0.373854592070535,2.79529343460076,-2.48781225391527,-0.335272296857821,-0.0528016943074247,-0.0422087559443444,4.59155241883799,-0.00367542332746297,-0.00370055634626282,-0.000415456585180889,-0.373854592070535,2.79529343460076,-2.48781225391527,-0.335272296857821,-0.0528016943074247,-0.0422087559443444,-1.62879962515445,0.0283271623510261,-0.77254328847337,-0.300255059094722,-0.282843380749681,-0.0181233232101573
7.1,5.50156628908064,1.73450307557658,-0.440385930696684,-0.0893485876681411,0.114414232893242,-0.0158497514175458,-0.701074513391647,2.88824871785269,-2.48297730276858,-0.336861065270135,-0.0868037846138355,-0.00737834956351943,4.610219460849,-0.000762433865921186,-0.00146580551209835,0.00117832922563613,-0.701074513391647,2.88824871785269,-2.48297730276858,-0.336861065270135,-0.0868037846138355,-0.00737834956351943,-1.06135829965266,-0.806017177997306,-0.686385103628327,-0.0644497398518944,-0.111781660649965,0.0493245247514345
7.2,5.3570403209702,1.95965251695983,-0.529257982528677,-0.0992372489073129,0.104557582873529,0.0108607237261726,-0.686407520485207,2.63615899516865,-2.36448748299522,-0.214123089691205,-0.00181250309747778,0.0373740297000747,4.4443953824949,-0.00293520960195656,-0.00315846503668283,-0.00223191912670459,-0.686407520485207,2.63615899516865,-2.36448748299522,-0.214123089691205,-0.00181250309747778,0.0373740297000747,-0.913514982205546,-0.890625796311788,-1.01324620487774,-0.239422279997507,-0.24247038511967,-0.0943731846511971
7.3,5.29707813139804,2.04416370490527,-0.682408652375281,-0.0762318661985296,0.125478592719679,0.0195705540031365,-0.763345044603824,2.50333720558033,-2.58385970203721,-0.325996644626935,-0.0942939189452469,-0.0511052694213832,4.63047704124517,-0.000493512820571483,-0.00185914494728061,0.00157245057749985,-0.763345044603824,2.50333720558033,-2.58385970203721,-0.325996644626935,-0.0942939189452469,-0.0511052694213832,-1.14161500441583,-0.727776213719969,-0.648541192450274,-0.0431851450602662,-0.142749047967915,0.0662625828566157
7.4,5.26199198693607,2.21157304420246,-0.890556589718504,-0.103026354696988,0.120743341283992,0.0166152131862701,-0.870464432864888,2.53320260343728,-2.43577819180994,-0.196443472941857,-0.0127874452252414,0.0650929987410468,4.61470308435059,-0.0035842004892008,-0.00404958904521718,-0.00375984619203005,-0.870464432864888,2.53320260343728,-2.43577819180994,-0.196443472941857,-0.0127874452252414,0.0650929987410468,-1.08986590013815,-0.967431860527323,-0.696372503672757,-0.291398791446524,-0.311701753544751,-0.158559722626284
7.5,5.14421291835727,2.36121404915141,-0.985218434085782,-0.0809528511259559,0.132628577503958,0.0494083018975945,-1.00765344892371,2.34104669017834,-2.48285798153429,-0.353877907241971,-0.137635615064317,-0.0725257608108395,4.63649360611499,-0.00025731089908733,-0.00209721103982335,0.00125737171608642,-1.00765344892371,2.34104669017834,-2.48285798153429,-0.353877907241971,-0.137635615064317,-0.0725257608108395,-1.18371923006322,-0.809304506925392,-0.648552142939995,-0.0242038680859861,-0.161955507539449,0.0532356580835371
7.6,4.97103410501372,2.39493199887155,-1.20662367909068,-0.219479539908723,0.0202315914819218,-0.0637847436622058,-1.23566580340511,2.21189503203656,-2.5835884236577,-0.266432659066434,-0.0994977236529853,-0.00772144252293273,4.67424081590645,0.00388015583633745,0.000344722547023237,0.00341805231931148,-1.23566580340511,2.21189503203656,-2.5835884236577,-0.266432659066434,-0.0994977236529853,-0.00772144252293273,-0.313946888400469,-2.01946235260876,-0.687647344133053,0.310860768508172,0.0257177823060846,0.144556958272419
7.7,4.85020589009131,2.53518692207135,-1.35803889609921,-0.164768015422496,0.0649220753324011,-0.000611686148476443,-1.00514142700522,1.72550403338081,-2.37346507348834,-0.0518963529818757,0.0151006707655643,0.0745305575900746,4.45859999883867,-0.00188774840737465,-0.00257543262637793,-0.00348319289465254,-1.00514142700522,1.72550403338081,-2.37346507348834,-0.0518963529818757,0.0151006707655643,0.0745305575900746,-0.57157592049733,-1.4622809374793,-1.03210211807125,-0.154065626742456,-0.199141442689885,-0.146534620073132
7.8,4.81835196053445,2.45601266502572,-1.4939153823216,-0.11648204130933,0.0804830556248695,0.00719135118395335,-1.17765230395589,1.69182749761107,-2.75871634510029,-0.322083926147784,-0.139719720967113,-0.107383928565005,4.80000293492651,0.00337592514836384,5.27096628706617e-05,0.00477553708705416,-1.17765230395589,1.69182749761107,-2.75871634510029,-0.322083926147784,-0.139719720967113,-0.107383928565005,-0.758530768322816,-1.12118510138964,-0.305912050957124,0.269271549063191,0.00229928085911017,0.201961977130647
7.9,4.74156652889184,2.61291688224406,-1.74366803678473,-0.190786636063436,0.0565105470486876,-0.0254955366562548,-1.21887252409367,1.75574524020943,-2.44568286830355,-0.0532093375361553,0.0190623044316612,0.121503855793636,4.68761785456691,-0.00175955909534338,-0.00275486664180723,-0.00452304514434085,-1.21887252409367,1.75574524020943,-2.44568286830355,-0.0532093375361553,0.0190623044316612,0.121503855793636,-0.565062921463785,-1.76400655828988,-0.6195685977798,-0.143136280762587,-0.212949832035143,-0.190287072998625
8,4.6336524551885,2.73108189540178,-1.77402313125756,-0.0961958112005749,0.11580722722609,0.0683277520424167,-1.24753941609281,1.37988238574909,-2.54032436096331,-0.277302554937914,-0.123469601710062,-0.0939026293105949,4.70786870576273,0.00124874674680609,-0.00160196249035378,0.00126805383090382,-1.24753941609281,1.37988238574909,-2.54032436096331,-0.277302554937914,-0.123469601710062,-0.0939026293105949,-1.01867311719841,-0.976185585147907,-0.500570490817029,0.097727655048334,-0.12579350114793,0.054091824000835
8.1,4.5443475231506,2.70001920330069,-1.95737583319536,-0.200785857910302,0.0519576322278604,-0.0253958001335667,-1.45027680564145,1.51413640564895,-2.65102656005956,-0.146680924890222,-0.0696025295863263,0.0346068147280209,4.86501668072912,0.00131676792537286,-0.000986415683186945,-0.000415287532472207,-1.45027680564145,1.51413640564895,-2.65102656005956,-0.146680924890222,-0.0696025295863263,0.0346068147280209,-0.544287136470824,-1.92735298811788,-0.288308386250074,0.104671016401476,-0.0775725080099634,-0.0168723118633733
8.2,4.38236896187414,2.84832311230219,-2.14028904442628,-0.151713600814902,0.0768225844180205,0.0360912980759113,-1.38721651485647,1.04981987529043,-2.41795486602412,-0.132686091153938,-0.0569763257755023,0.00212925108602574,4.69437745924408,0.000392567312431455,-0.00180185264279782,-0.00178700033617733,-1.38721651485647,1.04981987529043,-2.41795486602412,-0.132686091153938,-0.0569763257755023,0.00212925108602574,-0.660618245015177,-1.44372142896371,-0.556461709738279,0.029773943659859,-0.140997153416907,-0.0747262061184572
8.3,4.33108000402808,2.77473353165922,-2.18658217001333,-0.138026483701123,0.0951726831846824,0.0400799353412757,-1.44642288447041,1.08693559146395,-2.65046627305262,-0.154527949784469,-0.0801610580338404,-0.0166328628164352,4.88746610907167,0.000116428005839267,-0.00187260064227814,-0.00107717102503668,-1.44642288447041,1.08693559146395,-2.65046627305262,-0.154527949784469,-0.0801610580338404,-0.0166328628164352,-0.865439606731981,-1.38070591112088,-0.17184844778876,0.00755283033306738,-0.146648935611778,-0.0447551107661597
8.4,4.16939052325169,2.81670610090752,-2.47810323734699,-0.195271303887418,0.0405985270058799,-0.00795402835255077,-1.65930209991143,0.894143462687779,-2.54232557069856,-0.198615629189545,-0.121029558282159,-0.0367467838689789,4.91852086776145,0.00398474182672732,0.00029346644558129,0.00212620315371142,-1.65930209991143,0.894143462687779,-2.54232557069856,-0.198615629189545,-0.121029558282159,-0.0367467838689789,-0.406841163969311,-1.90553195423451,-0.167862356037906,0.319808005784795,0.0200734832806219,0.0904199868933543
8.5,3.98886410148672,2.81165170858613,-2.57377930790167,-0.220878162795067,0.0186728218770813,-0.0163689491324366,-1.57195122093212,0.553811639381965,-2.47325951255786,-0.0246752670912542,-0.0318003824673768,0.0381302305183625,4.83583317413057,0.00211686517966606,-0.000328436610758358,-0.00103473243823947,-1.57195122093212,0.553811639381965,-2.47325951255786,-0.0246752670912542,-0.0318003824673768,0.0381302305183625,-0.210859063739365,-2.11576393231622,-0.374947727222919,0.169693713879484,-0.0272589137116399,-0.0429576506026913
8.6,3.93345373741927,2.74442770227328,-2.69278228023559,-0.138975120491347,0.0705846329922998,0.0339739238896574,-1.51304159051326,0.311489488920409,-2.5564387476428,-0.0784260461016422,-0.0496191043401049,-0.0186028202343039,4.92154488050302,0.00112388266907682,-0.00112088003431651,-0.000725895531028182,-1.51304159051326,0.311489488920409,-2.5564387476428,-0.0784260461016422,-0.0496191043401049,-0.0186028202343039,-0.640788224981886,-1.38611117276999,-0.0860860600955213,0.0892586354953428,-0.0890139844899206,-0.0299379523302214
8.7,3.8613788424032,2.6871168264324,-2.87501353313684,-0.158428688044798,0.065304874331875,0.0164249692476518,-1.6814505699551,0.40127631863044,-2.53933626041293,-0.108046338242167,-0.0772478305296746,-0.00787358848258072,5.02270669962017,0.00174644133197624,-0.000764112842615011,-0.000401999221956785,-1.6814505699551,0.40127631863044,-2.53933626041293,-0.108046338242167,-0.0772478305296746,-0.00787358848258072,-0.621221479140776,-1.59525067377483,0.0884639981823749,0.139702570495615,-0.0612722188382214,-0.0162787507950316
8.8,3.64360281330319,2.7044935381857,-3.05585054408402,-0.21607251341903,0.00982887519205847,-0.0201782407584831,-1.80743991834514,0.112514748679412,-2.48186015739287,-0.109584294427088,-0.0993622388407304,-0.0350248267725516,5.04524793879225,0.00524983274186965,0.00119229288060935,0.00261248724266096,-1.80743991834514,0.112514748679412,-2.48186015739287,-0.109584294427088,-0.0993622388407304,-0.0350248267725516,-0.140500452865582,-2.16095818679749,0.0453856542099409,0.422383587166777,0.0892823795428592,0.110895781241858
8.9,3.49256476209563,2.6212217058947,-3.16658040330912,-0.21213363946649,0.00407154274816135,-0.0240278396627266,-1.67022588485025,-0.251749607958867,-2.42104653690865,0.0610221427655225,-0.00924880576202196,0.0430195655359902,5.01694454247609,0.00257569141226619,0.000314911279394885,-0.000900124693400166,-1.67022588485025,-0.251749607958867,-2.42104653690865,0.0610221427655225,-0.00924880576202196,0.0430195655359902,-0.0906822565539302,-2.11102777784846,-0.0011127736821841,0.207105308182377,0.0224896562749466,-0.0373533113535367
9,3.44717461294046,2.48425245840752,-3.28542764285726,-0.129918346128291,0.0545547826400549,0.0241303864937196,-1.64591911266956,-0.418894638108432,-2.45445419676555,-0.0262735043645445,-0.0351640591745723,-0.0235096024184035,5.07848522118693,0.0019951760384075,-0.000341012307120972,-3.14911212352488e-05,-1.64591911266956,-0.418894638108432,-2.45445419676555,-0.0262735043645445,-0.0351640591745723,-0.0235096024184035,-0.517259831968296,-1.32873508736464,0.246388710719891,0.159950887219509,-0.0288900421747789,-0.000722630734418227
9.1,3.29335375377084,2.34460986019229,-3.49748088236889,-0.21395616599236,-0.0084934464985816,-0.0519386034521051,-1.89397845460605,-0.404281495994565,-2.47075997918151,-0.0817109647665066,-0.100403036111056,-0.0451264124830243,5.24447863929567,0.00700229718245986,0.00218041639007041,0.00460596193847015,-1.89397845460605,-0.404281495994565,-2.47075997918151,-0.0817109647665066,-0.100403036111056,-0.0451264124830243,-0.0286825268632702,-2.22861042670038,0.43942426045334,0.563968209989209,0.165571178317493,0.194933483641211
9.2,3.1532779046264,2.41238201674741,-3.5800314787301,-0.170928154776676,0.0265382130889326,0.00228720852011514,-1.64977462266304,-0.771027352770413,-2.20500234770112,0.205554591248575,0.0632849722341486,0.11996906310114,5.04594078167022,-0.00114073532661272,-0.00130342313372151,-0.00578168290902526,-1.64977462266304,-0.771027352770413,-2.20500234770112,0.205554591248575,0.0632849722341486,0.11996906310114,-0.25995975479542,-1.71719836896584,0.131314006508324,-0.0923367734226733,-0.10143031604092,-0.243413567995038
9.3,3.08915190259614,2.16999027471364,-3.65125037774837,-0.0862781870402154,0.0585694971214613,0.0389213723745285,-1.80375253448757,-0.844924503893801,-2.46024638977392,-0.163687569286912,-0.109012505282728,-0.145884554322587,5.27456394923923,0.00508050176110843,0.00113488861253305,0.00506838595249168,-1.80375253448757,-0.844924503893801,-2.46024638977392,-0.163687569286912,-0.109012505282728,-0.145884554322587,-0.579369309553878,-0.93228106710744,0.681867452151527,0.408462167432492,0.0836344785394972,0.214393723333415
9.4,2.95750653052087,2.14450462858863,-3.85751502141922,-0.201280414724013,0.0164576614231612,-0.0378332353855121,-1.88186928283738,-0.656443438467212,-2.16962202815,0.141214618569387,0.0290849245910948,0.128114774093588,5.20744364080609,0.00066899949365772,-0.000717419246959739,-0.00427534705225747,-1.88186928283738,-0.656443438467212,-2.16962202815,0.141214618569387,0.0290849245910948,0.128114774093588,-0.246573574007279,-2.07434447468135,0.393243286408861,0.0537964116775204,-0.0557392056430509,-0.179894111736659
9.5,2.75871323837034,2.13941233601587,-3.91792526443712,-0.108330355009843,0.0459281242858424,0.0453121749949809,-1.87550085683089,-1.22955711311228,-2.27694271670231,-0.0630309030898847,-0.0829782236994422,-0.108540674366502,5.29772175117938,0.00429856286825091,0.00107184960172721,0.00299756203594793,-1.87550085683089,-1.22955711311228,-2.27694271670231,-0.0630309030898847,-0.0829782236994422,-0.108540674366502,-0.431219528393723,-1.16629438050497,0.712225532082591,0.345638834179328,0.0791387748194359,0.126971406164778
9.6,2.67272862395864,1.86352164992512,-4.05518391735118,-0.166791730634255,0.0161094649558402,-0.0311067961711675,-1.92300930853478,-1.05084271466475,-2.11171516320758,0.123012922366888,0.0147540735682102,0.0736740350498118,5.28029397849511,0.00148156925553879,-6.18673332460907e-05,-0.00201375344836071,-1.92300930853478,-1.05084271466475,-2.11171516320758,0.123012922366888,0.0147540735682102,0.0736740350498118,-0.222205692605139,-1.74719739709912,0.602681877550614,0.119220306771939,-0.00573241534648766,-0.0845180258277832
9.7,2.52847692991204,1.88106062598181,-4.12833282649521,-0.0813537141654276,0.0653330090221388,0.0517667406595155,-1.88243581349845,-1.36565873363874,-2.11428468282281,0.0191753488850512,-0.0288539539311302,-0.0333003966022537,5.31575545477686,0.00132425122125193,-0.000499094290593862,-0.000872533344791149,-1.88243581349845,-1.36565873363874,-2.11428468282281,0.0191753488850512,-0.0288539539311302,-0.0333003966022537,-0.646167822866271,-0.898597979676095,0.763741676226736,0.106077630912966,-0.0408832437677277,-0.036377746228737
9.8,2.4007359361303,1.64493176868818,-4.27051078749398,-0.141589077322131,0.0250149730886432,-0.0122536248232209,-2.08707090643147,-1.25931579422152,-2.06074799017279,0.0033115402298896,-0.0642571355727377,-0.0267751248470211,5.3957687581821,0.00393271119187323,0.00107005335552798,0.00184946934001238,-2.08707090643147,-1.25931579422152,-2.06074799017279,0.0033115402298896,-0.0642571355727377,-0.0267751248470211,-0.285860831530535,-1.51947498451331,0.870204179861487,0.316661703668779,0.0805416377828786,0.078453542802157
9.9,2.19680535276776,1.63556669936766,-4.36287649460004,-0.132650686869064,0.0210821438629688,0.00134320125624084,-1.9991301504873,-1.54650966408397,-1.93172577147549,0.135845125070866,0.0117392974499081,0.0462318587504346,5.36967358469993,0.0011658730014064,-6.15097513484164e-05,-0.00224773063153883,-1.9991301504873,-1.54650966408397,-1.93172577147549,0.135845125070866,0.0117392974499081,0.0462318587504346,-0.222494697542219,-1.42070771731728,0.832634228254644,0.0937182689006867,-0.00593585945565635,-0.094464042529708
10,2.08887453520595,1.40184089523098,-4.44129755170766,-0.0853346606869206,0.0405424811964949,0.0214965498809025,-2.02483007470783,-1.67648694099421,-1.92659813088,0.0179147676777452,-0.0428166075015272,-0.0558321526677339,5.43053128156415,0.00296144502714074,0.000616238122424654,0.00162918696034142,-2.02483007470783,-1.67648694099421,-1.92659813088,0.0179147676777452,-0.0428166075015272,-0.0558321526677339,-0.418612783363376,-0.934914682664896,1.00264897580281,0.238266631003336,0.045347959329398,0.0691046177685218
10.1,1.96159013222679,1.26300410264674,-4.54644681942425,-0.11826723256982,0.0269511395432476,-0.0100843372806536,-2.09427550464812,-1.62103861131874,-1.79448733354549,0.113131573797618,-0.00358733409568097,0.0401992174478031,5.42769499756635,0.00156880512145494,3.85922717733422e-05,-0.00142284071056701,-2.09427550464812,-1.62103861131874,-1.79448733354549,0.113131573797618,-0.00358733409568097,0.0401992174478031,-0.303387765961292,-1.27785171970065,0.965645817877931,0.126276517586565,0.00202997037953536,-0.0597003370804208
10.2,1.75792200232848,1.15315729570452,-4.63845810481052,-0.104690300923133,0.013427763349508,-0.000629105075932536,-2.14553043771528,-1.88045109613667,-1.79771266296996,0.0373709254378024,-0.0526546277647091,-0.0532765818320479,5.53116435438946,0.00413323258569756,0.00148506764663664,0.00256252058038273,-2.14553043771528,-1.88045109613667,-1.79771266296996,0.0373709254378024,-0.0526546277647091,-0.0532765818320479,-0.14845183830233,-1.15591100946718,1.19077034806979,0.332885345882315,0.112591538836967,0.108439686519099
10.3,1.60905538208834,0.936061922263893,-4.73773450732726,-0.125420439512634,-0.00515211300023528,-0.0353351252009618,-2.11135990540197,-1.95383286535717,-1.60912673986931,0.162433018285926,0.0148834785074632,0.0420031671788512,5.50535483618503,0.0025780682533404,0.000896216936619236,-0.000298995582884252,-2.11135990540197,-1.95383286535717,-1.60912673986931,0.162433018285926,0.0148834785074632,0.0420031671788512,0.00758872478998344,-1.37847895677903,1.11407733706591,0.207751371549162,0.0683040019390232,-0.0123330962393148
10.4,1.53044752079873,0.830572908634549,-4.72680130829187,-0.0254668681536802,0.0658342076318783,0.0470096469868731,-2.00499570401974,-2.06584757009697,-1.55087851006467,0.144150123877373,0.030820244637447,0.0147509149583744,5.45031124517509,-0.000966312543229002,-0.00154159190543493,-0.0029149954072977,-2.00499570401974,-2.06584757009697,-1.55087851006467,0.144150123877373,0.030820244637447,0.0147509149583744,-0.703047174484331,-0.310956066082808,1.06348158008944,-0.0782868843503799,-0.119884398035342,-0.122727172958443
10.5,1.3953485029977,0.603169120433932,-4.83749705896203,-0.0630808346025558,0.0345307719281824,-0.000273264406606587,-2.30401559963546,-1.90213641882055,-1.57256571381031,-0.0342402565901749,-0.102603184220161,-0.0785665596383728,5.58850231831589,0.00447080976299305,0.0015560608655596,0.00373824475234092,-2.30401559963546,-1.90213641882055,-1.57256571381031,-0.0342402565901749,-0.102603184220161,-0.0785665596383728,-0.385298948606373,-0.704482020319499,1.33812461585077,0.360097373735386,0.118260449256265,0.15799458112829
10.6,1.13407095225416,0.58701947837835,-4.92449583820104,-0.118859125835256,-0.0103502075578772,-0.028200055176007,-2.24170129339054,-2.03780366624674,-1.3549119950794,0.214746547738731,0.0377383808690835,0.0832147725936487,5.551210926632,0.00106566043188438,0.000124090189374268,-0.00259064108042169,-2.24170129339054,-2.03780366624674,-1.3549119950794,0.214746547738731,0.0377383808690835,0.0832147725936487,0.0769332180832291,-1.31921293317165,1.21349896923577,0.0858885800473929,0.00934109644656497,-0.109089947365034
10.7,0.978860107164255,0.352778314751403,-4.95653648779047,-0.0421780726341047,0.0165397621846438,0.00691508694294203,-2.18269650923811,-2.36211312757258,-1.37681456336332,0.0541520262842452,-0.0456483335604021,-0.0845805522846507,5.64729188951831,0.00382242781107528,0.00144494809056174,0.00369222725852681,-2.18269650923811,-2.36211312757258,-1.37681456336332,0.0541520262842452,-0.0456483335604021,-0.0845805522846507,-0.183337383698507,-0.477521741555263,1.47299530850552,0.307839218471509,0.10979074833659,0.155999954382364
10.8,0.895677552171873,0.0880187172171989,-5.02800114349118,-0.0801410508791807,-0.000411823643920145,-0.0424541992455988,-2.2244179393896,-2.1800023546792,-1.13800886063805,0.199115656941692,0.0273460401102299,0.0745560582915736,5.57061802606305,0.00147164097894052,0.000438031983243865,-0.00150186477521245,-2.2244179393896,-2.1800023546792,-1.13800886063805,0.199115656941692,0.0273460401102299,0.0745560582915736,-0.0332847828989094,-0.891305366905188,1.2954764704333,0.118635271965943,0.0335389559682684,-0.0631852231933586
10.9,0.716102170640673,0.0282754263512048,-5.01590159646306,-0.0173687814932369,0.0265622551141048,0.018606685492043,-2.20373587037078,-2.36382500886272,-1.18231888264561,0.104785443870862,-0.0132070381835888,-0.0440661498457129,5.64263797610026,0.00176090075658646,0.000466360325282742,0.00121619219126169,-2.20373587037078,-2.36382500886272,-1.18231888264561,0.104785443870862,-0.0132070381835888,-0.0440661498457129,-0.295983316362124,-0.20154347472957,1.46959340674764,0.141644597775727,0.0348459309947801,0.0514869180666229
11,0.592790874385412,-0.197044575819666,-5.09267669605443,-0.0398424997426208,0.0175864953924194,-0.0208966611228721,-2.27497263694935,-2.2181405364597,-0.989385621809385,0.132186156801388,-0.00536209588488391,0.0239273980913014,5.60598692367306,0.00177091984838043,0.000361382882145111,-0.000133847690015279,-2.27497263694935,-2.2181405364597,-0.989385621809385,0.132186156801388,-0.00536209588488391,0.0239273980913014,-0.206301337157897,-0.442380775675911,1.391343515899,0.142643771268443,0.0273359883343881,-0.00549404573697517
11.1,0.433168524173784,-0.242202261010984,-5.05662936238356,0.00343737062357408,0.0450195470260738,0.0316467511290413,-2.23458648587214,-2.27027871575992,-0.950901819302669,0.159237407267723,0.0133764471160558,0.0147430594190586,5.60331564480572,-0.00068923781811439,-0.00108048067854783,-0.00218802332797228,-2.23458648587214,-2.27027871575992,-0.950901819302669,0.159237407267723,0.0133764471160558,0.0147430594190586,-0.505310415530221,0.0225437935631594,1.38521049478868,-0.0558514880647993,-0.083765413321672,-0.0921856333305237
11.2,0.301426199052561,-0.420946108395323,-5.09733687505688,0.023296854192747,0.0524912860025264,0.029939596134533,-2.34377172875867,-2.17213448764391,-0.869497522200996,0.0571854435307663,-0.0461380694823502,-0.0332035522430636,5.63167414281795,0.000760654285741301,-0.000459127026086492,0.000157127925420361,-2.34377172875867,-2.17213448764391,-0.869497522200996,0.0571854435307663,-0.0461380694823502,-0.0332035522430636,-0.598385321531263,0.244573716102036,1.43478249268989,0.0610059937192785,-0.0360034853240126,0.00675020045355394
