time,x,y,z,roll,pitch,yaw,xdot,ydot,zdot,p,q,r,thrust,roll angle,pitch angle,yaw angle,_xdot,_ydot,_zdot,_p,_q,_r,_xddot,_yddot,_zddot,_phiddot,_thetaddtot,_yawddot
0,1.01841953230695,5.01841953230695,0.0184195323069548,0.0184195323069548,0.0184195323069548,0.0184195323069548,0.0184195323069548,0.0184195323069548,0.0184195323069548,0.0184195323069548,0.0184195323069548,0.0184195323069548,9.14769576381116,-0.0108745135502855,0.000405658115356558,-0.00182923644207877,-0.0870245087125593,0.122591375055352,4.67643547161075,-0.472541669151841,0.0272104502010128,-0.032543427205784,-0.214953551191296,0.220750408469114,1.23432726047584,-0.0374140234507045,-0.0674141920639159,0.0256651726838151
0.1,0.620366420226373,3.02036642022638,0.0203664202263731,0.0203485909604707,0.0190758805166344,0.019066379225185,-0.0870245087125593,0.122591375055352,4.67643547161075,-0.472541669151841,0.0272104502010128,-0.032543427205784,5.52431218362293,-0.000463897587917502,-0.000876422835377162,0.000608266628281439,-0.0870245087125593,0.122591375055352,4.67643547161075,-0.472541669151841,0.0272104502010128,-0.032543427205784,-0.214953551191296,0.220750408469114,1.23432726047584,-0.0374126538257444,-0.067425785919779,0.0256663935231474
0.2,0.628838942297368,3.38689886635407,2.14900384755129,-0.214978825539495,0.01484850852389,-0.0146244431501711,-0.0580617262753687,0.0622846977713789,1.10704411266848,-0.0629456904781959,-0.0293382097066295,0.0115506127326708,6.65238684612427,8.67273454794842e-05,0.000379250902588504,0.000141998594051339,-0.0580617262753687,0.0622846977713789,1.10704411266848,-0.0629456904781959,-0.0293382097066295,0.0115506127326708,-0.234487305717427,-2.83513806776545,3.18707701147121,0.00699970194344696,0.0292288985826941,0.00599674782963304
0.3,0.644170960211855,3.36826192202826,0.792447065684573,-0.0495541470423778,-0.00415676356646794,0.011004000355554,-0.0905571600739667,-0.492743468433128,2.47065668704079,-0.0362133061358244,0.019513406587666,0.0062639844766531,6.45878592026627,-0.00562944349140927,-0.000706137211428014,-0.000807552457857246,-0.0905571600739667,-0.492743468433128,2.47065668704079,-0.0362133061358244,0.019513406587666,0.0062639844766531,0.0606668246292627,-0.639228442444563,3.09160334183618,-0.453987016581704,-0.0543066813836689,-0.034071810723538
0.4,0.602971633616994,3.09026600728758,1.54193690708085,-0.0608906790283473,-0.00340738450044968,-0.0110668527662833,-0.0901313399401738,-0.354604485087412,2.34079405623235,-0.306050192946058,-0.0412526955325948,-0.0320219832921195,6.09652689236099,3.07424581139821e-05,9.77645286637161e-05,0.00208171710646178,-0.0901313399401738,-0.354604485087412,2.34079405623235,-0.306050192946058,-0.0412526955325948,-0.0320219832921195,0.0332555393329348,-0.742398108563013,2.3603861777114,0.00247809019873743,0.0075025987015774,0.0878411801030886
0.5,0.651138483354262,3.19730574333716,1.62207894610006,-0.141905062337247,0.0151103212800495,0.016374885449983,-0.0150211707240269,-0.332393090577421,2.13661520237487,-0.0399543942179245,0.0295352251986736,0.0710887120738571,6.13411744063173,-0.00385848526433504,-0.00289550279872286,-0.00407412714033245,-0.0150211707240269,-0.332393090577421,2.13661520237487,-0.0399543942179245,0.0295352251986736,0.0710887120738571,-0.1550714509289,-1.73785981958283,2.33353256653252,-0.311169498241279,-0.222519361965535,-0.171905283867514
0.6,0.640421402011626,3.1476022749508,1.64120759239629,-0.0676084248051117,0.0133011572464218,0.0310572590005497,-0.0869582916973945,-0.581315816102976,2.28210756497596,-0.238645901519291,-0.125451245079939,-0.0931869596080243,6.01949962897832,-0.0018634987093374,0.000183557851878806,0.00306139564516228,-0.0869582916973945,-0.581315816102976,2.28210756497596,-0.238645901519291,-0.125451245079939,-0.0931869596080243,-0.134429669745723,-0.817886608373114,2.20043268549541,-0.150291041265591,0.0137856055570475,0.12917829601515
0.7,0.64568519260786,3.05301396495131,1.89913009396291,-0.129657537120252,-0.0218765889547285,-0.00601784255249589,-0.0422343200134139,-0.563861676512154,2.28216975312707,-0.139791933820141,0.0275069563198222,0.0910604225528102,5.79726267688094,-0.00242952352805922,-0.00265842845879391,-0.00391906119450215,-0.0422343200134139,-0.563861676512154,2.28216975312707,-0.139791933820141,0.0275069563198222,0.0910604225528102,0.242473633190255,-1.50059540671697,1.68445249420669,-0.195973425935449,-0.203995685665976,-0.165390433043882
0.8,0.626131745692006,2.99871766429486,1.98106086587878,-0.126035901574902,0.0112267418903551,0.0417734560694664,-0.0693976095380716,-0.730243416843673,2.13075026669019,-0.19521196672368,-0.125450321465319,-0.08846378544568,5.82496985499017,-0.000774897931195701,-0.00111210616534788,0.00234433896261742,-0.0693976095380716,-0.730243416843673,2.13075026669019,-0.19521196672368,-0.125450321465319,-0.08846378544568,-0.0684811520777873,-1.46856739378833,1.74680385694456,-0.0624658741368758,-0.0859978896957163,0.0988933650998947
0.9,0.626929457326645,2.90365930719437,2.07980975355351,-0.15025071741435,-0.0461524295055218,-0.0237347445407741,-0.0514955770329902,-0.847116677777774,2.24543387580131,-0.12423223332959,-0.0511996862086202,0.0579664312811383,5.60694937804412,-0.0016079066402357,-0.00106618587212212,-0.00151494533021255,-0.0514955770329902,-0.847116677777774,2.24543387580131,-0.12423223332959,-0.0511996862086202,0.0579664312811383,0.471555482727576,-1.6902312461157,1.26575185137159,-0.129752154576556,-0.081401883360573,-0.0639960644514959
1,0.579278025550224,2.75994429251655,2.216768542945,-0.172835065739841,-0.0625145603239735,-0.00398311130299365,-0.0999578595509292,-1.04391237171295,2.0579520705721,-0.197238120876529,-0.0979625403425799,-0.0631735222508185,5.59169758019724,0.00215909048429908,-0.00027932617742033,0.00324296535708321,-0.0999578595509292,-1.04391237171295,2.0579520705721,-0.197238120876529,-0.0979625403425799,-0.0631735222508185,0.680594328484606,-1.92600018815234,1.18525542899329,0.174142105304651,-0.0216273137119226,0.136732689907976
1.1,0.573692793816163,2.64145935283393,2.28637898272648,-0.199712799180657,-0.0753167747515714,-0.0437616741957874,-0.0236917385113999,-1.18571982297294,2.11796415948644,-0.0281679488301152,-0.049426879104222,0.055680404774037,5.43730910406197,-0.000460139259326285,-0.0014727791235668,-0.00052627010323463,-0.0236917385113999,-1.18571982297294,2.11796415948644,-0.0281679488301152,-0.049426879104222,0.055680404774037,0.706854044556809,-2.19041241120022,0.818253478394961,-0.0372674934306787,-0.112463409202203,-0.0223637921324399
1.2,0.638923033945645,2.55641328915338,2.48223563058101,-0.0964064324283855,-0.0196070943290617,0.0453550390842562,0.0902382585113426,-1.27968262651809,2.04292742000939,-0.101601028390729,-0.0765018949959481,0.00603591516363664,5.37930394573979,-0.00308131713838202,-0.00328152744560848,-0.00229599630856982,0.0902382585113426,-1.27968262651809,2.04292742000939,-0.101601028390729,-0.0765018949959481,0.00603591516363664,0.256689419851463,-1.02500900953652,0.896591933697287,-0.248484251833433,-0.25246701867884,-0.0970610750065072
1.3,0.643227899244318,2.39972104460701,2.54931875324217,-0.16819775583889,-0.0712753317623201,-0.0103642056514966,0.0868595480589442,-1.51333684386408,1.94653313803927,-0.250404996023877,-0.187343454537299,-0.0660484537970799,5.28187518501936,0.00498963614980094,0.00115692398596157,0.00364225967676127,0.0868595480589442,-1.51333684386408,1.94653313803927,-0.250404996023877,-0.187343454537299,-0.0660484537970799,0.72331319016533,-1.77602501562476,0.578232527879859,0.40242552949102,0.0888490365098904,0.153450748087768
1.4,0.671013558473704,2.25410661086404,2.61515567710375,-0.218794257465587,-0.106939291188579,-0.0242212123301075,0.146011577286795,-1.56043127610281,1.9096594419678,0.110113329856238,0.013356417966452,0.0857525911455738,5.20263234085246,-0.0014861933263459,-0.00272502235907583,-0.00290630817084023,0.146011577286795,-1.56043127610281,1.9096594419678,0.110113329856238,0.013356417966452,0.0857525911455738,1.02911878290205,-2.28408569758731,0.289178191966478,-0.120181906053359,-0.208532650081515,-0.122993342926476
1.5,0.680072791308942,2.11519970149714,2.72149990169821,-0.085920241358296,-0.039713364319175,0.0301359664812362,0.179636390500499,-1.74472185589923,1.84763395441054,-0.167292583413643,-0.166623565428762,-0.0728602992011863,5.1613896059651,0.000507668176801581,-0.00165168969833754,0.00203461353476144,0.179636390500499,-1.74472185589923,1.84763395441054,-0.167292583413643,-0.166623565428762,-0.0728602992011863,0.434839019954295,-0.873138956428557,0.46659058480731,0.0410997688997073,-0.127562340722217,0.0855097941255717
1.6,0.70757780413018,1.94266134704277,2.83067166074049,-0.203429864367238,-0.120120395823553,-0.0375723740079547,0.28887309750313,-1.96640583377829,1.78552422281785,-0.0859096182832646,-0.123829215830091,0.0388320746129813,5.01134164070152,0.00500855621807859,0.000650529100859072,-7.88393140322632e-05,0.28887309750313,-1.96640583377829,1.78552422281785,-0.0859096182832646,-0.123829215830091,0.0388320746129813,1.09937769217115,-2.06763496925776,-0.0647224522246166,0.40360300923617,0.0509035702634755,-0.00378703501773047
1.7,0.736317721344822,1.71418799138418,2.84189743474861,-0.199551303254291,-0.129355511125859,-0.0152733909384054,0.263051622722443,-2.03220960038372,1.62669413155382,0.101614448368543,-0.0582865157923229,-0.024979380631527,5.0716289778997,0.00112305902836056,-0.00124532996061968,0.00187632272177227,0.263051622722443,-2.03220960038372,1.62669413155382,0.101614448368543,-0.0582865157923229,-0.024979380631527,1.25160673994685,-2.03004585472728,0.0489084768097836,0.0905235225866478,-0.0956808334134699,0.0786188705850287
1.8,0.7436425278539,1.56390909844682,2.92035904136671,-0.116691159650078,-0.107664690549173,-0.037977579152274,0.374489094797219,-2.2450311434174,1.66967865922331,-0.0509481624409658,-0.134250997894374,0.0216834280426039,4.90214690990846,0.00260473933838725,-0.000546863719257399,0.000736751574827648,0.374489094797219,-2.2450311434174,1.66967865922331,-0.0509481624409658,-0.134250997894374,0.0216834280426039,1.00227861964946,-1.18038583592707,-0.128765360129091,0.209796101582288,-0.0414764809981986,0.0305271513201689
1.9,0.850723870897606,1.39351065952635,3.07938902179122,-0.137807134477331,-0.102281190043786,0.0234773846141199,0.550655396442409,-2.36947460153921,1.50782847016161,0.0568124320931528,-0.0738103105322625,0.0346494543560753,4.83080197852942,0.001893609194387,-0.00136648754630925,-0.00277184115247269,0.550655396442409,-2.36947460153921,1.50782847016161,0.0568124320931528,-0.0738103105322625,0.0346494543560753,1.00801375428378,-1.30392375959527,-0.290006191000304,0.152623104458074,-0.104938186668712,-0.11760464704359
2,0.921328656402969,1.1715666082016,3.05559441142325,-0.111108867393033,-0.101941123280782,0.0126090830449463,0.608454437318358,-2.49919806959708,1.38953707035294,0.019529880676341,-0.126488790324471,-0.0613948546345345,4.86161772894426,0.00308800984816437,-0.000182831285011859,0.00229275077664369,0.608454437318358,-2.49919806959708,1.38953707035294,0.019529880676341,-0.126488790324471,-0.0613948546345345,0.996895823698052,-1.06563132506276,-0.196887269709215,0.249300381423465,-0.0145577949534215,0.0960661874426934
2.1,0.963881523839538,0.949038115582602,3.08209718717564,-0.1381689893991,-0.147896801206496,-0.0460374134020689,0.691167647433742,-2.67288571393972,1.39551323785762,0.0635897108994148,-0.0924884530749671,0.0382773633493575,4.78518578667557,0.00506807494027237,0.000597216284755523,0.000356180579568351,0.691167647433742,-2.67288571393972,1.39551323785762,0.0635897108994148,-0.0924884530749671,0.0382773633493575,1.33469117243992,-1.38101248329454,-0.434317835634396,0.408305615342897,0.0466193022425738,0.0142901731815043
2.2,1.03662662665661,0.712571540493322,3.15915870375467,-0.117414605226498,-0.135001821405539,-0.00410139779530379,0.757079538729309,-2.74351387718852,1.28651708241296,0.168938359141657,-0.0610669003161591,-0.00127101340976848,4.74855335825043,0.00271712036579857,-0.000589982888711122,0.000236420386576163,0.757079538729309,-2.74351387718852,1.28651708241296,0.168938359141657,-0.0610669003161591,-0.00127101340976848,1.26486117788002,-1.1177357256116,-0.464100951059383,0.219154417661559,-0.0454311538751384,0.0092086337305008
2.3,1.13656580882904,0.546969355790217,3.2352868574509,-0.0338468878310748,-0.0976882508060028,0.0136450798326437,0.936643561847879,-2.83949420023418,1.24569054770281,0.110005297367573,-0.0826563211463907,0.0224818860950524,4.61265140383093,0.00170311627907122,-0.00085656461975727,-0.00172263596489462,0.936643561847879,-2.83949420023418,1.24569054770281,0.110005297367573,-0.0826563211463907,0.0224818860950524,0.903431655896603,-0.299889076562843,-0.633939315919068,0.137364968989433,-0.0659120065898222,-0.0734213341789337
2.4,1.23815545598507,0.304495578524423,3.26621539266476,-0.0682307159577949,-0.128233827164693,0.0073715294020965,1.05229199976736,-3.03091492833496,1.12359797951408,0.0621413053508047,-0.11066826916037,-0.0370658313479465,4.65636861320195,0.00668613757197403,0.00168488078155647,0.00136622900568091,1.05229199976736,-3.03091492833496,1.12359797951408,0.0621413053508047,-0.11066826916037,-0.0370658313479465,1.19281464882076,-0.626146045220044,-0.595217908617538,0.539526629444704,0.12922389310926,0.0569132106828498
2.5,1.36079686039591,0.0363935493623919,3.26673467991026,-0.0719654623203437,-0.137300176200432,-0.0118482968086962,1.14017003554083,-3.02087484395543,1.10602300415755,0.296348616864077,0.00213392529045567,0.0399147351941844,4.61607789712565,0.00228431898315232,-0.000395327780765266,-0.00140685991175128,1.14017003554083,-3.02087484395543,1.10602300415755,0.296348616864077,0.00213392529045567,0.0399147351941844,1.25237364059273,-0.678708806741928,-0.68839842849254,0.184027114016158,-0.0302038726267694,-0.0601201330320945
2.6,1.45706084843439,-0.155589382644844,3.3340765124297,0.0360702474532537,-0.0915293429815231,0.0223473656754878,1.24449006162183,-3.07882643293597,1.0154965081976,0.128756493227666,-0.0786323341489013,-0.0233670599595037,4.51837085819268,0.00296021359232139,0.000101007674294166,-1.40821670649643e-05,1.24449006162183,-3.07882643293597,1.0154965081976,0.128756493227666,-0.0786323341489013,-0.0233670599595037,0.81794714940602,0.34425023179564,-0.816938503082131,0.239112390058113,0.00742477214039459,-0.00122640135445296
2.7,1.57900535300114,-0.369926657879011,3.36665068231318,-0.0154526735830446,-0.124265597471078,0.00292935879245164,1.41768465658672,-3.20743892590007,1.02938221911461,0.172343102013561,-0.0562998244409906,0.0116440501034986,4.48700970534495,0.00630484287845264,0.00212958549588876,-0.000796950533437522,1.41768465658672,-3.20743892590007,1.02938221911461,0.172343102013561,-0.0562998244409906,0.0116440501034986,1.11256269158059,-0.135408564259984,-0.90624275030663,0.508504759297193,0.163775457607644,-0.0342312672415369
2.8,1.7311261688547,-0.661442784250985,3.39714111700978,0.00472031604951839,-0.123174713100885,0.00719949551471101,1.45504738178911,-3.14970993857409,0.856289824421685,0.327934859056247,0.0245610730149827,-0.0121881336371434,4.54351570896469,0.00264611338414957,0.000396902592821388,0.000114881150136478,1.45504738178911,-3.14970993857409,0.856289824421685,0.327934859056247,0.0245610730149827,-0.0121881336371434,1.11611413337427,0.0509302101573958,-0.791916204347441,0.213629522109,0.030376776258851,0.00430227808724809
2.9,1.79480805181704,-0.873827149574397,3.3591516329966,0.054120257958028,-0.123699196027437,-0.0353803070521837,1.53085876093103,-3.23237231384039,0.87209131885426,0.163462282273031,-0.0714259001907071,-0.0202654286815456,4.51118340575047,0.00663111737482811,0.0028362011285778,0.00250884847094932,1.53085876093103,-3.23237231384039,0.87209131885426,0.163462282273031,-0.0714259001907071,-0.0202654286815456,1.12815382633909,0.448429018477973,-0.86968215102074,0.534809728426252,0.218148843918244,0.105469289838423
3,1.95661340037299,-1.08573229837953,3.44491115939894,0.0312406661220078,-0.134259307123852,-0.00825555360839828,1.6977662688928,-3.19555092073135,0.889318250987682,0.376961136709774,0.0625272891013042,0.0626733176705916,4.42179221557646,0.00354934482708404,0.00158512846506227,-0.00258579234094637,1.6977662688928,-3.19555092073135,0.889318250987682,0.376961136709774,0.0625272891013042,0.0626733176705916,1.18543217609316,0.26645732254646,-1.05027759332097,0.285956422706181,0.122039177499127,-0.109433121005925
3.1,2.13879715545672,-1.2831508323394,3.51197835197529,0.151566394052109,-0.0616174111599347,0.0430348496043464,1.81133015161752,-3.11926576776896,0.714499521703492,0.27979102320481,0.0392993004066531,-0.0386095848823656,4.33677552397313,0.00144485427572717,-0.000100492506196504,-0.000281895320503894,1.81133015161752,-3.11926576776896,0.714499521703492,0.27979102320481,0.0392993004066531,-0.0386095848823656,0.471151055442171,1.3310933733089,-1.25215594347394,0.117220027557945,-0.00785583496038385,-0.0120398723013794
3.2,2.28478952759864,-1.46792754149045,3.48142039713344,0.124161989901757,-0.0786081544088955,-0.00294142857413629,1.97650699506919,-3.13969846856926,0.838396745495401,0.194389490085168,-0.0403646689780986,0.00320676148862893,4.2815360234376,0.0066653022867853,0.00424678848758593,0.000202484666734333,1.97650699506919,-3.13969846856926,0.838396745495401,0.194389490085168,-0.0403646689780986,0.00320676148862893,0.670374163021322,1.05851112284261,-1.33908767815725,0.537623425115754,0.326673743231415,0.0085256980902552
3.3,2.43040309426054,-1.78691606774514,3.51285244664068,0.0416272654164968,-0.168869568880849,-0.0519070183680987,1.91429982087383,-3.09710184938962,0.581507791221272,0.382435494172572,0.0942377472822681,-0.035121233710828,4.62320556426377,0.00733647328749798,0.00427913107567731,0.00504710008592549,1.91429982087383,-3.09710184938962,0.581507791221272,0.382435494172572,0.0942377472822681,-0.035121233710828,1.57055372982911,0.303714563177896,-0.703011628227939,0.591802113448897,0.329176969766532,0.213027860956658
3.4,2.57194315664251,-1.92764869384072,3.48746896351182,0.180920186800256,-0.0710417289128338,-0.0304021813950685,2.04188490322451,-2.89709253110419,0.709052069822652,0.47394144353565,0.14052854179909,0.110725568227532,4.23931824449959,-0.00091707728994543,0.000196593869260977,-0.00341660306720923,2.04188490322451,-2.89709253110419,0.709052069822652,0.47394144353565,0.14052854179909,0.110725568227532,0.638108618026602,1.50690135885158,-1.49078474861482,-0.0743306949095057,0.015004264922129,-0.143929253413435
3.5,2.72099628700706,-2.02338509870742,3.58742424459225,0.243467230514025,-0.0486846469576815,0.0354428209427512,2.20696018110591,-2.89902266778846,0.56327623933697,0.134550835293466,0.00194447639127064,-0.0759786376035202,4.20868968392296,0.0058738214251229,0.00426637091277985,0.00245215644073249,2.20696018110591,-2.89902266778846,0.56327623933697,0.134550835293466,0.00194447639127064,-0.0759786376035202,0.325400187667316,2.04198270803783,-1.65054555989318,0.474845612366089,0.328931933501678,0.103866060845661
3.6,2.96542096068735,-2.25258923570191,3.57501514428644,0.132366351529239,-0.0932409335338212,-0.0270113353557802,2.30614837293761,-2.70015738727975,0.630535766090833,0.441874593122994,0.169850082269012,0.063508077119271,4.26202734152352,0.00383519234865384,0.00373921261317674,-5.99710257611405e-05,2.30614837293761,-2.70015738727975,0.630535766090833,0.441874593122994,0.169850082269012,0.063508077119271,0.816794453637821,1.1033485712617,-1.39721348241991,0.30941580988777,0.287724967121668,-0.00207823546530633
3.7,3.1469253106607,-2.40154397114301,3.63721512643592,0.260058642972984,-0.0244395752022711,0.0080937496546062,2.29278795101163,-2.54147751657927,0.279039428062917,0.363294211157438,0.157899075943009,-0.00322697178017214,4.24011846367748,9.39854246378507e-05,0.00140277709429573,0.000585717992995306,2.29278795101163,-2.54147751657927,0.279039428062917,0.363294211157438,0.157899075943009,-0.00322697178017214,0.182609062354411,2.182134027522,-1.61735919496337,0.00845368949003424,0.108911104441213,0.0252723118205752
3.8,3.28451010975392,-2.47356733008733,3.51347787501233,0.264025294600513,-0.0150867001686506,-0.00430757874485378,2.4134075503568,-2.35438606471647,0.513445965269756,0.221970890991066,0.0760893047731985,0.0197987320194554,4.05780315687806,0.00394911713561042,0.00465188822090524,0.000365332087843198,2.4134075503568,-2.35438606471647,0.513445965269756,0.221970890991066,0.0760893047731985,0.0197987320194554,0.127312412060025,2.11738854386837,-1.97651270863937,0.319217799686849,0.359018161373705,0.01602323504967
3.9,3.54557205787245,-2.57148725094816,3.69383700140484,0.249965115769942,-0.0106213260526719,0.0384252512837561,2.47300616396235,-2.12543252002532,0.240170703470981,0.417567426449389,0.248594926062245,0.0416204389189676,4.05569151774969,-0.000877966889164045,0.00151033678504689,-0.00262190786755896,2.47300616396235,-2.12543252002532,0.240170703470981,0.417567426449389,0.248594926062245,0.0416204389189676,0.00633105510551778,2.00823972698702,-1.95115352833004,-0.0699113690611488,0.117868547519124,-0.109993236695469
4,3.71540948929563,-2.65453190226042,3.59418613599692,0.339076858571928,0.0572095358144598,0.0288581465553424,2.46222295884867,-1.92580071328678,0.085875686448694,0.207071848697984,0.122731106643268,-0.0396321973556965,4.03679415636907,0.000434781808117876,0.00209552577415158,0.001188010996177,2.46222295884867,-1.92580071328678,0.085875686448694,0.207071848697984,0.122731106643268,-0.0396321973556965,-0.512653779187558,2.67173016943618,-2.20856117251537,0.0360895477768039,0.164144618579755,0.0507220799756811
4.1,3.86801296904447,-2.72370066268427,3.53221901087817,0.258097308322518,0.00473716447090683,-0.00995615313693497,2.41854561871677,-1.6326951780532,0.189174861768493,0.254532480994393,0.137749695759267,0.0347402196921829,3.91601691056872,0.00227648242088234,0.00475510101017295,-0.000196164347732378,2.41854561871677,-1.6326951780532,0.189174861768493,0.254532480994393,0.137749695759267,0.0347402196921829,-0.0159682095229848,1.9993169200317,-2.23746867652565,0.184206563948739,0.367999789703576,-0.00772126002774594
4.2,4.00737607660218,-2.77209240432017,3.60423069952478,0.266545820331966,-0.00196886162891963,-0.00449673127067475,2.35366635507421,-1.50812402250053,-0.344071570023265,0.318183495843615,0.244246718175428,-0.0137434471299757,4.14229053781366,-0.000194378230221914,0.00194980660870619,0.00165547111828139,2.35366635507421,-1.50812402250053,-0.344071570023265,0.318183495843615,0.244246718175428,-0.0137434471299757,0.0255475972509134,2.18207258204039,-1.81799210675912,-0.0149710833633504,0.153331603264759,0.0703509883284797
4.3,4.14180086203561,-2.8037239556035,3.36007013271117,0.329336079226939,0.0706486912405631,-0.00957622630020251,2.38610329042201,-1.21181502357126,-0.223919735855808,0.233627374891535,0.152694026108913,0.0418576589638935,3.98790736555849,-0.00140330548084484,0.00194823290872641,-0.00107824542771042,2.38610329042201,-1.21181502357126,-0.223919735855808,0.233627374891535,0.152694026108913,0.0418576589638935,-0.508028534750202,2.58448042822112,-2.28165432853113,-0.112778925587241,0.153157001345973,-0.0451519202589912
4.4,4.31471160280133,-2.77966850410444,3.40679480126441,0.313714902460084,0.0451484081193028,0.022053049706192,2.35741964244321,-0.933459940559494,-0.32609026869727,0.179261939725988,0.170672980570175,-0.01424773361647,3.88343058091204,-0.000339608809532458,0.00321340036631294,-1.73716993535046e-05,2.35741964244321,-0.933459940559494,-0.32609026869727,0.179261939725988,0.170672980570175,-0.01424773361647,-0.386205237071395,2.38887403147234,-2.42973857619752,-0.0270547109298157,0.252016831615795,-0.000504768798670375
4.5,4.46575502149173,-2.77052411595318,3.37581990019311,0.289784580497003,0.0511166967085238,-0.015417918597196,2.29457900421785,-0.735257314862578,-0.65502368422493,0.212210061791433,0.215453800661381,-0.0030350524270354,4.00458246633527,-0.000927136245770842,0.00190486001604766,0.00115266864459239,2.29457900421785,-0.735257314862578,-0.65502368422493,0.212210061791433,0.215453800661381,-0.0030350524270354,-0.356830956480394,2.29435925926465,-2.14479875171934,-0.0746729616153884,0.151131873308345,0.0487119488599135
4.6,4.5978723330554,-2.74833332484872,3.20700352300208,0.318786093835275,0.0874697424173921,-0.00758895580072023,2.26289372132721,-0.461929309420449,-0.725175002008315,0.188160672390853,0.176807509137878,0.0273783785105489,3.96880182414623,-0.00256974062612499,0.0015544393597023,-0.00081006388326846,2.26289372132721,-0.461929309420449,-0.725175002008315,0.188160672390853,0.176807509137878,0.0273783785105489,-0.639580256328495,2.49268195711977,-2.30113687474928,-0.207397857654031,0.12432937783495,-0.0343173800078003
4.7,4.75243964521924,-2.66622085947513,3.14644380839492,0.335564898813245,0.0945952823160012,0.0209237159995097,2.22093208887328,-0.165754702028751,-0.820842522006092,0.121242931146732,0.184812868798613,-0.00375956881307094,3.89100337786568,-0.00295019426436746,0.0013477382334678,-0.000807149837105635,2.22093208887328,-0.165754702028751,-0.820842522006092,0.121242931146732,0.184812868798613,-0.00375956881307094,-0.747510290021195,2.54755325380335,-2.49489029941472,-0.238362517344183,0.109648774297292,-0.0343881227028598
4.8,4.91887550887779,-2.55492844461881,3.10862090687836,0.337847836619572,0.131816874747853,0.0287674694563006,2.18061324155618,0.123726771871597,-1.01580542730175,0.113190377157427,0.198261560075326,0.0126757916492456,3.87450164475977,-0.00435424999795959,-0.000283792962419312,-0.00200807474439427,2.18061324155618,0.123726771871597,-1.01580542730175,0.113190377157427,0.198261560075326,0.0126757916492456,-1.03439908300892,2.53976206734593,-2.56247082383756,-0.35183883216998,-0.0158210318348116,-0.0852710316715539
4.9,4.96797262825653,-2.53003461992394,2.91246898620076,0.265119850222519,0.0733248634625237,-0.0399678764352168,1.93501105152682,0.307457123378353,-1.22160365768457,-0.0229443072332326,0.071296605667666,-0.080134173438475,3.98320986068576,0.00163577481696786,0.00422901550288207,0.00567157737233243,1.93501105152682,0.307457123378353,-1.22160365768457,-0.0229443072332326,0.071296605667666,-0.080134173438475,-0.479365981269271,2.10823839077775,-2.14257655266715,0.130876776455483,0.331962805004452,0.23852895721641
5,5.05047015627433,-2.4158923192128,2.80165918454029,0.235406814537122,0.0545316204448006,-0.0483793436667775,1.94259843479837,0.540485849437885,-1.40257311058628,0.246527311081117,0.280972454858333,0.115384490708809,4.04869708742276,-0.00531480033138474,-4.56597027309791e-05,-0.00324183633573574,1.94259843479837,0.540485849437885,-1.40257311058628,0.246527311081117,0.280972454858333,0.115384490708809,-0.337335759147795,1.9071700801245,-1.9476403482224,-0.429229651029642,4.6306823041146e-05,-0.137639720227228
5.1,5.21388537031077,-2.25353578146105,2.63685637757433,0.400135963648999,0.188874976789528,0.0662135212619193,1.97909077788187,0.803979367172013,-1.47487317659727,-0.0292175728332661,0.165055882775896,-0.0453116135237022,4.05378934302811,-0.00682107021093397,-0.00259048009132917,-0.00101162571872302,1.97909077788187,0.803979367172013,-1.47487317659727,-0.0292175728332661,0.165055882775896,-0.0453116135237022,-1.60788058565027,3.05857177496541,-2.47564993538848,-0.551972451347863,-0.190855033714817,-0.0439159871881164
5.2,5.34130059203723,-2.11605964997712,2.4931568032807,0.278855704783777,0.149501792313776,-0.0103849753693375,1.70474475413248,1.2585694028321,-1.36656595233311,-0.1152092051403,0.036757545948005,-0.00824666639961615,3.80996281918908,-0.00234289822034946,0.00241117830233939,0.000834051827576575,1.70474475413248,1.2585694028321,-1.36656595233311,-0.1152092051403,0.036757545948005,-0.00824666639961615,-1.0692713761213,2.10864610805148,-2.56613797414529,-0.190652250522089,0.192018663819903,0.0337757582713769
5.3,5.36471028921803,-1.88803945637976,2.57432534971626,0.218490731947428,0.0852992756967721,-0.00140059871897105,1.64453272575721,1.29800642396469,-1.93117818024714,0.0387203740544857,0.22672878220037,0.0190856044838895,4.06209554170455,-0.00440588703540316,-0.000422303780147241,-0.000887455055522879,1.64453272575721,1.29800642396469,-1.93117818024714,0.0387203740544857,0.22672878220037,0.0190856044838895,-0.673225165286996,1.76191574273006,-1.90779134974987,-0.356985149339493,-0.026427275550002,-0.0388681203344564
5.4,5.46921786436451,-1.77994652912672,2.17458309295371,0.29593787487645,0.186542604093799,0.015084681147302,1.60163577503065,1.52191076096562,-1.88069003405309,-0.0515524764893158,0.127910830494325,-0.00872367998091237,4.16545508595993,-0.00665804492321123,-0.00213094512916203,-0.000294841837548769,1.60163577503065,1.52191076096562,-1.88069003405309,-0.0515524764893158,0.127910830494325,-0.00872367998091237,-1.51438669988869,2.40703301767368,-1.97948984627268,-0.539157210176622,-0.157056712998334,-0.0141359027926956
5.5,5.52141540837688,-1.62508326820012,2.0058290391334,0.231228928637198,0.129090620830936,-0.0214137582030523,1.31666580239092,1.83561922659703,-1.832424822892,-0.189913679315876,0.0318797192944614,-0.0186607370065095,4.03928863281964,-0.00245709560481458,0.00188208531430996,0.00187975703031001,1.31666580239092,1.83561922659703,-1.832424822892,-0.189913679315876,0.0318797192944614,-0.0186607370065095,-0.972421626051874,1.8726501453291,-2.01185994923857,-0.200442329723566,0.151219955177392,0.0774934105826024
5.6,5.5248669008001,-1.39363504893518,1.99669136119148,0.162566601601925,0.0922632082012805,-0.0205312551682703,1.27926725726079,1.94127919889006,-2.15458269687448,-0.0323060614922427,0.193779263282463,0.0305550756276887,4.15759268620844,-0.00451794046390727,-0.000971281304079888,-0.000483483309306096,1.27926725726079,1.94127919889006,-2.15458269687448,-0.0323060614922427,0.193779263282463,0.0305550756276887,-0.728207923454048,1.36106203856483,-1.63934940625582,-0.366421480539287,-0.0692391834829861,-0.0221788785568997
5.7,5.61962016790902,-1.20300291419319,1.70869997005401,0.249536970497779,0.192439693886649,0.0193963505483679,1.25861022371562,2.09937537576554,-2.12701393838886,-0.11395896723203,0.101906328252332,0.000522375551892797,4.26373050623312,-0.007391246765329,-0.00280160314751281,-0.000920336378681104,1.25861022371562,2.09937537576554,-2.12701393838886,-0.11395896723203,0.101906328252332,0.000522375551892797,-1.62094457610172,2.07485352203997,-1.69919776702596,-0.598867575642564,-0.20894261003445,-0.0408071608471317
5.8,5.71644207608911,-0.972846774320984,1.57021628041824,0.233647927285503,0.185720252462078,0.0283241836864388,1.02639817585412,2.45161660357257,-2.06626429796955,-0.239528854360411,0.039373602953473,0.00840308627290901,4.2061972993045,-0.00632650804001796,-0.00170448775810241,-0.00175408901826126,1.02639817585412,2.45161660357257,-2.06626429796955,-0.239528854360411,0.039373602953473,0.00840308627290901,-1.56573150317244,1.90412535693056,-1.76691760779654,-0.513166124128592,-0.124705865451056,-0.0760407906954564
5.9,5.70146551174196,-0.706589109962615,1.5444883787153,0.153692843421077,0.148529356234772,0.0187833716583358,0.852075577496504,2.59805173014603,-2.25858387387155,-0.234826772054654,0.0637127950583332,-0.0249788436838923,4.21323925405197,-0.00466017636123639,-0.00142958651437101,0.000262166565593793,0.852075577496504,2.59805173014603,-2.25858387387155,-0.234826772054654,0.0637127950583332,-0.0249788436838923,-1.25629551969149,1.26662416074039,-1.5745325056698,-0.378987889480141,-0.103644319460663,0.00911149562627995
6,5.67237688256454,-0.508303158983751,1.29985367000493,0.116390735378831,0.139675899828531,-0.0182534819662927,0.712253700045909,2.62446346384659,-2.35132553347405,-0.205092266386555,0.0506877761658466,-0.00184761331834653,4.30961731141046,-0.00434735041961691,-0.00128357408600885,0.000924350681071179,0.712253700045909,2.62446346384659,-2.35132553347405,-0.205092266386555,0.0506877761658466,-0.00184761331834653,-1.17340168630365,1.02252338594997,-1.33245437104584,-0.353423674550084,-0.0935900892266666,0.0371097144458841
6.1,5.70140325321795,-0.287665383942453,1.09741008823408,0.142765714585317,0.162881239088958,0.0180820426121145,0.636248631604865,2.75371225972284,-2.29617084798794,-0.189233609819554,0.0717709125706977,0.0359826772069846,4.34909597645515,-0.00703247211643894,-0.00332632506761258,-0.00258842263749365,0.636248631604865,2.75371225972284,-2.29617084798794,-0.189233609819554,0.0717709125706977,0.0359826772069846,-1.41831450490318,1.21214299978074,-1.3142577391415,-0.570002996781544,-0.251067843070451,-0.111047397780046
6.2,5.69185487089207,-0.0779187027352863,0.941407936032367,0.117835632681438,0.152904593230831,0.0114072625817159,0.415875419340597,2.87612944310325,-2.36664797273392,-0.344894904896979,-0.0371247511195843,-0.0616163723757468,4.40836153650361,-0.00345166070914465,-0.000959455689216487,0.00233831218498271,0.415875419340597,2.87612944310325,-2.36664797273392,-0.344894904896979,-0.0371247511195843,-0.0616163723757468,-1.34529506831422,1.02124216849652,-1.15656996569847,-0.281996511933546,-0.0682376275973064,0.0968720661027539
6.3,5.63647823353874,0.143920335538813,0.78497835467788,0.0237079466571504,0.100325385983365,-0.0366921055730655,0.265094575013102,2.94703591305213,-2.37254195397106,-0.221114914835574,0.0484530205647364,0.0395804968244181,4.35614566639513,-0.0035915108639665,-0.00143309237809328,-0.000187932960812501,0.265094575013102,2.94703591305213,-2.37254195397106,-0.221114914835574,0.0484530205647364,0.0395804968244181,-0.864189714433551,0.238393473055505,-1.1439533259459,-0.292084713341362,-0.106828059851549,-0.00950458762803136
6.4,5.60776330823162,0.373903465034449,0.631649623078009,0.0663618690955244,0.140436106089942,0.0121651104235327,0.253512561294693,2.85946703461542,-2.39544240870011,-0.238150307590432,0.022698894894667,-0.00969123734647967,4.4056671010334,-0.00494529168380928,-0.00259035748876422,-0.000141675466623792,0.253512561294693,2.85946703461542,-2.39544240870011,-0.238150307590432,0.022698894894667,-0.00969123734647967,-1.23766809843389,0.5692936412881,-1.10461701884288,-0.402057289109264,-0.195172205134666,-0.00746736480189248
6.5,5.61021863772225,0.547360503237636,0.419203483773757,0.0417512107159327,0.130443881122953,-0.012852708607761,0.0600354718917795,2.96871088903715,-2.44875864672701,-0.314162987770918,-0.031922336027379,-0.0117419419845276,4.51099783717464,-0.00316550832585893,-0.00141939950148889,0.0011464661668498,0.0600354718917795,2.96871088903715,-2.44875864672701,-0.314162987770918,-0.031922336027379,-0.0117419419845276,-1.16757012983302,0.391608186776772,-0.872448379564554,-0.258377035243726,-0.105665693159835,0.0470011538851244
6.6,5.56182296632841,0.783630615275761,0.292303320629252,-0.000245422745053347,0.113427327786213,-0.00607597583659503,-0.0447522243823408,2.99738444129741,-2.36537424893803,-0.249343465753729,0.0145423924889739,0.0241274225106527,4.42836287146913,-0.00397599706443453,-0.00230865975231781,-0.000875708226569177,-0.0447522243823408,2.99738444129741,-2.36537424893803,-0.249343465753729,0.0145423924889739,0.0241274225106527,-1.00243664666248,0.00391717375053671,-1.01018771161549,-0.323475133924294,-0.174737586042966,-0.0381308868126712
6.7,5.53758781136449,1.0126792923626,0.186864194430698,0.0261088752252934,0.147483165442797,0.0238512847331443,-0.0937567442078724,2.94916550677563,-2.43409227397334,-0.286527742739563,-0.018860897736822,-0.00818274803523492,4.5047916275514,-0.00449692482511552,-0.00310296686887642,-0.00071509449221754,-0.0937567442078724,2.94916550677563,-2.43409227397334,-0.286527742739563,-0.018860897736822,-0.00818274803523492,-1.3287317524867,0.203572308075962,-0.901261555307221,-0.365957174956387,-0.235766513823285,-0.0312246367927986
6.8,5.47747418449244,1.16637245933864,-0.0360751157760801,-0.0373739404873564,0.102849671982612,-0.0208368394139668,-0.346326158118529,2.95991354368206,-2.46792613096108,-0.351039892372331,-0.0837656197427333,-0.0321272127953903,4.54474368280627,-0.000840828011385313,-0.000577355011778893,0.00253743861996308,-0.346326158118529,2.95991354368206,-2.46792613096108,-0.351039892372331,-0.0837656197427333,-0.0321272127953903,-0.939425720734569,-0.32012712671676,-0.774858689118775,-0.0709298213321103,-0.0420425356794878,0.106178524305039
6.9,5.40124376697979,1.39288705664461,-0.14486582297793,-0.0578350063595641,0.0973918483587016,-0.0041022460307681,-0.330684144097902,2.86769043064297,-2.36798578693161,-0.185066410732372,0.0345001963650518,0.0640794885797031,4.43936167413383,-0.00440215937383248,-0.00315420488306439,-0.00282868509810139,-0.330684144097902,2.86769043064297,-2.36798578693161,-0.185066410732372,0.0345001963650518,0.0640794885797031,-0.864003505517194,-0.50967474544885,-0.988126168926522,-0.357438346454626,-0.241129390164703,-0.120021639143206
7,5.39597369320918,1.57804091966044,-0.266721688627436,0.0144514127460642,0.161687155775614,0.0533151448671773,-0.376445614877855,2.79971973358644,-2.48154264704575,-0.335791383903686,-0.0701226383787027,-0.0426219750027099,4.6103060661309,-0.00371727713799003,-0.00342024412988528,-0.000385117178884415,-0.376445614877855,2.79971973358644,-2.48154264704575,-0.335791383903686,-0.0701226383787027,-0.0426219750027099,-1.48920393895364,0.0539633964496805,-0.710601796071227,-0.303410895913407,-0.261206039428715,-0.0168299503068878
7.1,5.33251480720873,1.72409698224718,-0.48482010010121,-0.0870285146389821,0.0984536712844952,-0.014057812242157,-0.689539279216876,2.89621218560087,-2.46805830319666,-0.337327289195704,-0.101248295475921,-0.0075752484109049,4.6276887776565,-0.000817077122313007,-0.00113079512845168,0.00113185021839475,-0.689539279216876,2.89621218560087,-2.46805830319666,-0.337327289195704,-0.101248295475921,-0.0075752484109049,-0.917530557474246,-0.791645539184655,-0.634301186951388,-0.0686540936726492,-0.0859564220857914,0.0473695182104398
7.2,5.19510781565394,1.9506484407443,-0.570561360502419,-0.0969950440544266,0.0888241689658144,0.0125564028205514,-0.657655143529802,2.64329702150357,-2.34382898373582,-0.214994454855325,-0.0128223716479347,0.0354630367845132,4.45485577599368,-0.00301139324229337,-0.00277974515628624,-0.00220557392090992,-0.657655143529802,2.64329702150357,-2.34382898373582,-0.214994454855325,-0.0128223716479347,0.0354630367845132,-0.775746602514534,-0.872652556564422,-0.977126477537116,-0.245351311389721,-0.213286821110743,-0.0932655468361254
7.3,5.14189887997716,2.03602920840009,-0.719239851551767,-0.0745126714766283,0.110410420554189,0.0198719099154883,-0.722346195575218,2.51324987052334,-2.56716874028559,-0.327914881199013,-0.101773819944386,-0.051403080758222,4.64223316794482,-0.000534789825124361,-0.00146001113960817,0.00158110845839038,-0.722346195575218,2.51324987052334,-2.56716874028559,-0.327914881199013,-0.101773819944386,-0.051403080758222,-1.00624629995869,-0.711305556368518,-0.607672689391741,-0.0461968291214037,-0.111986619329774,0.0666160400236257
7.4,5.11351166404935,2.20508565083331,-0.927729857847149,-0.101305012093758,0.106720738725125,0.0181731201821833,-0.815810284785803,2.54447618229444,-2.41426128088639,-0.197315547461643,-0.0183148107071424,0.0644344315664834,4.62382762377405,-0.00368429184406574,-0.00362662378321811,-0.00379943687303072,-0.815810284785803,2.54447618229444,-2.41426128088639,-0.197315547461643,-0.0183148107071424,0.0644344315664834,-0.9628370180589,-0.952886377080274,-0.662099694108255,-0.299219067960473,-0.279119437050933,-0.160254924786358
7.5,5.00470789965497,2.35587039123175,-1.01908139753734,-0.0795172555351795,0.118991342338182,0.0500903482393339,-0.941452337725877,2.35350454163464,-2.46014250271671,-0.357244107165924,-0.140299472754567,-0.0742728044656365,4.64310258004987,-0.000299509558165617,-0.00163399571439439,0.00130577819092441,-0.941452337725877,2.35350454163464,-2.46014250271671,-0.357244107165924,-0.140299472754567,-0.0742728044656365,-1.06057773073987,-0.791731161977564,-0.618594072739718,-0.0272335003192497,-0.126251596963324,0.0552444115847135
7.6,4.8400167673739,2.39098168361083,-1.23800312674793,-0.218442195377851,0.00762344137305485,-0.0627154970622031,-1.15771151739967,2.22683298125097,-2.55982835600881,-0.267857070432465,-0.0990459427682218,-0.0075203565824154,4.67925994506837,0.00384261998720385,0.0008204494411782,0.00335660932650705,-1.15771151739967,2.22683298125097,-2.55982835600881,-0.267857070432465,-0.0990459427682218,-0.0075203565824154,-0.19661958003349,-2.01972414419389,-0.674139358758101,0.308113900124351,0.0623773535260087,0.141916101897998
7.7,4.72860095211291,2.53298038203204,-1.38764191411626,-0.163355888369894,0.0535678737568016,0.00079415629953203,-0.914488032121625,1.73620439658547,-2.34991354431635,-0.053134857928429,0.0178820433819962,0.0722959122399085,4.46186514696532,-0.00198704356552523,-0.00209840423589269,-0.0034500944323739,-0.914488032121625,1.73620439658547,-2.34991354431635,-0.053134857928429,0.0178820433819962,0.0722959122399085,-0.47028311747654,-1.45164311924283,-1.01770061914479,-0.161813063755891,-0.162375947215869,-0.145197737964196
7.8,4.70630722326652,2.45344405359684,-1.51944330457888,-0.115559623019005,0.0701759485626608,0.00623549810407455,-1.08277969354094,1.7065942249896,-2.73638271302176,-0.326203030572366,-0.134654156125197,-0.107544937771769,4.80129463069339,0.00336971910055953,0.000499759782667163,0.00482320595307134,-1.08277969354094,1.7065942249896,-2.73638271302176,-0.326203030572366,-0.134654156125197,-0.107544937771769,-0.661910174116047,-1.11135239792524,-0.294933458355214,0.269180045801977,0.0367986340252323,0.203912227659576
7.9,4.63752741134734,2.61249948412304,-1.76848943414667,-0.190319613526682,0.0475470412924931,-0.0240945201924423,-1.11479675710425,1.77125814181555,-2.42442669378179,-0.053514027256886,0.0242287783027412,0.121745694424448,4.69090734978168,-0.00186778760473582,-0.00226948769434454,-0.00461058966434786,-1.11479675710425,1.77125814181555,-2.42442669378179,-0.053514027256886,0.0242287783027412,0.121745694424448,-0.480489384477167,-1.76371955436191,-0.607996395245792,-0.151638743074466,-0.175512219428212,-0.194053026110727
8,4.54001239283464,2.73173862110386,-1.79736382213002,-0.0953459768919599,0.10708714284549,0.0683744563837974,-1.13789380007778,1.39303920074908,-2.51567361904709,-0.282314023606502,-0.114570954271845,-0.0966987472812085,4.70537554656952,0.0012187359708122,-0.00114082813446674,0.00138691602034641,-1.13789380007778,1.39303920074908,-2.51567361904709,-0.282314023606502,-0.114570954271845,-0.0966987472812085,-0.937727070022623,-0.962233379514628,-0.495655632170754,0.0957132039928108,-0.0901935160103769,0.0590343558377179
8.1,4.45991941983577,2.70083823512034,-1.97684096005816,-0.201085743124708,0.045309029190378,-0.0254852804156577,-1.33402539179108,1.53203907679756,-2.63096411320584,-0.148460761718816,-0.0598354220861476,0.0364198594940609,4.86458771574298,0.00126892920982048,-0.000555680891589216,-0.000504320551197208,-1.33402539179108,1.53203907679756,-2.63096411320584,-0.148460761718816,-0.0598354220861476,0.0364198594940609,-0.48116778990279,-1.93160633784159,-0.286648221860107,0.10109249624346,-0.0442799875545836,-0.0207078951946015
8.2,4.30827330348101,2.8518452773571,-2.16106521802908,-0.15139171283256,0.0711888094098651,0.0373363823735666,-1.26841166932308,1.06294078244439,-2.39658719082529,-0.135558299481606,-0.0468973008914025,-0.000635682992264738,4.69343188851921,0.000332281234752733,-0.00135516417235448,-0.0017227578979252,-1.26841166932308,1.06294078244439,-2.39658719082529,-0.135558299481606,-0.0468973008914025,-0.000635682992264738,-0.606734847426362,-1.4393222726612,-0.554005413300212,0.0252039668915155,-0.106489767078035,-0.0720952855134139
8.3,4.26548915491705,2.77734084399487,-2.20317358539251,-0.13819554236279,0.0902176933574767,0.0391561166140464,-1.32559265391928,1.10276079027681,-2.63000558018879,-0.158128990959755,-0.0674782323890459,-0.016032158920523,4.88446958034601,8.01563810883118e-05,-0.00148234710363699,-0.00107202892914804,-1.32559265391928,1.10276079027681,-2.63000558018879,-0.158128990959755,-0.0674782323890459,-0.016032158920523,-0.818396704488063,-1.37882474120628,-0.173546218010362,0.0049358261547955,-0.116430186435945,-0.0446170481381062
8.4,4.11256130487953,2.82126311653598,-2.49365947424105,-0.195866676974765,0.037506189108618,-0.00737888561909998,-1.53501678415545,0.909378450102006,-2.52277105861129,-0.201262544175653,-0.109172490206955,-0.037378918671261,4.91405790831822,0.00396990330278535,0.000681389873134949,0.00212632643293868,-1.53501678415545,0.909378450102006,-2.52277105861129,-0.201262544175653,-0.109172490206955,-0.037378918671261,-0.375585991763108,-1.90999621676667,-0.176583673485935,0.318871099272885,0.0501098420103511,0.090348641355036
8.5,3.94151708690766,2.81696441350319,-2.58819739992734,-0.221201164901557,0.0159271944654442,-0.0159761509726669,-1.44882102212033,0.567548584740845,-2.45837931066076,-0.0264133656190673,-0.018533404933221,0.037389899409019,4.83625557323005,0.00207306107914721,4.18777691400548e-05,-0.00101799845022151,-1.44882102212033,0.567548584740845,-2.45837931066076,-0.0264133656190673,-0.018533404933221,0.037389899409019,-0.18417938758313,-2.11949331565398,-0.374360227494771,0.16636425778447,0.00144663071474605,-0.0423269188534713
8.6,3.89367476807302,2.74984945100138,-2.70638079978622,-0.139233722106093,0.0691732319539606,0.0336387426364967,-1.38887044738525,0.325153584897741,-2.53800507914167,-0.0818141478895884,-0.0354748179481941,-0.0189689529371816,4.91901952369266,0.00110063837341956,-0.000803057857673584,-0.000694771095895795,-1.38887044738525,0.325153584897741,-2.53800507914167,-0.0818141478895884,-0.0354748179481941,-0.0189689529371816,-0.627104419811864,-1.3872411236573,-0.0904673770101194,0.0876173105143198,-0.0643276570317223,-0.028692421701773
8.7,3.83023281367404,2.69331185264836,-2.88560548795973,-0.159412984748585,0.0651603338205604,0.0162106897265102,-1.55924244770685,0.415024722876032,-2.52321873504937,-0.110547524409293,-0.0638903699513755,-0.00786861145305822,5.01879133479266,0.00173638179376683,-0.000462165770819976,-0.000394687801560093,-1.55924244770685,0.415024722876032,-2.52321873504937,-0.110547524409293,-0.0638903699513755,-0.00786861145305822,-0.619389402268607,-1.60360342762054,0.0792809983355536,0.13909209424554,-0.0377961503074915,-0.0160305651860452
8.8,3.61973556850191,2.71172101740816,-3.06619409459669,-0.216903314883795,0.01017857868599,-0.020121478634436,-1.68817820084794,0.123642589556197,-2.4683866136721,-0.111510148432769,-0.0854723236911772,-0.0355065203240709,5.04200474896555,0.00524842852453979,0.0014650151380499,0.00263499893956188,-1.68817820084794,0.123642589556197,-2.4683866136721,-0.111510148432769,-0.0854723236911772,-0.0355065203240709,-0.143877413431869,-2.16768871198277,0.037216484479826,0.422445365485074,0.110518728756728,0.11179192797726
8.9,3.47542380260816,2.62806097426669,-3.17629141171376,-0.212790614977656,0.00542196997873542,-0.0239425587069757,-1.55310722080552,-0.239937803546086,-2.41011419818589,0.0595549505179072,0.00458841190690978,0.0429043316140472,5.0182330746263,0.00254962566314434,0.000559598746427323,-0.00089570526852599,-1.55310722080552,-0.239937803546086,-2.41011419818589,0.0595549505179072,0.00458841190690978,0.0429043316140472,-0.103917991942269,-2.11770427969405,-4.67687246530346e-05,0.205139131887773,0.0415898595858521,-0.0372131018271503
9,3.43709799591302,2.4918982288717,-3.2947038699237,-0.130579726718229,0.0567460096061042,0.0238667661304395,-1.53296237825047,-0.407832120426683,-2.44017884342382,-0.029191336497083,-0.0214096011278059,-0.0240136051417689,5.07694866174227,0.00199702631075892,-0.000135728929561625,6.00879600257406e-06,-1.53296237825047,-0.407832120426683,-2.44017884342382,-0.029191336497083,-0.0214096011278059,-0.0240136051417689,-0.539266678454838,-1.33537800952386,0.241248075590166,0.160248851961971,-0.0128260043750677,0.00082380427791674
9.1,3.28924206921494,2.3526490001229,-3.50407120132649,-0.215298166037323,-0.00550379296218395,-0.0522846083411955,-1.78509857453304,-0.39463553418501,-2.45881688603474,-0.0831751052940992,-0.0873203853877201,-0.0448452103552445,5.24056481709513,0.00702275164804151,0.00235120729273712,0.00461251821388165,-1.78509857453304,-0.39463553418501,-2.45881688603474,-0.0831751052940992,-0.0873203853877201,-0.0448452103552445,-0.0607441979794725,-2.23906031973604,0.428993965995712,0.565745452871941,0.17899430332129,0.195183604531628
9.2,3.15472945799107,2.42080605418072,-3.5867227466908,-0.17182185879583,0.0300560049937662,0.00245588267205132,-1.54730676733454,-0.762005153146849,-2.19865852471387,0.204954536854249,0.0756267964567277,0.119610509811854,5.05076773647079,-0.00117703294426807,-0.00113584881316506,-0.00577060705998259,-1.54730676733454,-0.762005153146849,-2.19865852471387,0.204954536854249,0.0756267964567277,0.119610509811854,-0.294853507832259,-1.72786626929492,0.138294249540929,-0.095169579413761,-0.0882510343407922,-0.242964516500661
9.3,3.09509412436056,2.17832353065802,-3.65890521073209,-0.0868783015767183,0.0625193970841562,0.0381522194920276,-1.70515293980783,-0.838099165975018,-2.44467333290333,-0.167261599102906,-0.0961257613775954,-0.146148177335423,5.26935296982365,0.00512344658957669,0.00123968080313671,0.00511842832085492,-1.70515293980783,-0.838099165975018,-2.44467333290333,-0.167261599102906,-0.0961257613775954,-0.146148177335423,-0.620604497766764,-0.938788385011379,0.668446893880624,0.412041969625973,0.0919632768358941,0.216496397477791
9.4,2.96861282804291,2.15270776416074,-3.86056309839563,-0.203269496786914,0.0213129437367556,-0.0382334304393901,-1.78837173270319,-0.649595925729867,-2.16421986753585,0.141837688465204,0.0401118611072461,0.128807700238433,5.20868872474416,0.000671164550961226,-0.000606902623983473,-0.00428719238370305,-1.78837173270319,-0.649595925729867,-2.16421986753585,0.141837688465204,0.0401118611072461,0.128807700238433,-0.297663179908867,-2.09313471226589,0.390585112273795,0.0540556235931534,-0.0469383300079256,-0.180394249510863
9.5,2.77398209854444,2.14844943693758,-3.92476184063122,-0.108610233884506,0.0508068588740579,0.0451400031348376,-1.79015677011295,-1.22665564889126,-2.2678297957505,-0.0649025656777898,-0.0713564677858013,-0.109203139744441,5.2964922227957,0.00430594262652395,0.00112565375954896,0.00303853917131046,-1.79015677011295,-1.22665564889126,-2.2678297957505,-0.0649025656777898,-0.0713564677858013,-0.109203139744441,-0.482435918034465,-1.17120872151606,0.706978899863612,0.34630751526643,0.0835359165957117,0.128707142926606
9.6,2.69067967234714,1.87057714963573,-4.05911923474353,-0.168209140205576,0.0218663813214534,-0.0317739684985262,-1.84227608233075,-1.04562878345707,-2.10461578374663,0.122110886678166,0.0244480142501144,0.0742293270124927,5.27998307817092,0.00150969091643173,-1.44432024875922e-05,-0.00200678996472567,-1.84227608233075,-1.04562878345707,-2.10461578374663,0.122110886678166,0.0244480142501144,0.0742293270124927,-0.283680535093695,-1.75979433566967,0.598435736134361,0.121561098467677,-0.00179635910577644,-0.0842096157238471
9.7,2.55019495026896,1.89001975844431,-4.13306326095381,-0.0823840595274602,0.0709818057949596,0.0515431834876652,-1.81047595274285,-1.36278407086629,-2.1084879967367,0.0186352092484184,-0.019282923989777,-0.0334630801370774,5.31637216375858,0.00133357076783304,-0.000480673139526716,-0.000853403124488986,-1.81047595274285,-1.36278407086629,-2.1084879967367,0.0186352092484184,-0.019282923989777,-0.0334630801370774,-0.705462866271288,-0.912535693885108,0.759997761875178,0.106879184826913,-0.0392118166900628,-0.0355503441439853
9.8,2.42395437053989,1.65279245239717,-4.27477741183005,-0.142548979628686,0.0311600587009417,-0.0128846014479135,-2.01979079379691,-1.25939573334314,-2.05330541784509,0.00239744036232924,-0.0557069511737975,-0.0266308070471157,5.3932478203633,0.00396734534979803,0.00106021460033609,0.00187358069796574,-2.01979079379691,-1.25939573334314,-2.05330541784509,0.00239744036232924,-0.0557069511737975,-0.0266308070471157,-0.352361117764561,-1.52798875357343,0.861906119295396,0.319505115272858,0.0800436862430946,0.0794968920600713
9.9,2.22281625514763,1.64274077921322,-4.36631775818412,-0.133856279190342,0.0273295585243028,0.000907023057804244,-1.94043135467861,-1.54488023347263,-1.92950575065387,0.1360716494274,0.0191731245206278,0.0465330927540997,5.37172552331404,0.00117858304788479,-8.33835887003232e-05,-0.00224027273622699,-1.94043135467861,-1.54488023347263,-1.92950575065387,0.1360716494274,0.0191731245206278,0.0465330927540997,-0.289650466400411,-1.43405107552829,0.833370730712344,0.0947914155153021,-0.00736047296284693,-0.0941181850675093
10,2.11570484331807,1.40960648547212,-4.44643866602122,-0.0859598481974711,0.0468128540517083,0.0211884411397534,-1.97280612451097,-1.67767461403407,-1.92068506750188,0.0171182299047746,-0.0358991010693897,-0.0558741552391591,5.43013461050634,0.00298702448277042,0.00056583252449713,0.00164634265704457,-1.97280612451097,-1.67767461403407,-1.92068506750188,0.0171182299047746,-0.0358991010693897,-0.0558741552391591,-0.486469828474113,-0.942916259505417,0.998316408507842,0.240352451207655,0.0417026394989645,0.0698623664681318
10.1,1.98961223287811,1.26962770739049,-4.54964497032786,-0.119487592018718,0.0334011400341955,-0.0106621168097382,-2.0486205807801,-1.62222347185135,-1.79070871976942,0.113199449927531,0.00204665176607727,0.0404072015452245,5.42766771147983,0.00160254177673837,-2.05447779328615e-05,-0.00140478759057642,-2.0486205807801,-1.62222347185135,-1.79070871976942,0.113199449927531,0.00204665176607727,0.0404072015452245,-0.373704381627411,-1.29008255822914,0.961923652396914,0.129040123192341,-0.00228196235863415,-0.0589009889916685
10.2,1.78668236912976,1.16006194824558,-4.64254486553912,-0.105440626136239,0.0197346055423034,-0.000991338940492636,-2.10729357676729,-1.88330841340271,-1.79501423991897,0.0377158309353656,-0.0475803565047711,-0.0530151042509878,5.53179922221818,0.00414592940933216,0.00140059495225453,0.00256758475620775,-2.10729357676729,-1.88330841340271,-1.79501423991897,0.0377158309353656,-0.0475803565047711,-0.0530151042509878,-0.218263284376204,-1.16417657886285,1.19001202597776,0.333925612558827,0.106309941609292,0.108692282243755
10.3,1.63773295620684,0.941938396286238,-4.74191022848665,-0.126168148778127,0.0012187788999292,-0.0357380674260384,-2.08008602759045,-1.95670825956237,-1.60591687520533,0.162175494670478,0.0186584291380862,0.042007246532626,5.50580887361886,0.00260730626496314,0.000801384673943827,-0.000279849487738355,-2.08008602759045,-1.95670825956237,-1.60591687520533,0.162175494670478,0.0186584291380862,0.042007246532626,-0.0628148299590804,-1.38427191769048,1.11408215669908,0.2101486968447,0.0612232275844818,-0.0114844625419123
10.4,1.55893519258631,0.836456302892054,-4.73070538814709,-0.0263303816022303,0.0719230436961475,0.0466447396138644,-1.98038544767219,-2.06826007087633,-1.54789427739367,0.144464536798847,0.0338633946824863,0.0150875392002591,5.45139614885538,-0.00093665584763176,-0.00163894580720468,-0.0029134297769662,-1.98038544767219,-2.06826007087633,-1.54789427739367,0.144464536798847,0.0338633946824863,0.0150875392002591,-0.768978537916975,-0.323248897883271,1.06083538856428,-0.0758826156846049,-0.127180906590906,-0.122621332430505
10.5,1.4231541001053,0.60907060501005,-4.84142448980653,-0.0637204524637008,0.0405092317328009,-0.000581941624601954,-2.28371697722366,-1.90882410036704,-1.56850654850251,-0.0337299718079328,-0.100024811227976,-0.0785940288587988,5.58752233814919,0.00449764786852655,0.00143793944181202,0.00375371814095881,-2.28371697722366,-1.90882410036704,-1.56850654850251,-0.0337299718079328,-0.100024811227976,-0.0785940288587988,-0.452064234265744,-0.711334171168535,1.33321610408281,0.362263801715444,0.109344808575045,0.158685931050554
10.6,1.16168623837622,0.591132205739459,-4.92795989580871,-0.11957065121361,-0.00443307944491365,-0.028932150085612,-2.22841790554254,-2.04330588872193,-1.35348054861129,0.215375888986008,0.0390624852919325,0.083522153869557,5.55205469150477,0.00109565275185436,-1.1251567204241e-06,-0.00257090433307179,-2.22841790554254,-2.04330588872193,-1.35348054861129,0.215375888986008,0.0390624852919325,0.083522153869557,0.0105361725731857,-1.3254235596371,1.21471707421405,0.0883529889707139,-0.000107217814270011,-0.108217230360393
10.7,1.00499705326117,0.357009970901184,-4.96109670212581,-0.0425288323047184,0.0220712300896177,0.00675854661965825,-2.17618056835758,-2.36714722620145,-1.3743124092387,0.0548386614995077,-0.0450080829357544,-0.084148085440295,5.64797626049895,0.00382928257348993,0.00130977173092085,0.00367833986571659,-2.17618056835758,-2.36714722620145,-1.3743124092387,0.0548386614995077,-0.0450080829357544,-0.084148085440295,-0.245818393619043,-0.481931234970223,1.47298980584301,0.308380236677871,0.0995415452636924,0.155450069730247
10.8,0.920080214991176,0.0919402943402581,-5.03194299754644,-0.0807005157251625,0.00487493979744993,-0.0428310223445861,-2.2228161035599,-2.18630344206501,-1.13470826343775,0.199074719752356,0.0270169539306238,0.0742566837318087,5.57021219411007,0.0015131642262204,0.000303122407843957,-0.00147071127260954,-2.2228161035599,-2.18630344206501,-1.13470826343775,0.199074719752356,0.0270169539306238,0.0742566837318087,-0.0925354637313144,-0.894921031878456,1.2940357115917,0.122026286818026,0.0233080818824018,-0.0618357656922884
10.9,0.73902531342429,0.0316532589622396,-5.01964329239566,-0.0179762118893353,0.0314542855495167,0.0181634848337907,-2.20678812067545,-2.36965629874123,-1.18016232754517,0.106177553335615,-0.0140122893896205,-0.0433506228060447,5.64330723786403,0.00177443435020313,0.000329362921682758,0.00120245696176809,-2.20678812067545,-2.36965629874123,-1.18016232754517,0.106177553335615,-0.0140122893896205,-0.0433506228060447,-0.351153169023104,-0.209291983951952,1.4692089545789,0.142728790565833,0.0244319684698729,0.050938089906438
11,0.614042126161666,-0.193960478206335,-5.09684830151389,-0.0399581778292127,0.0222273268252186,-0.0210727490137636,-2.28225342229481,-2.2265954640304,-0.985905111794037,0.132579005685678,-0.00679083008285824,0.0236704191568914,5.60580480906835,0.00179869000708634,0.000219906329603595,-0.000114480074555257,-2.28225342229481,-2.2265954640304,-0.985905111794037,0.132579005685678,-0.00679083008285824,0.0236704191568914,-0.25836669383331,-0.442530442621321,1.38989302129115,0.144903261103166,0.0165642905055828,-0.00464883742643585
11.1,0.452613216215771,-0.24056741226871,-5.06022244673094,0.00302751087429387,0.0493200184736785,0.0311126858044346,-2.24588400377974,-2.2768107416657,-0.947476655061708,0.160292530804667,0.011238108246174,0.0152268780274193,5.60315243201327,-0.00065947056911784,-0.0012161009490125,-0.00218633755933543,-2.24588400377974,-2.2768107416657,-0.947476655061708,0.160292530804667,0.011238108246174,0.0152268780274193,-0.553256611412436,0.0167247299400228,1.38262686373676,-0.0534465474069492,-0.0940978453163958,-0.0920897405947316
11.2,0.318861244669081,-0.418838116677835,-5.10097793543291,0.0232231874714977,0.0563761060250158,0.0297999320075313,-2.35838293405495,-2.1809418117829,-0.866295818668307,0.0584428712678718,-0.0485257599343175,-0.0330876771985203,5.6320828615898,0.000777885906166714,-0.000596936396929449,0.000157547862874823,-2.35838293405495,-2.1809418117829,-0.866295818668307,0.0584428712678718,-0.0485257599343175,-0.0330876771985203,-0.642034116191655,0.242544264294803,1.43323769706741,0.0623898365477732,-0.0465237116375233,0.00678876045025891
