time,x,y,z,roll,pitch,yaw,xdot,ydot,zdot,p,q,r,thrust,roll angle,pitch angle,yaw angle,_xdot,_ydot,_zdot,_p,_q,_r,_xddot,_yddot,_zddot,_phiddot,_thetaddtot,_yawddot
0,0.0184195323069548,0.0184195323069548,0.0184195323069548,0.0184195323069548,0.0184195323069548,0.0184195323069548,0.0184195323069548,0.0184195323069548,0.0184195323069548,0.0184195323069548,0.0184195323069548,0.0184195323069548,8.79230600587429,-0.00143605173155601,-0.00136605486815688,-0.00173954859398929,0.0184195323069548,0.0184195323069548,0.0184195323069548,0.0184195323069548,0.0184195323069548,0.0184195323069548,-0.329737557815195,0.317862666330375,7.76864659386643,-0.115810742996815,-0.105081023343982,-0.0733986783573804
0.1,0.0203664202263731,0.0203664202263731,0.0203664202263731,0.0205450578157538,0.0201647564131955,0.0203514044454402,-0.0797833272576873,0.115592190681643,4.28563646423676,-0.0539379489590253,-0.0477229176543314,-0.0304626630208199,5.60554225066894,-0.000954629829273771,-0.000855356951600344,0.000485245872958776,-0.0797833272576873,0.115592190681643,4.28563646423676,-0.0539379489590253,-0.0477229176543314,-0.0304626630208199,-0.230645893195152,0.225669264097799,1.39643973576497,-0.0769892042052423,-0.0657937394656991,0.0204744235140824
0.2,-0.0339240567624913,0.0537144103825039,1.97396305806722,-0.022402275668223,-0.0192810751663079,-0.0114672588833918,-0.0608005049243021,0.0636636612638362,1.16089706007488,-0.0473145587521547,-0.0398264676932521,0.00875844295018488,6.80406459704149,0.000747500367737649,0.000490318718323319,0.000127990019581133,-0.0608005049243021,0.0636636612638362,1.16089706007488,-0.0473145587521547,-0.0398264676932521,0.00875844295018488,0.258784567299424,-0.307815286069273,3.79218587066959,0.0602792424964628,0.0377205426465321,0.00540015927097185
0.3,-0.0218953808637239,0.0426544939645693,0.799017780372109,-0.0172245593236906,-0.0133953394066116,0.00992835056018984,0.0067354249562061,0.00391207956487682,2.55484729523134,0.0291969850083261,0.0176117757848423,0.00586986598916008,6.46367731675623,-0.00161460767636409,-0.00150442059582936,-0.000743839623146764,0.0067354249562061,0.00391207956487682,2.55484729523134,0.0291969850083261,0.0176117757848423,0.00586986598916008,0.175337484853485,-0.220927081676761,3.1142773806346,-0.130212255875178,-0.115722296210562,-0.0313870877862981
0.4,-0.0178783864565254,-0.00257268683997744,1.48985146838399,-0.00472709226570418,-0.00929638505817939,-0.0106599757889222,-0.0223937770492982,-0.0353684725871266,2.35242073536267,-0.0892350168197749,-0.0813422047513877,-0.0306518765695068,6.12903496926987,0.000296457255655609,-6.31687322728568e-05,0.00195799712779807,-0.0223937770492982,-0.0353684725871266,2.35242073536267,-0.0892350168197749,-0.0813422047513877,-0.0306518765695068,0.113328670607615,-0.0591562308830925,2.44740330457057,0.0239089924419874,-0.00486033851492556,0.0826152130151682
0.5,0.0201600829566762,0.0335200422551735,1.59550721404777,-0.0121789413364734,-0.00831294694342311,0.0180272937711138,0.0554642624630544,0.0467460262774872,2.17697036422272,0.0266342642618365,0.0119354636138151,0.0682733577013115,6.18201156318344,-0.00319900179541523,-0.00276315629062706,-0.00406777122648809,0.0554642624630544,0.0467460262774872,2.17697036422272,0.0266342642618365,0.0119354636138151,0.0682733577013115,0.105470311399938,-0.148699910381037,2.55267900656654,-0.258016192984446,-0.212515628457992,-0.17164072226928
0.6,0.0148746941586742,0.0307625920912558,1.62488362927477,0.00579814548845662,-0.00262963562719791,0.0310142992550323,0.0139943063557107,-0.0214599890634182,2.33197391300613,-0.15298258399811,-0.12816239436824,-0.0932819136113468,6.02415093051522,2.53931479543604e-05,-0.000308631314083734,0.00296261813463413,0.0139943063557107,-0.0214599890634182,2.33197391300613,-0.15298258399811,-0.12816239436824,-0.0932819136113468,0.0295006072075901,0.0708062607224473,2.23805768255309,0.00208978872042949,-0.0237814937370217,0.125001426126242
0.7,0.0383900045503565,0.0427633937437409,1.85980194639076,-0.0434619952361315,-0.032062480402678,-0.00663491325932435,0.0684663764090264,0.0445194932052622,2.31295799435054,0.00240893447322581,-0.00511415337335949,0.0886422336364766,5.82189671262141,-0.00264333438942332,-0.00256957007217363,-0.00386610476463176,0.0684663764090264,0.0445194932052622,2.31295799435054,0.00240893447322581,-0.00511415337335949,0.0886422336364766,0.369547647656555,-0.50836627694509,1.8168191520426,-0.21328620715389,-0.197535032942758,-0.163143760303054
0.8,0.0285720575492956,0.0363878730046843,1.96185380514732,-0.00882210738934489,-0.0136584682918818,0.0427122211715402,0.0508378714434089,-0.0457988891276913,2.18438868016654,-0.137450934630878,-0.129025749397925,-0.0876922125609479,5.85094693002317,-0.000908208468016587,-0.0010590708967808,0.00215165408359514,0.0508378714434089,-0.0457988891276913,2.18438868016654,-0.137450934630878,-0.129025749397925,-0.0876922125609479,0.164081012021067,-0.096315734072871,1.89034702958225,-0.0731646017998805,-0.0815494789284693,0.0907699216117106
0.9,0.0392041082631982,0.0150303255450015,2.05326411488934,-0.0629448717278749,-0.0578418039145165,-0.0216641613939456,0.0882950831304839,-0.0423193042651888,2.31059778712099,-0.0646458178412377,-0.0624120213601764,0.0532669105841873,5.61212815798889,-0.00100299589789755,-0.00128491231202282,-0.00148850702153773,0.0882950831304839,-0.0423193042651888,2.31059778712099,-0.0646458178412377,-0.0624120213601764,0.0532669105841873,0.632137677149339,-0.719905521666035,1.37329414098414,-0.0810591378058546,-0.098656242432425,-0.0628454246815017
1,0.00857052324227393,-0.0348371158914397,2.19825937909687,-0.0813052207513368,-0.0791596374111312,-0.0061484045084448,0.0531345098399175,-0.155065089522089,2.11981632590982,-0.105394291214674,-0.116736529664855,-0.0632378998208085,5.61591866267865,0.00103274782027758,6.83680684386959e-05,0.00327987252099877,0.0531345098399175,-0.155065089522089,2.11981632590982,-0.105394291214674,-0.116736529664855,-0.0632378998208085,0.879620562804733,-0.917626787303527,1.34967734515669,0.0832905047841841,0.00525442884157048,0.138338343491419
1.1,0.0149869662377194,-0.0662071243017903,2.26402798881389,-0.0895327221996648,-0.0945448646807911,-0.0430149292201851,0.146833534271537,-0.208024179787806,2.21275898948143,-0.0111352931072803,-0.0491001720349448,0.0559776197687482,5.44121065527489,-0.00124783562277421,-0.00137828333995838,-0.000619725329628872,0.146833534271537,-0.208024179787806,2.21275898948143,-0.0111352931072803,-0.0491001720349448,0.0559776197687482,0.980441555112939,-1.0161321408958,0.980426470235278,-0.100933242988117,-0.105711810741597,-0.0262305134407884
1.2,0.0958923498162765,-0.0555897289856511,2.47197304598261,-0.0154164084131738,-0.0332093713713829,0.0458580511046813,0.275684752043809,-0.21814587201666,2.12287504397423,-0.0735948347153709,-0.0819932407529593,0.003315232285695,5.38466446837366,-0.00365421462252041,-0.00348048319173575,-0.00228102793077887,0.275684752043809,-0.21814587201666,2.12287504397423,-0.0735948347153709,-0.0819932407529593,0.003315232285695,0.364769128175391,-0.14945317745158,0.952111920006361,-0.294727012091341,-0.267698339965559,-0.0963365322054313
1.3,0.116081342040435,-0.111482363720847,2.52873173864952,-0.0810917589075873,-0.0866173018400553,-0.0106481431516555,0.29538400778182,-0.355281128946389,2.05004688560601,-0.216206559664174,-0.205744200320021,-0.0664284943953426,5.28857328178974,0.00317882734873817,0.00175143951468916,0.00364618264607908,0.29538400778182,-0.355281128946389,2.05004688560601,-0.216206559664174,-0.205744200320021,-0.0664284943953426,0.902837212341791,-0.866442163348856,0.692865912360459,0.256340268977195,0.134742175636052,0.153731668270356
1.4,0.169463756802554,-0.158395405589197,2.64341181488288,-0.126764173749273,-0.127208018702083,-0.0210557408000746,0.363924135000107,-0.329601503657632,2.02703674241563,0.087297027857512,0.0255417747379959,0.0851981225909677,5.16172574622588,-0.00289211565275719,-0.00268306819796732,-0.00303731379161227,0.363924135000107,-0.329601503657632,2.02703674241563,0.087297027857512,0.0255417747379959,0.0851981225909677,1.27141155495847,-1.33220564942432,0.347873374017047,-0.233772326891839,-0.205863156496188,-0.128355947091739
1.5,0.19275390090057,-0.186276480183133,2.74081857265659,-0.0183767591321178,-0.0502070199674043,0.0285132852311777,0.408369369433074,-0.427841213704122,1.93679204127868,-0.179643356261797,-0.172966132378591,-0.0766126104240742,5.17899027846622,-0.00103297579999537,-0.00157869390302402,0.00228629534554321,0.408369369433074,-0.427841213704122,1.93679204127868,-0.179643356261797,-0.172966132378591,-0.0766126104240742,0.52495220154885,-0.175440629185689,0.533181666658983,-0.0831841313461877,-0.121547345862497,0.0962938791327199
1.6,0.234772079035778,-0.237378139913886,2.82884035709134,-0.132319904944955,-0.135012629886621,-0.0368515708155384,0.546856002979303,-0.565409153561041,1.92492418186669,-0.10990233929849,-0.12987316310585,0.043717518717547,4.97331678339635,0.0027551970680988,0.00132416100039416,-0.000340042404485256,0.546856002979303,-0.565409153561041,1.92492418186669,-0.10990233929849,-0.12987316310585,0.043717518717547,1.27789101897989,-1.3603055593087,-0.0400418301319458,0.221645586233386,0.102368607173846,-0.0146041631356129
1.7,0.297791108234622,-0.356399330775807,2.91122112573097,-0.134842801759966,-0.147163264848018,-0.0105840235220363,0.522960579389891,-0.573398164173131,1.74872563641895,0.0404588013578655,-0.0380038050481674,-0.0314841891322793,4.99902667711655,-0.000774474986719599,-0.00104925261574029,0.00196984718432883,0.522960579389891,-0.573398164173131,1.74872563641895,0.0404588013578655,-0.0380038050481674,-0.0314841891322793,1.43842615234052,-1.35938390899486,-0.00979201923140138,-0.0626295242741654,-0.080553186809058,0.0827949846094872
1.8,0.315836504457285,-0.380693529639987,2.95452265049654,-0.0701696016954346,-0.112158628163622,-0.0401908844177177,0.648062783092329,-0.707510915540943,1.76659336827602,-0.106051982231698,-0.130893062988982,0.0228509597268496,4.88706948266569,0.000439970648035208,-0.000352363035978011,0.000793517233150551,0.648062783092329,-0.707510915540943,1.76659336827602,-0.106051982231698,-0.130893062988982,0.0228509597268496,1.06284893992093,-0.72857844996512,-0.12117560863215,0.0349741312433232,-0.0266684458773314,0.0331628826713002
1.9,0.444526989146821,-0.42355100360242,3.11287610386063,-0.0924173422709124,-0.114195965076865,0.0257975901594419,0.850093456082347,-0.777340079807967,1.63322648292856,-0.0175168237469155,-0.0706730281591971,0.0351704269789077,4.77541698593288,-0.0006516285018812,-0.000833260841245751,-0.00289553026884134,0.850093456082347,-0.777340079807967,1.63322648292856,-0.0175168237469155,-0.0706730281591971,0.0351704269789077,1.1060285596623,-0.853160936887003,-0.361865432841972,-0.0528474501006704,-0.0638430030549321,-0.122563616886205
2,0.549734352574509,-0.527159505656895,3.13385086709759,-0.0778154729770925,-0.113855922878723,0.0135671770482997,0.906713673636787,-0.863573523163832,1.4841744252514,-0.0806297880063496,-0.108155240076323,-0.0649402004724577,4.78814351255643,0.000988254076021042,0.000223190524569357,0.00241850233535031,0.906713673636787,-0.863573523163832,1.4841744252514,-0.0806297880063496,-0.108155240076323,-0.0649402004724577,1.09467028054974,-0.729647508513504,-0.324506619181797,0.0798153178537106,0.017071570175924,0.101630436414951
2.1,0.610154443966993,-0.62557218969843,3.15029733393514,-0.120896405692873,-0.151041066003163,-0.0449535003893669,0.996590032934894,-0.981721054087332,1.45718121373834,-0.0267253441569209,-0.0756455528865599,0.0402215188927518,4.69807680979043,0.00256043286496295,0.000941149027325813,0.000211637234468294,0.996590032934894,-0.981721054087332,1.45718121373834,-0.0267253441569209,-0.0756455528865599,0.0402215188927518,1.35115368292803,-1.19512202200641,-0.588624293502205,0.20575875936611,0.0729930610390353,0.00845087348012861
2.2,0.706164288393595,-0.731084946351236,3.22704311559262,-0.101911394479179,-0.13983014749787,-0.000820859120434288,1.07587642125561,-1.01113334613789,1.34896926837481,0.0518464436024629,-0.0469983958650069,-0.00529536438091096,4.63801237645675,9.21901436166911e-05,-1.90950910707661e-05,0.000278251762112963,1.07587642125561,-1.01113334613789,1.34896926837481,0.0518464436024629,-0.0469983958650069,-0.00529536438091096,1.28536225765719,-0.944752526745629,-0.672170840595561,0.0072260845809791,-0.00130231587423243,0.0112270179407589
2.3,0.830824596732218,-0.762649638911068,3.30064227575152,-0.0359162935478211,-0.101272303746681,0.0122599951962072,1.25102732847669,-1.08675832614808,1.25724129800571,-0.0227814590847684,-0.0574832548452091,0.0224777600458585,4.55343731843288,-0.000517329590632908,-0.00059944999900065,-0.00164979390166271,1.25102732847669,-1.08675832614808,1.25724129800571,-0.0227814590847684,-0.0574832548452091,0.0224777600458585,0.924044670668662,-0.315710092136563,-0.755628998327886,-0.0420101130123054,-0.0458958347524734,-0.0701185898577646
2.4,0.952664920691026,-0.88327497507254,3.32046822672717,-0.0847360299879758,-0.12623278899016,0.00801558646648357,1.3720513186011,-1.25672279954398,1.11239777004375,-0.0632529589109284,-0.0970511217702795,-0.0362828725455138,4.54355931563236,0.00424055951529158,0.00221043273805501,0.00134270361218168,1.3720513186011,-1.25672279954398,1.11239777004375,-0.0632529589109284,-0.0970511217702795,-0.0362828725455138,1.14607151793539,-0.759923296949741,-0.827530313037032,0.342011080129276,0.170010973779372,0.0561196005371969
2.5,1.10212300982848,-1.02534500790643,3.33411080399791,-0.0928015765366578,-0.138374603034274,-0.00838767654907898,1.46004617148664,-1.23064416257404,1.05446922731193,0.152548257896834,0.0298649275683113,0.0386000981948584,4.48166816352083,-0.000270606786040741,9.69424051003736e-06,-0.00143159577539715,1.46004617148664,-1.23064416257404,1.05446922731193,0.152548257896834,0.0298649275683113,0.0386000981948584,1.22401364847854,-0.840914401184012,-0.970540080418708,-0.0223549162980074,0.0011329291336649,-0.0609987314661096
2.6,1.21939963572517,-1.08869257646756,3.37530268575564,-0.000886763384080641,-0.0867053055968275,0.0216961825901582,1.55514069018242,-1.29680599735791,0.932809131027883,-0.0305645886825009,-0.0563803626726921,-0.0246868685311502,4.43514610597714,0.000960776047490455,0.000424819169305239,0.00014006757151483,1.55514069018242,-1.29680599735791,0.932809131027883,-0.0305645886825009,-0.0563803626726921,-0.0246868685311502,0.768127659453582,0.00880035239162793,-0.973032964979627,0.0775490375259432,0.0326345370664905,0.00539443973151635
2.7,1.35776774860239,-1.18571014461879,3.39033413228755,-0.068180031352549,-0.118593597597045,0.0031711272344716,1.73015778147119,-1.44630001806137,0.872353837248635,0.0277769042723916,-0.0339046625131474,0.0143490870662819,4.38093316287869,0.00407876969663358,0.00249696127099134,-0.000818709365992424,1.73015778147119,-1.44630001806137,0.872353837248635,0.0277769042723916,-0.0339046625131474,0.0143490870662819,1.03614639343394,-0.593638841482458,-1.12989083664851,0.328612881191759,0.192282162050899,-0.0350908363607351
2.8,1.53565351155793,-1.36377305857762,3.40509051918317,-0.0508848287519239,-0.117152799246827,0.0113213330361887,1.76217509702102,-1.39758426202905,0.713689777242241,0.165246749993824,0.0494063515967108,-0.0132089368567545,4.39773022950633,0.000602874934168095,0.000732217516224704,9.27649460365962e-05,1.76217509702102,-1.39758426202905,0.713689777242241,0.165246749993824,0.0494063515967108,-0.0132089368567545,1.03172556131707,-0.435710047809306,-1.08613481268663,0.0485233790745583,0.0563840092520906,0.00337095820487154
2.9,1.61720215277111,-1.45768895574585,3.35393879805126,-0.0183225646496924,-0.114639529430092,-0.034285659691862,1.82227729241684,-1.53029234802824,0.647407980006069,-0.000148626721235071,-0.0445390746436687,-0.0213100773892447,4.39382840692791,0.00509483990056705,0.00302989144687058,0.00264446921040323,1.82227729241684,-1.53029234802824,0.647407980006069,-0.000148626721235071,-0.0445390746436687,-0.0213100773892447,0.998929273265269,-0.19536045318544,-1.08148999665742,0.41057457314435,0.233232952270435,0.111128040928249
3,1.79318093386214,-1.5722692356239,3.39728242503822,-0.0516567643312471,-0.122853668649964,-0.00519248267964392,1.98262468012947,-1.54086048695859,0.622665644933505,0.227834015390131,0.0841822261600249,0.065159404767951,4.31035440662985,0.00173414440713385,0.00167234021436628,-0.00280953139032484,1.98262468012947,-1.54086048695859,0.622665644933505,0.227834015390131,0.0841822261600249,0.065159404767951,1.05268891180122,-0.450592019420189,-1.26567829900938,0.139201911243465,0.128988836934799,-0.119009767195269
3.1,1.99464351562789,-1.6702276043101,3.43778033458006,0.0658068041318571,-0.0509922759320923,0.0460238091954768,2.08737385239953,-1.51024293426845,0.463696567088698,0.111058627586197,0.0538777142597536,-0.0440365017774276,4.25379738894592,8.53566373226941e-05,0.000299481112284965,-9.00970347050551e-05,2.08737385239953,-1.51024293426845,0.463696567088698,0.111058627586197,0.0538777142597536,-0.0440365017774276,0.406497763370546,0.578768464482907,-1.33185423941605,0.00726132228365526,0.0228740087139797,-0.00414240732387537
3.2,2.15602006924121,-1.75887442232425,3.39419153813427,0.0204192541409577,-0.068997336945601,-0.00571765527654899,2.24270210993906,-1.65009804753331,0.468118136307325,0.0393021001899834,-0.00883505567909345,0.00691949179374839,4.24403452691742,0.00586575720909799,0.0042137816809694,1.74715416269665e-05,2.24270210993906,-1.65009804753331,0.468118136307325,0.0393021001899834,-0.00883505567909345,0.00691949179374839,0.58604894505027,0.169959965783025,-1.3438924819782,0.472758007496832,0.324246078349964,0.000455038955169528
3.3,2.31544998792776,-2.01794624508604,3.36617933822201,-0.0665633576256663,-0.151633128632203,-0.0448419035697786,2.17525531583709,-1.65803960107412,0.277032997647261,0.247060678483622,0.109505479622759,-0.0398803449254135,4.48903183522543,0.0065847604878807,0.00437726683899779,0.00429155986703769,2.17525531583709,-1.65803960107412,0.277032997647261,0.247060678483622,0.109505479622759,-0.0398803449254135,1.32502826496262,-0.657226400091222,-0.954607246048157,0.530843829016065,0.336778616794491,0.180812059102773
3.4,2.47349247326733,-2.07220501085965,3.34260992896118,0.0731438912501649,-0.0597794366610398,-0.027744149271738,2.28057832355824,-1.53660257304292,0.407632497793262,0.336712206834156,0.162735484600154,0.0924906778745441,4.14279717158964,-0.00176336664754598,0.000230177490761757,-0.00298155148781858,2.28057832355824,-1.53660257304292,0.407632497793262,0.336712206834156,0.162735484600154,0.0924906778745441,0.510296577644539,0.591572101897886,-1.56132050138781,-0.142937371323149,0.0178705576605119,-0.125952175034588
3.5,2.63355857968418,-2.10413367541667,3.41699436093097,0.126469168376037,-0.0305966246601331,0.0286135422212524,2.42948275452849,-1.66914654917858,0.134920631825975,-0.0104881610775898,0.0132652383414572,-0.0681967593620384,4.24035107790911,0.00599015476483186,0.00422327103092928,0.00200672294302579,2.42948275452849,-1.66914654917858,0.134920631825975,-0.0104881610775898,0.0132652383414572,-0.0681967593620384,0.226659528897549,1.07661584868735,-1.4009671883138,0.483581706324944,0.324858160285084,0.0846625265556093
3.6,2.88594318413134,-2.29388872828094,3.33352489605257,0.00311681611177942,-0.0796882295865491,-0.0221109837233225,2.5285223490747,-1.59146212517844,0.274931512382331,0.337340794683486,0.186728208495126,0.0516597742815344,4.27650059428481,0.00398976614554038,0.00393957624155342,-0.000886536020512143,2.5285223490747,-1.59146212517844,0.274931512382331,0.337340794683486,0.186728208495126,0.0516597742815344,0.681272051267616,0.0115985560268698,-1.28418254961244,0.321406728075648,0.303053043451898,-0.0374196551834079
3.7,3.08195254067973,-2.40783403668079,3.39957527875253,0.141368319758807,-0.00918532667480915,0.00684866266416752,2.50398767791621,-1.47371453143745,0.0422294667660146,0.259690806452411,0.180419858107204,-0.0247172453565407,4.1863229339372,0.000287199966879869,0.00124016800571398,0.00105960788758279,2.50398767791621,-1.47371453143745,0.0422294667660146,0.259690806452411,0.180419858107204,-0.0247172453565407,0.0680562076490406,1.18018211968299,-1.5212282365953,0.0234174884731502,0.0954595226268142,0.0448050377798473
3.8,3.23128763937342,-2.41501687765196,3.30161568153525,0.13897814240551,0.00599555105816643,-0.0129749601019405,2.61225206287068,-1.48243176368055,0.108706830238537,0.12176798359907,0.0844233882959147,0.0266903268846238,4.15196590617363,0.00480966318953099,0.00445122262778094,-0.00031452339198622,2.61225206287068,-1.48243176368055,0.108706830238537,0.12176798359907,0.0844233882959147,0.0266903268846238,-0.0343767903634284,1.15089639119423,-1.58628190675693,0.387866146639204,0.342396525631976,-0.013118276931718
3.9,3.50017610712927,-2.5289063259258,3.38844796675691,0.119779542971496,0.0046718482778752,0.0415796464147777,2.67005607762466,-1.31406404668479,0.0206135634712861,0.346823863173901,0.254547571193948,0.0226975622138591,4.11549385182234,0.000110715110532978,0.00185372336846859,-0.00265267180469405,2.67005607762466,-1.31406404668479,0.0206135634712861,0.346823863173901,0.254547571193948,0.0226975622138591,-0.0790290683649327,0.9811110815943,-1.63807647922007,0.00914766129419655,0.142746214692968,-0.111755783721864
4,3.68505607807908,-2.57465840339907,3.34357739491958,0.217195825336012,0.0723406024493299,0.0223300722856162,2.64274485521556,-1.21797255839907,-0.134696983119774,0.1457752060025,0.149773814449402,-0.0448334534839501,4.09354568699418,0.00146024341241715,0.00169754929216257,0.00128375816351121,2.64274485521556,-1.21797255839907,-0.134696983119774,0.1457752060025,0.149773814449402,-0.0448334534839501,-0.617088623504501,1.7509122063558,-1.83616947493802,0.118068486025204,0.131013242675162,0.054358927380836
4.1,3.84095481594345,-2.62995027697451,3.26101845685127,0.135348505669203,0.0285877879448818,-0.0139852809262679,2.6039725960887,-1.09250793366267,-0.0355198190977433,0.199293529408858,0.137288715088861,0.0322763844353199,4.04942611580069,0.00406263421668215,0.00465773254498898,-0.000415045326318985,2.6039725960887,-1.09250793366267,-0.0355198190977433,0.199293529408858,0.137288715088861,0.0322763844353199,-0.214074169359073,1.0959247523305,-1.78849586071557,0.32764942651273,0.358322735343657,-0.0173379538857844
4.2,3.99500715047466,-2.70876298316374,3.31292800169472,0.143571606708587,0.0109420894917438,-0.0053723358845587,2.51673203133861,-0.986673470760418,-0.38535104528434,0.299910435604033,0.253538659273746,-0.0232820455260812,4.18963099203558,0.00142053655112938,0.0021364175013324,0.00179756234865869,2.51673203133861,-0.986673470760418,-0.38535104528434,0.299910435604033,0.253538659273746,-0.0232820455260812,-0.084299339046531,1.19936560329613,-1.51744628182809,0.114697972968223,0.164767196321657,0.0760028165658143
4.3,4.13718860032629,-2.70289158654183,3.1398672295271,0.220028084674769,0.0877635598346157,-0.0131148293020372,2.52408929927408,-0.827952779659819,-0.331284626683819,0.215096248938974,0.174245323812507,0.0402210290137194,4.0666216864041,0.000234579158262124,0.00140217661153104,-0.00103206492144966,2.52408929927408,-0.827952779659819,-0.331284626683819,0.215096248938974,0.174245323812507,0.0402210290137194,-0.672359869569677,1.78410861114319,-1.90338653842459,0.0189387288389385,0.108041418538716,-0.0434641443646212
4.4,4.30657344561804,-2.70241509784284,3.14734324454864,0.203016177028183,0.0693767017098398,0.0195903657818243,2.49364687627427,-0.6586185771452,-0.361550719602087,0.167940938350123,0.160599045519847,-0.0178939821779046,3.98806615003358,0.00199509102401443,0.00324630126477568,0.000181481824153706,2.49364687627427,-0.6586185771452,-0.361550719602087,0.167940938350123,0.160599045519847,-0.0178939821779046,-0.572957682331198,1.59726626187578,-2.01646765252715,0.160904110309106,0.250581227988168,0.00766763789046449
4.5,4.46780709250842,-2.72045066857732,3.14206175280659,0.181596086346367,0.0608344999567231,-0.0180252904270959,2.41061529675028,-0.520230492641444,-0.614630064433011,0.238610199213122,0.228563525256791,-0.0029732084784913,4.08162610560662,0.00105549366212422,0.00184649429447584,0.00126001339717764,2.41061529675028,-0.520230492641444,-0.614630064433011,0.238610199213122,0.228563525256791,-0.0029732084784913,-0.461488087900443,1.48283934022397,-1.79583111609893,0.0850786093888782,0.142660624943943,0.0530925359971941
4.6,4.60212499776166,-2.70107394321443,3.00356590797432,0.226994065141038,0.106909646172999,-0.0083840807545258,2.36183106941471,-0.340635314496728,-0.670492324224917,0.208078949997741,0.186037282811144,0.0256409654851109,4.03395347438101,-0.000449962035952183,0.00110799953474162,-0.000657022424058464,2.36183106941471,-0.340635314496728,-0.670492324224917,0.208078949997741,0.186037282811144,0.0256409654851109,-0.823558521871422,1.82264896105538,-1.99393803378586,-0.0363883184685508,0.0858661781342359,-0.0279363500128926
4.7,4.75442932337337,-2.64328419017837,2.94863857740604,0.242594067679097,0.113730725455951,0.0187825524270946,2.30693060886535,-0.126504825468,-0.715211431382281,0.155375595002021,0.176631916944426,-0.00420798366328801,3.94507430333468,-0.000441368969731499,0.00142442860220064,-0.000614108287407082,2.30693060886535,-0.126504825468,-0.715211431382281,0.155375595002021,0.176631916944426,-0.00420798366328801,-0.904644235666311,1.87872450503733,-2.20037070046284,-0.0358689930558045,0.11082265958447,-0.0262629651861672
4.8,4.92430077503434,-2.56297146581538,2.94240298958622,0.252573293653502,0.142892057388655,0.0276520285832384,2.25341717237911,0.0915050986716115,-0.893277061948198,0.17311467440686,0.210553303655857,0.013498442942542,3.91998094051335,-0.00215671312875093,-0.000398890661745332,-0.00193543457235531,2.25341717237911,0.0915050986716115,-0.893277061948198,0.17311467440686,0.210553303655857,0.013498442942542,-1.13479255649296,1.92854046334445,-2.29614747077619,-0.174264272748253,-0.0294523363220362,-0.082155860966821
4.9,4.97304594349554,-2.56681004366217,2.75581284035186,0.193731072332216,0.0932492455557816,-0.0410048033149384,2.00070442855415,0.19732043359927,-1.07487114150387,0.033301631945806,0.0748909854361398,-0.0817642671297024,4.03722983635112,0.00400588893065443,0.00352858594218379,0.00592153064672421,2.00070442855415,0.19732043359927,-1.07487114150387,0.033301631945806,0.0748909854361398,-0.0817642671297024,-0.673437024640337,1.58344451953812,-1.92101495542785,0.322513366128395,0.273073807727202,0.249178627920483
5,5.05563150202184,-2.48927689198405,2.66291289807838,0.165583513890122,0.0692970494992615,-0.0542420709368342,1.97444423097948,0.400479193691313,-1.1887524035993,0.320169617301179,0.258963978309845,0.11805589436092,4.04986109155362,-0.00294250852577472,0.000201146785376395,-0.00297187183819399,1.97444423097948,0.400479193691313,-1.1887524035993,0.320169617301179,0.258963978309845,0.11805589436092,-0.479972301363301,1.36308680553872,-1.84023711808126,-0.237167574281672,0.01509912505098,-0.126132701092765
5.1,5.21268043174612,-2.34309935303543,2.54979659215377,0.342102674198546,0.195276776350876,0.0688541464174427,1.99529532770674,0.603691665195985,-1.2970058178352,0.0523278113603759,0.182907523824868,-0.0416485901255783,4.0046914651397,-0.00454698549946787,-0.00294666660395662,-0.00130596777692415,1.99529532770674,0.603691665195985,-1.2970058178352,0.0523278113603759,0.182907523824868,-0.0416485901255783,-1.64545441825388,2.57980296432009,-2.40815486877866,-0.367826183082999,-0.223812204326798,-0.0561326512311447
5.2,5.33446363002834,-2.23976949443828,2.40147608053758,0.228695081810175,0.170416460935135,-0.00976308813251969,1.74661243685427,0.949716821004533,-1.21578712835008,-0.0272722707494752,0.0266316087815649,-0.0171751151576946,3.81488744178854,0.000306021013023292,0.00200162184260614,0.00124160679014775,1.74661243685427,0.949716821004533,-1.21578712835008,-0.0272722707494752,0.0266316087815649,-0.0171751151576946,-1.24331697850345,1.74194309525368,-2.4865266493332,0.0239065960993239,0.155699719743003,0.0511930806413022
5.3,5.36587144959428,-2.08284720241475,2.47396859607291,0.176343403676583,0.0949439082693532,-0.0101713663702869,1.64665233806421,1.01194251301026,-1.69976623424931,0.15312105386678,0.213062942675522,0.0259000214194381,4.01432713103943,-0.00256952002339468,-0.000298707260293525,-0.000782670011651056,1.64665233806421,1.01194251301026,-1.69976623424931,0.15312105386678,0.213062942675522,0.0259000214194381,-0.734958735834656,1.41602241824333,-1.94145468160413,-0.207785975410131,-0.0217426860187415,-0.0342310297227716
5.4,5.45907326815524,-1.97869587838431,2.13563346135036,0.271460935820126,0.193924983265573,0.0175367087275942,1.59514248795804,1.19006241786947,-1.71547992553682,0.0359662909365006,0.136120967316616,-0.00818466904913142,4.0862013161017,-0.00449992162890631,-0.00264554867412946,-0.000453773542581622,1.59514248795804,1.19006241786947,-1.71547992553682,0.0359662909365006,0.136120967316616,-0.00818466904913142,-1.55543870000618,2.16439809801114,-2.08444784454251,-0.363924241630585,-0.201452585317083,-0.0205925782941306
5.5,5.50558319110717,-1.86356029254953,1.94969377978956,0.201092629544878,0.145428465898293,-0.0232319125223224,1.3211765368899,1.46105506014668,-1.67948287793848,-0.0795071587885773,0.0117787237838555,-0.0239439124736981,3.9728122237807,-0.000149005193290951,0.00158889333004097,0.00220958462754929,1.3211765368899,1.46105506014668,-1.67948287793848,-0.0795071587885773,0.0117787237838555,-0.0239439124736981,-1.0910766277212,1.61284025695235,-2.10667305901667,-0.0129967556198337,0.124053714990438,0.091652757334556
5.6,5.51066840453332,-1.67688580074347,1.94938409473161,0.148215560412163,0.0963338405321183,-0.0276808457261572,1.25655904803367,1.5582030572228,-1.99495749808118,0.093750036317724,0.180814654217528,0.0363288827231013,4.08267562695636,-0.0030568025490199,-0.00100371511752525,-0.00043374598775857,1.25655904803367,1.5582030572228,-1.99495749808118,0.093750036317724,0.180814654217528,0.0363288827231013,-0.743101720762337,1.22684299194577,-1.77161600783543,-0.247121540746629,-0.0761117350867386,-0.0198531741764289
5.7,5.59754774114277,-1.51175641852751,1.67836472428338,0.249215848009218,0.198552543050506,0.0205399758955081,1.23664258088349,1.71409330619962,-2.00765559107388,-0.0170291554151885,0.10015954020321,0.000368833194223515,4.15666935415722,-0.00560706082045456,-0.00317362382236639,-0.000972502322604863,1.23664258088349,1.71409330619962,-2.00765559107388,-0.0170291554151885,0.10015954020321,0.000368833194223515,-1.63092801286078,2.01736468776516,-1.91177779417523,-0.453482033378212,-0.241918464050586,-0.0427856285642557
5.8,5.69052736495451,-1.31265841257118,1.53285005266719,0.227317272742312,0.195937113401324,0.0269441132526019,1.01912228955421,2.05094881935577,-1.9677786910675,-0.121630564126446,0.0217782499279824,0.00607251904595565,4.06324597113307,-0.0044987662598172,-0.00168928822493022,-0.0015463707843094,1.01912228955421,2.05094881935577,-1.9677786910675,-0.121630564126446,0.0217782499279824,0.00607251904595565,-1.59019258883067,1.78923210207296,-2.04406108039369,-0.364174452326675,-0.127738912188517,-0.0670769106668995
5.9,5.67784491316014,-1.07980582958649,1.51001803167158,0.16280227060912,0.151663138825835,0.0164988411269665,0.84269149709016,2.18048270506747,-2.20810774697148,-0.107460520817812,0.0605251792674421,-0.021357826575161,4.10390988993522,-0.00350798462067344,-0.00160821296574495,0.000236624322575718,0.84269149709016,2.18048270506747,-2.20810774697148,-0.107460520817812,0.0605251792674421,-0.021357826575161,-1.24544149271373,1.3099876002425,-1.80368289946806,-0.284399312493585,-0.121408400238705,0.00820236571135506
6,5.64827692868976,-0.914623612637691,1.24966401191406,0.137063215744751,0.148204096616174,-0.0195439984854472,0.700167146760879,2.24065915569197,-2.31484412284799,-0.100430517340181,0.0380942031809279,-0.00321918853388407,4.2275683529898,-0.00328772037980504,-0.00156447212345589,0.00108322631154272,0.700167146760879,2.24065915569197,-2.31484412284799,-0.100430517340181,0.0380942031809279,-0.00321918853388407,-1.21398143442137,1.17921283593177,-1.52597664891887,-0.26627118709777,-0.118707445457011,0.0439338571854006
6.1,5.6749645395826,-0.712236180552633,1.04743381722691,0.16060353927347,0.167120329118923,0.0145766621453322,0.610341269825616,2.40664058674295,-2.25885463635277,-0.0837453001747706,0.0553327440720218,0.0388633438210757,4.22757380752554,-0.00602372677884698,-0.00327494913719265,-0.0025047764236154,0.610341269825616,2.40664058674295,-2.25885463635277,-0.0837453001747706,0.0553327440720218,0.0388633438210757,-1.4079198481568,1.33171597654638,-1.57994438346367,-0.486873981811341,-0.250420328009574,-0.107432096081901
6.2,5.65962035496131,-0.51542905603074,0.901208348009641,0.142376253332714,0.154221771951659,0.0110477404359752,0.402735769794407,2.53166904673574,-2.37887425720205,-0.237489143714989,-0.0403734886968595,-0.0601500386542873,4.30536148083286,-0.00276604362668335,-0.00114416952851068,0.00233488993375736,0.402735769794407,2.53166904673574,-2.37887425720205,-0.237489143714989,-0.0403734886968595,-0.0601500386542873,-1.32273769553779,1.20728546600319,-1.38756705488621,-0.224956472851654,-0.0855468859214437,0.0967790627037158
6.3,5.60669659781829,-0.31470005028629,0.721325017073053,0.0553901389667693,0.107405039293021,-0.0397791346963181,0.252796548797763,2.63668771666864,-2.3939736500714,-0.123603368182662,0.0328064940984694,0.0392829618709645,4.28783640611847,-0.00311733347970584,-0.00160254070659672,2.15932242707191e-05,0.252796548797763,2.63668771666864,-2.3939736500714,-0.123603368182662,0.0328064940984694,0.0392829618709645,-0.89828384684125,0.510892544138063,-1.29681968231683,-0.252079223677981,-0.122438739829102,-0.000661899375995387
6.4,5.57735570789149,-0.0955116682199399,0.563632828863707,0.100000431579984,0.141285626533412,0.00823786497080642,0.221862959447862,2.60471438705591,-2.41914112656155,-0.147157675804839,0.00988838758956739,-0.00511670128608083,4.34039570550325,-0.00472238159327974,-0.00262511906047935,-0.000129510437840129,0.221862959447862,2.60471438705591,-2.41914112656155,-0.147157675804839,0.00988838758956739,-0.00511670128608083,-1.22338568227748,0.856587886326072,-1.25864196827181,-0.382306283190993,-0.200240307021323,-0.0069885942272102
6.5,5.57315940603662,0.0755932540728135,0.351423208164694,0.0783156715491089,0.131579234969733,-0.0138875820117597,0.0412374421219912,2.74145127193622,-2.47543265682488,-0.23257607723544,-0.0413459585238718,-0.0112925200867346,4.44235960981727,-0.00306901965529757,-0.00150993955600838,0.00120592156317252,0.0412374421219912,2.74145127193622,-2.47543265682488,-0.23257607723544,-0.0413459585238718,-0.0112925200867346,-1.15233623228598,0.711172922346874,-1.02907807266089,-0.248875225208152,-0.11466230960671,0.0494380342769242
6.6,5.52615314349023,0.307568501056072,0.220185875328271,0.0373926057889962,0.115735412354959,-0.00920513415483618,-0.0626267385220272,2.81288678533655,-2.41312218713712,-0.172174913071369,0.00271351115723698,0.0257351350943613,4.38034781547959,-0.00404179641764553,-0.00238560366097561,-0.000768659371167465,-0.0626267385220272,2.81288678533655,-2.41312218713712,-0.172174913071369,0.00271351115723698,0.0257351350943613,-1.00789598251902,0.336800860775303,-1.11399523879441,-0.327079789616192,-0.182380977295067,-0.0337184420169729
6.7,5.50142670886452,0.5380023063474,0.102879600128021,0.0666296599252094,0.147635238277087,0.0212806653200747,-0.118520101046565,2.80760616526115,-2.47656979187921,-0.216070811552627,-0.0295460155061364,-0.00538434575190921,4.46557463137357,-0.0048411344004199,-0.00315225238426111,-0.000703460728655672,-0.118520101046565,2.80760616526115,-2.47656979187921,-0.216070811552627,-0.0295460155061364,-0.00538434575190921,-1.32320905878955,0.566610876449597,-0.995608526115095,-0.392047062238089,-0.240977029296264,-0.0308702199769528
6.8,5.43806849285088,0.69565214840883,-0.121562568309758,0.00471280716939695,0.103153572958096,-0.0226034070602804,-0.365545115452239,2.86020893416985,-2.50760177490293,-0.293197924040458,-0.0948213337469928,-0.031295360759716,4.52090345400215,-0.00125991467307409,-0.000596767515337108,0.00258548935141007,-0.365545115452239,2.86020893416985,-2.50760177490293,-0.293197924040458,-0.0948213337469928,-0.031295360759716,-0.929830222076051,0.0636439336540399,-0.816355723653659,-0.103113822881618,-0.0446449753390196,0.10804187034205
6.9,5.3616840879831,0.93084787308969,-0.231546547041272,-0.0173301023974057,0.0974485154223581,-0.00684828723200426,-0.353317807847874,2.82133326071776,-2.40425578845113,-0.131748248528648,0.0244705606433558,0.0658047944593553,4.42472454005191,-0.00499140391575404,-0.00325827082355999,-0.00275820780572031,-0.353317807847874,2.82133326071776,-2.40425578845113,-0.131748248528648,0.0244705606433558,0.0658047944593553,-0.861902183242012,-0.147455132402588,-1.00385835727127,-0.403398134428647,-0.250000125546226,-0.117227083742225
7,5.35479100123288,1.12906073845467,-0.358361412630768,0.0563181837173112,0.160058760495271,0.0502059685383284,-0.401600042105587,2.78792148981709,-2.50853849141364,-0.291510596177537,-0.0817184493605178,-0.0403401690878976,4.60571409986392,-0.00448674840009809,-0.00342982224190504,-0.000340116169133817,-0.401600042105587,2.78792148981709,-2.50853849141364,-0.291510596177537,-0.0817184493605178,-0.0403401690878976,-1.4899287652807,0.444284642662453,-0.73073059605429,-0.363939904921007,-0.262431755532122,-0.0151353357171177
7.1,5.28914739583473,1.28619943285503,-0.576290537795572,-0.0460816687177414,0.0970720860565244,-0.0154412632596249,-0.709810618705178,2.92356674753829,-2.48381468992667,-0.303510661240873,-0.111804266328364,-0.00569971731283803,4.62449135119497,-0.00160427497193852,-0.00112097905022078,0.00110446987765383,-0.709810618705178,2.92356674753829,-2.48381468992667,-0.303510661240873,-0.111804266328364,-0.00569971731283803,-0.901928941878681,-0.412180497995711,-0.614331864949561,-0.1306774184669,-0.0855132707833411,0.0460010757132778
7.2,5.15084652035737,1.53077828894936,-0.65553970761594,-0.0582096756390185,0.0868878213913232,0.0107208694632568,-0.678700141001345,2.7221508097098,-2.35740072506346,-0.184842686605838,-0.0217710716034176,0.0357537618019053,4.46591265571561,-0.00397803769464922,-0.00286104266648004,-0.00211888810584936,-0.678700141001345,2.7221508097098,-2.35740072506346,-0.184842686605838,-0.0217710716034176,0.0357537618019053,-0.768162757197958,-0.527890643197439,-0.926939669167947,-0.321943128341843,-0.219596468784963,-0.0898217905587183
7.3,5.09740656890994,1.63703453359399,-0.811550689605058,-0.03544708434868,0.10784440092293,0.0160662515540093,-0.746813698516443,2.61865905033841,-2.55811932449154,-0.308878497741173,-0.113508754077467,-0.0485580548931776,4.6617420926111,-0.00156077510285511,-0.00142796934734619,0.00164120857693146,-0.746813698516443,2.61865905033841,-2.55811932449154,-0.308878497741173,-0.113508754077467,-0.0485580548931776,-0.997469424261669,-0.346490747900368,-0.546504101508379,-0.127591906851902,-0.109264849355296,0.0689279661297514
7.4,5.06653029632172,1.82202825391089,-1.01219068854591,-0.0654346833758566,0.103761884997752,0.0168450780347832,-0.837225244621378,2.69028345813645,-2.39350497274077,-0.184763490169566,-0.0269343838054116,0.0668557382305723,4.64062151587288,-0.00474045144861588,-0.00371839034997959,-0.00382482032760423,-0.837225244621378,2.69028345813645,-2.39350497274077,-0.184763490169566,-0.0269343838054116,0.0668557382305723,-0.948896230280736,-0.62295375853048,-0.598431361965496,-0.383147372258317,-0.285870175004588,-0.161543805202426
7.5,4.95713558319675,1.99756435083273,-1.09701573489407,-0.0455621115556137,0.114952721988244,0.0472707729233253,-0.960949830555257,2.52875795363718,-2.42949825388338,-0.349987644288741,-0.152563906838888,-0.0737351884143513,4.66807417044056,-0.00145279338266283,-0.00154962524039587,0.00144655282101671,-0.960949830555257,2.52875795363718,-2.42949825388338,-0.349987644288741,-0.152563906838888,-0.0737351884143513,-1.04845401356146,-0.475301188085022,-0.545093157241725,-0.119045475958995,-0.119037225639339,0.0609640081431385
7.6,4.79205126743564,2.05505675292058,-1.31286763532314,-0.18608584945481,0.00363314949486637,-0.0645302139808364,-1.17632670871154,2.42930809687851,-2.51198603933695,-0.269304501352159,-0.105671601640325,-0.003173982866818,4.69005233360766,0.00270146627059294,0.000915145157597604,0.00324950790066494,-1.17632670871154,2.42930809687851,-2.51198603933695,-0.269304501352159,-0.105671601640325,-0.003173982866818,-0.145332338045409,-1.72967654527926,-0.591894927473234,0.217189018352236,0.0703170927251766,0.137191004890731
7.7,4.67964732466463,2.22031332739347,-1.45278427601971,-0.134644316320408,0.0504939423494723,-0.00010029658183759,-0.926127056995805,1.98023247726183,-2.29056195021553,-0.0584940429749077,0.0126067990443087,0.0711764551435794,4.47259239185332,-0.00325149236548088,-0.00219991841578163,-0.00334232618018451,-0.926127056995805,1.98023247726183,-2.29056195021553,-0.0584940429749077,0.0126067990443087,0.0711764551435794,-0.447519831478185,-1.20073753989617,-0.957074710844172,-0.262802999473758,-0.16940026629649,-0.140844803117634
7.8,4.65933024450406,2.17171840002961,-1.58662099888048,-0.0888237483157446,0.0660476511092148,0.00106337174482225,-1.09722850370237,1.9553978192489,-2.67330686002421,-0.341524922891961,-0.146944016968949,-0.10391711286273,4.82304003277277,0.00226824807931297,0.000714865485015604,0.0049133757050669,-1.09722850370237,1.9553978192489,-2.67330686002421,-0.341524922891961,-0.146944016968949,-0.10391711286273,-0.63321779291833,-0.856348617779227,-0.222896010657122,0.181371646280342,0.0544694663329865,0.207521693457056
7.9,4.5887856287303,2.34867005646376,-1.82624767750101,-0.168191317888163,0.0425097318088534,-0.0246055003843617,-1.1236688692413,2.04405050072136,-2.34760259199448,-0.0667922605191452,0.0238946914020556,0.125172261052035,4.70117320832608,-0.00305671944899387,-0.00237111430237252,-0.00473439928214277,-1.1236688692413,2.04405050072136,-2.34760259199448,-0.0667922605191452,0.0238946914020556,0.125172261052035,-0.432537193679909,-1.56377938427606,-0.548702912003717,-0.246644277223344,-0.182475902524991,-0.199454218090532
8,4.49251687352773,2.49484269345963,-1.84272859612805,-0.0734520936820054,0.103658534464483,0.0653487749421839,-1.13862859467856,1.67758476322463,-2.42779276965376,-0.30375791103929,-0.126618738913398,-0.0980380747427826,4.71530673353849,2.04377278173747e-05,-0.000995401074980696,0.00162246813833251,-1.13862859467856,1.67758476322463,-2.42779276965376,-0.30375791103929,-0.126618738913398,-0.0980380747427826,-0.925911325663188,-0.754149421218936,-0.455299725116928,-4.57536508139754e-05,-0.0776690369295383,0.0687976278241722
8.1,4.41536803331705,2.48780362123201,-2.01743652249053,-0.183503973755059,0.039370094970409,-0.0284127179707411,-1.33863767654882,1.83097184131618,-2.55300390237742,-0.175401212923258,-0.0617063878462407,0.0431259778388838,4.87694001958738,0.000239517401092794,-0.000478140731784868,-0.000666398028924281,-1.33863767654882,1.83097184131618,-2.55300390237742,-0.175401212923258,-0.0617063878462407,0.0431259778388838,-0.427877382403965,-1.76840558366533,-0.227315696742361,0.0188831505128776,-0.0371887708070473,-0.027707665299736
8.2,4.26175792898762,2.66347849196124,-2.19475068219043,-0.137880891086357,0.0676277154664658,0.0372025966793832,-1.26144639887991,1.37538595058695,-2.28879820254839,-0.159563757353526,-0.0516561594880553,-0.00264669997841789,4.68313770255073,-0.000850029902476967,-0.00132401000896543,-0.00160609175474416,-1.26144639887991,1.37538595058695,-2.28879820254839,-0.159563757353526,-0.0516561594880553,-0.00264669997841789,-0.578614963110673,-1.30976965129657,-0.553822433141457,-0.0694296293835938,-0.102841676254093,-0.0673207982930702
8.3,4.22393386640919,2.61508806102736,-2.22503397240751,-0.124945508097324,0.0856632194681971,0.0350207096709535,-1.3213314268334,1.41468534812084,-2.54852679919928,-0.193086697646535,-0.0732250682777812,-0.0119233927076293,4.89606068059448,-0.000882340912743643,-0.0013697511282229,-0.00105181430882715,-1.3213314268334,1.41468534812084,-2.54852679919928,-0.193086697646535,-0.0732250682777812,-0.0119233927076293,-0.788031248566457,-1.24865809304421,-0.129839853070044,-0.0719716898941377,-0.106436871024393,-0.0439034415815439
8.4,4.07006127114906,2.67913853537685,-2.51684844628319,-0.18902949380827,0.0323077652149084,-0.0085344636954205,-1.52636937775285,1.23401340178997,-2.41601013887812,-0.231206689762321,-0.111455321014002,-0.0352832285563494,4.89914513804947,0.002986115679933,0.000838643610246875,0.0020938224530478,-1.52636937775285,1.23401340178997,-2.41601013887812,-0.231206689762321,-0.111455321014002,-0.0352832285563494,-0.326569656162909,-1.83843511963289,-0.191268227813554,0.240166385568261,0.0634901923557087,0.0888499412515607
8.5,3.90123540779434,2.70093692564263,-2.59469856575624,-0.214171064649755,0.012198062437509,-0.0169501725805094,-1.43307681957024,0.886363219713743,-2.36269111924939,-0.0610514085767345,-0.0183927309843968,0.0382984906084407,4.8065260837582,0.00109412017714603,0.000116238843002004,-0.0010151722795191,-1.43307681957024,0.886363219713743,-2.36269111924939,-0.0610514085767345,-0.0183927309843968,0.0382984906084407,-0.149192063693791,-2.04089858788294,-0.417276930649988,0.0879598516223522,0.00839750505748272,-0.0423214343733785
8.6,3.85697210344882,2.65297496648698,-2.71320696111466,-0.136230917190832,0.0657207681468691,0.0310891124278017,-1.37457448749286,0.654805153312562,-2.45459296931946,-0.120277379188342,-0.0384270508290369,-0.0172913020107718,4.90573423938796,0.000278029802779366,-0.000690764941924059,-0.000652052666448805,-1.37457448749286,0.654805153312562,-2.45459296931946,-0.120277379188342,-0.0384270508290369,-0.0172913020107718,-0.596655279093793,-1.35169448128014,-0.110420719576563,0.0218211146655459,-0.0543798667907081,-0.0269937746915318
8.7,3.79378869020951,2.6223890203315,-2.89226770571954,-0.160161038409882,0.060791066511747,0.0139407258706097,-1.54087572581022,0.731780482660104,-2.43547309332458,-0.146033265567096,-0.0645434716965618,-0.00527249325804258,5.00703102133471,0.000993953015236458,-0.000325450951024736,-0.000405835276470456,-1.54087572581022,0.731780482660104,-2.43547309332458,-0.146033265567096,-0.0645434716965618,-0.00527249325804258,-0.578283028489935,-1.60523184057878,0.0576369041115843,0.0797232228786235,-0.0260250095867706,-0.0165955946039309
8.8,3.58590772495556,2.65642518181622,-3.06169982647418,-0.218647381980789,0.00659551872218053,-0.0213744648139208,-1.66332742540527,0.430278526880682,-2.37426227292394,-0.146670148746858,-0.0845967877905387,-0.0340857452939003,5.00041972670704,0.0045187070362158,0.00162670961263601,0.00262642393913433,-1.66332742540527,0.430278526880682,-2.37426227292394,-0.146670148746858,-0.0845967877905387,-0.0340857452939003,-0.110738724953529,-2.16740444808173,-0.0474754972806899,0.364047518383059,0.124180946282996,0.111345426773329
8.9,3.44566831036476,2.58925636550298,-3.16376032257106,-0.216469513868934,0.00260133798891593,-0.025076418485711,-1.52915636686016,0.069768334601465,-2.3412121692497,0.0220316770039641,0.00732273864552548,0.0443545271742198,4.97877915175713,0.00188374154567449,0.000640020083673235,-0.000914124287578404,-1.52915636686016,0.069768334601465,-2.3412121692497,0.0220316770039641,0.00732273864552548,0.0443545271742198,-0.0789161064884163,-2.13740629616309,-0.0848658651335317,0.151823235831023,0.0489523071624722,-0.0380643574780761
9,3.40844085558355,2.47498961474013,-3.28870733662354,-0.137535065039085,0.0545018221556782,0.0220061240937311,-1.50916337796354,-0.106694565178159,-2.37498644818219,-0.0669195648595558,-0.0220627082333372,-0.0227863407759603,5.04962712905838,0.00146890180651952,-7.77232504250037e-06,3.41308950434878e-05,-1.50916337796354,-0.106694565178159,-2.37498644818219,-0.0669195648595558,-0.0220627082333372,-0.0227863407759603,-0.514360398234802,-1.39628293670322,0.179032180921672,0.118054416923534,-0.00181766954225129,0.00194641758864893
9.1,3.26202755096799,2.35234037699003,-3.4942299310848,-0.224514382241103,-0.00889862496509662,-0.0540335043381492,-1.7568844276263,-0.113448161355174,-2.3979182461781,-0.117438292434308,-0.0847791418207006,-0.0425999053043139,5.20285204084697,0.00659666892723373,0.00252316641439825,0.0045866368055868,-1.7568844276263,-0.113448161355174,-2.3979182461781,-0.117438292434308,-0.0847791418207006,-0.0425999053043139,-0.0349763952170714,-2.31814693776046,0.334143574620359,0.531751504858996,0.193333867741963,0.194035112060408
9.2,3.13083221162784,2.43138981099481,-3.57152493233125,-0.181709576018487,0.0280721760019168,0.0016581036554237,-1.51853037471878,-0.492737547151319,-2.14177428808079,0.173201230174508,0.0803778069128017,0.120655293829948,5.01153536666165,-0.00166027527307478,-0.00111597142946885,-0.00578410740189686,-1.51853037471878,-0.492737547151319,-2.14177428808079,0.173201230174508,0.0803778069128017,0.120655293829948,-0.273696975919578,-1.81173811539325,0.044168757018813,-0.13384424522871,-0.0856618809074162,-0.243581774029645
9.3,3.07345907511047,2.20222453840372,-3.64313949348924,-0.0977421365445786,0.0614805297578535,0.0359602001609242,-1.67478576754823,-0.578210334727101,-2.40228586483147,-0.203431485291915,-0.0982595974647848,-0.144839074045485,5.24357738930049,0.0048693016820023,0.00143516103851311,0.00515947092192548,-1.67478576754823,-0.578210334727101,-2.40228586483147,-0.203431485291915,-0.0982595974647848,-0.144839074045485,-0.604065750553694,-1.04579932590268,0.607380845936405,0.391915705752294,0.107992109375684,0.218191352185414
9.4,2.94936905248923,2.19055655228136,-3.84611772005016,-0.217733404664,0.017465282417113,-0.0397079314900388,-1.75616248968453,-0.408939350221159,-2.1241901564682,0.113890050674472,0.0476791217310194,0.131301202894817,5.18826699660339,0.000409530343501379,-0.000524170731865701,-0.00433676928201397,-1.75616248968453,-0.408939350221159,-2.1241901564682,0.113890050674472,0.0476791217310194,0.131301202894817,-0.265784020130636,-2.23271777256395,0.319994467663649,0.0332190606367024,-0.0395777729798638,-0.182519246266946
9.5,2.75735928509737,2.19521921509093,-3.9063773197532,-0.121849146278221,0.0513395783633293,0.0440029188967052,-1.75285149754203,-1.00816330878943,-2.21352485836069,-0.0943485548232906,-0.0699037576253846,-0.108684242479693,5.24900286758768,0.0041290071450639,0.00122408304753809,0.00306731612884817,-1.75285149754203,-1.00816330878943,-2.21352485836069,-0.0943485548232906,-0.0699037576253846,-0.108684242479693,-0.478084455455109,-1.29829706487572,0.596439564066184,0.332350303572728,0.0919670908460225,0.129900141334864
9.6,2.67881856632823,1.92308354326747,-4.03348415941619,-0.183586364785088,0.019949577836721,-0.0336194355496241,-1.8100945768963,-0.834669602825415,-2.09747726459111,0.095636583136463,0.0287458277225514,0.0764342194651026,5.26708840237895,0.00139193720591031,9.8424311298327e-05,-0.00202466230820344,-1.8100945768963,-0.834669602825415,-2.09747726459111,0.095636583136463,0.0287458277225514,0.0764342194651026,-0.271131265347756,-1.91505459274849,0.545092210967654,0.112308240566034,0.00778985931319957,-0.0849802699718912
9.7,2.53786264314863,1.95442877647474,-4.12284024218224,-0.0983560260520095,0.0705954288450966,0.0503460350401455,-1.77686061781151,-1.17585164036586,-2.0653147654709,-0.00603358762904532,-0.0154734005965589,-0.0322551805993179,5.28301626139449,0.0012845105151117,-0.000401057504682692,-0.000854183698857103,-1.77686061781151,-1.17585164036586,-2.0653147654709,-0.00603358762904532,-0.0154734005965589,-0.0322551805993179,-0.688537462516728,-1.07356900779814,0.678775382323753,0.103185441749355,-0.0323296055385446,-0.0355907304416854
9.8,2.41476591012251,1.72035919159457,-4.24820920776482,-0.159180103094971,0.0306993926663683,-0.0144893137937502,-1.98102417362434,-1.08917696149279,-2.04478301702025,-0.0195528188134475,-0.0519458776684661,-0.0250750988447308,5.3749225449519,0.00398945002483793,0.00117405345904697,0.00187592719755374,-1.98102417362434,-1.08917696149279,-2.04478301702025,-0.0195528188134475,-0.0519458776684661,-0.0250750988447308,-0.350444284731244,-1.69904510371746,0.798939814880729,0.321525196412497,0.0895440787072147,0.0795949042361514
9.9,2.21784711641453,1.7160031891587,-4.35149824598223,-0.150751064630113,0.026992345452495,-0.000386522795195774,-1.90736954259346,-1.39377230275154,-1.90750878205905,0.117090825636424,0.024638895184501,0.0481532814445439,5.34623663598869,0.00121888356067623,-3.00619304378081e-05,-0.00225609562820069,-1.90736954259346,-1.39377230275154,-1.90750878205905,0.117090825636424,0.024638895184501,0.0481532814445439,-0.285927633936393,-1.60569295021195,0.757354456520417,0.0982448305790549,-0.00252611587262163,-0.094782447084779
10,2.11075775849795,1.4856932445245,-4.42488870741579,-0.102827232648506,0.0477443225686181,0.0200854943268923,-1.93892390919486,-1.5425995639554,-1.91292480051086,-0.0010590907208609,-0.0329494882196811,-0.0546602342904984,5.40899481783136,0.00310516602275908,0.000635577254993388,0.00164100882251258,-1.93892390919486,-1.5425995639554,-1.91292480051086,-0.0010590907208609,-0.0329494882196811,-0.0546602342904984,-0.491168724188211,-1.12051540455849,0.938585873026861,0.250089242873383,0.0476603315557597,0.0696488812362668
10.1,1.98725864708426,1.34921666238568,-4.53290685183895,-0.137079363655881,0.0331427146453533,-0.0120460166537164,-2.01660914539882,-1.50674002510132,-1.78778020175458,0.0987476631630724,0.00652034401075362,0.041824436297576,5.41509964277463,0.0017602066308049,5.61656207950563e-05,-0.00140626372895448,-2.01660914539882,-1.50674002510132,-1.78778020175458,0.0987476631630724,0.00652034401075362,0.041824436297576,-0.373311291430016,-1.47556199451538,0.91271290507885,0.141935657872805,0.00425516710322957,-0.0589483057430389
10.2,1.78550353060985,1.24057613499736,-4.62671515934984,-0.122459761501806,0.0206687938790646,-0.00207507662209759,-2.07469818670026,-1.78738626196948,-1.78611751352725,0.0254456843094601,-0.0430005124314687,-0.0515155172583532,5.51092576056958,0.00434683712290591,0.0014248944317723,0.0025481632785825,-2.07469818670026,-1.78738626196948,-1.78611751352725,0.0254456843094601,-0.0430005124314687,-0.0515155172583532,-0.228879576962909,-1.34589027066194,1.12697419182401,0.350307045171566,0.108688724413804,0.107893433076325
10.3,1.63915529357383,1.02167037872925,-4.72336673332924,-0.143038635143006,0.00216401490861493,-0.036760336951615,-2.05143264132096,-1.8774094881871,-1.61224052448032,0.152581560933973,0.0218025369016688,0.0430827915638345,5.49514850166532,0.00283122104377038,0.000840407541746075,-0.00028247447065032,-2.05143264132096,-1.8774094881871,-1.61224052448032,0.152581560933973,0.0218025369016688,0.0430827915638345,-0.0811031416380607,-1.56475832463933,1.06803207787636,0.228357909527935,0.064780949254197,-0.0115721749256787
10.4,1.5606063664143,0.916017864285178,-4.71805627738789,-0.0426997769774939,0.0727949502211412,0.0455865266961588,-1.9558549486533,-2.00521925923734,-1.54709667328541,0.136569723346222,0.0372666222989695,0.0165198306968263,5.43889448025917,-0.000686677975772421,-0.00158224566313167,-0.002931609216673,-1.9558549486533,-2.00521925923734,-1.54709667328541,0.136569723346222,0.0372666222989695,0.0165198306968263,-0.768446422129154,-0.499876015840359,1.02909160099126,-0.0555690199600056,-0.122400766674578,-0.123360707475909
10.5,1.42486831927665,0.687085355173069,-4.82597680491465,-0.0798536676619682,0.0415946006272116,-0.00150793037929805,-2.25244468592107,-1.86364774640534,-1.57496637940501,-0.0395194255540183,-0.0955528810664623,-0.0775261859414164,5.58047900981715,0.00480872795371289,0.00145651258315941,0.00374783668311243,-2.25244468592107,-1.86364774640534,-1.57496637940501,-0.0395194255540183,-0.0955528810664623,-0.0775261859414164,-0.463964807222455,-0.889597934443972,1.30576970293696,0.387504938112562,0.111100251111371,0.158470618236387
10.6,1.16822020950636,0.666591153327688,-4.9158108809907,-0.135251123964157,-0.003073062599452,-0.0303237436952395,-2.20244183223027,-2.01520525110455,-1.3565786359989,0.213386676236712,0.0424771779757467,0.084829154744223,5.54670510431353,0.00139333594156705,2.13495589702882e-05,-0.00256598200017436,-2.20244183223027,-2.01520525110455,-1.3565786359989,0.213386676236712,0.0424771779757467,0.084829154744223,-0.0115882639561927,-1.49616244118278,1.18204774910497,0.112482620900274,0.00208603650853228,-0.10797905831958
10.7,1.01111908513518,0.428254162689553,-4.94784824016777,-0.0567893047822648,0.0239002177978076,0.00610269842388965,-2.15584210120007,-2.35215514986116,-1.37846962275219,0.0533649690083911,-0.0417507585974542,-0.0825972349046339,5.64035582450262,0.00415178673432848,0.00128414863592084,0.00363698093325865,-2.15584210120007,-2.35215514986116,-1.37846962275219,0.0533649690083911,-0.0417507585974542,-0.0825972349046339,-0.265238784107173,-0.641910105086686,1.44930970852101,0.334512646417156,0.0978031020225098,0.153739614553146
10.8,0.925397999268906,0.159767862612685,-5.0193173903732,-0.0948866831263161,0.00619103967981903,-0.0436590501493953,-2.20306862881453,-2.18629528653405,-1.14371350529253,0.200072305045653,0.0286703477372494,0.0747455879158452,5.57079274471819,0.00186344531616989,0.000326682116628871,-0.00145310998458866,-2.20306862881453,-2.18629528653405,-1.14371350529253,0.200072305045653,0.0286703477372494,0.0747455879158452,-0.114673796540769,-1.05159952581051,1.28125401278508,0.150384188386956,0.0254810612186255,-0.061059334210297
10.9,0.74549730361284,0.0951073017949833,-5.00970242797295,-0.0310675504793608,0.0328006259924221,0.0171927450860323,-2.19013929260047,-2.38217446615002,-1.18205376766064,0.109596771394206,-0.010669272040404,-0.0415786762321439,5.63894096173249,0.0021095598495434,0.00031598014344204,0.00116558422062354,-2.19013929260047,-2.38217446615002,-1.18205376766064,0.109596771394206,-0.010669272040404,-0.0415786762321439,-0.363599484630677,-0.356623476500727,1.45637633804245,0.169863080620212,0.023571429829809,0.049417831599529
11,0.620501633031472,-0.135660239210837,-5.08431821828303,-0.051885537883061,0.0240382046925192,-0.0216037317467055,-2.26402655158557,-2.25290787748222,-0.992755107544858,0.13683209506836,-0.00474389549419128,0.024217245120319,5.60615523534444,0.00215571438110168,0.000213789228823533,-0.000113961335071521,-2.26402655158557,-2.25290787748222,-0.992755107544858,0.13683209506836,-0.00474389549419128,0.024217245120319,-0.281633879089041,-0.575546204465526,1.38398655599488,0.173794584057179,0.0163036600125305,-0.00459160512779748
11.1,0.461158344550416,-0.188143885454821,-5.05052204784331,-0.0083029542027433,0.0509406169745748,0.0301577663429341,-2.23237279968907,-2.31142206784882,-0.949716564635075,0.1668107523903,0.013490619587866,0.0165641019663212,5.60090201732595,-0.00031456068698014,-0.00120732927047694,-0.0022044162326514,-2.23237279968907,-2.31142206784882,-0.949716564635075,0.1668107523903,0.013490619587866,0.0165641019663212,-0.567296581885786,-0.110162894079752,1.3768875186842,-0.0255388434993257,-0.0932877867851146,-0.0928178419670888
11.2,0.326285974100905,-0.37108681633373,-5.08974241738837,0.0132157476502636,0.0581858366214769,0.0293189765117951,-2.34359160673798,-2.22718027278127,-0.870145247527658,0.0658605329079962,-0.045589009652084,-0.0321802551993058,5.62980409454501,0.00112469601387473,-0.000621284700494856,0.000136770743614033,-2.34359160673798,-2.22718027278127,-0.870145247527658,0.0658605329079962,-0.045589009652084,-0.0321802551993058,-0.658803579621774,0.12954280305116,1.42957174795722,0.0904434299078234,-0.0483292487106952,0.00594663942464994
