time,x,y,z,roll,pitch,yaw,xdot,ydot,zdot,p,q,r,thrust,roll angle,pitch angle,yaw angle,_xdot,_ydot,_zdot,_p,_q,_r,_xddot,_yddot,_zddot,_phiddot,_thetaddtot,_yawddot
0,3.01841953230695,1.01841953230695,0.0184195323069548,0.0184195323069548,0.0184195323069548,0.0184195323069548,0.0184195323069548,0.0184195323069548,0.0184195323069548,0.0184195323069548,0.0184195323069548,0.0184195323069548,8.90670762683976,-0.00343867922232799,0.00453759271535846,-0.00175794605485273,0.0184195323069548,0.0184195323069548,0.0184195323069548,0.0184195323069548,0.0184195323069548,0.0184195323069548,-0.334027957976661,0.321998555623617,7.99737221640207,-0.277312953257768,0.349045707063319,-0.0741749423311849
0.1,1.82036642022637,0.620366420226373,0.0203664202263731,0.0198907193032964,0.0199337539016655,0.0194661285018988,-0.0821131199942186,0.117844351550806,4.4114365247819,-0.142746425873815,0.202022137305851,-0.0308891954647787,5.53422586995055,-0.000668507622259927,-0.00145078821359862,0.000529638077193385,-0.0821131199942186,0.117844351550806,4.4114365247819,-0.142746425873815,0.202022137305851,-0.0308891954647787,-0.224820848470938,0.215809721600739,1.25406370501702,-0.0539148326718678,-0.111596144234798,0.0223475123003528
0.2,1.96287640046364,0.720771288731911,2.03434893252764,-0.0634659232545741,0.0954851060845532,-0.0136856374470885,-0.059059766501744,0.0614141833144321,1.09387300679113,-0.0403187531389337,-0.0413192588641962,0.0100044442282885,6.78113875875704,0.000659197544660484,0.000463892650044036,0.000173260311588511,-0.059059766501744,0.0614141833144321,1.09387300679113,-0.0403187531389337,-0.0413192588641962,0.0100044442282885,-1.30207602624372,-0.842424452576452,3.66331772525425,0.0531848120831168,0.0356975258139043,0.00731750010786856
0.3,1.9742665068527,0.707024052915847,0.778432523547158,-0.019396831147512,0.000898177285819764,0.010232473063459,-0.303141219169626,-0.103052377748439,2.5455296651634,0.0183476536256822,0.0369203215993174,0.00697900188576915,6.47067958051491,-0.00254163924890199,0.00129326219536571,-0.000821955471841646,-0.303141219169626,-0.103052377748439,2.5455296651634,0.0183476536256822,0.0369203215993174,0.00697900188576915,-0.00905247492645941,-0.251111391768464,3.12891950884588,-0.204967096796332,0.0994852354354267,-0.034674199219017
0.4,1.83924059780197,0.614170118373639,1.51234394820997,-0.0147157873355772,0.0144413911463374,-0.0107143115998029,-0.207599572662052,-0.0940505627736328,2.35692605039344,-0.137628814762853,0.0573265876191475,-0.0323143315270409,6.09552061273613,0.000412311992308935,-7.07355828562882e-05,0.0020287646114408,-0.207599572662052,-0.0940505627736328,2.35692605039344,-0.137628814762853,0.0573265876191475,-0.0323143315270409,-0.177942359436194,-0.177497989704425,2.37845015338428,0.0332425523482746,-0.00544693871085368,0.0856098840147582
0.5,1.92078888166688,0.668228095688656,1.60209923841326,-0.0401627625999011,0.0714361132110178,0.0165826440161013,-0.154909188311536,-0.0248635134917013,2.13836403172568,0.0214578668215648,0.0430660722496388,0.0700255877585923,6.18715822939495,-0.0032616356516669,-0.00276127599093251,-0.00408714218274787,-0.154909188311536,-0.0248635134917013,2.13836403172568,0.0214578668215648,0.0430660722496388,0.0700255877585923,-0.874149087173876,-0.511418487662495,2.52280269550068,-0.262969554132399,-0.212337234281397,-0.1724336068134
0.6,1.89238637766918,0.655855340955509,1.61422991503167,-0.00475189569832824,0.0360840183951456,0.0313521742802893,-0.313237357276783,-0.136484668559569,2.33613462223298,-0.167142562382192,-0.0972022176212855,-0.0935996594832047,6.0039870333565,-0.000441674730695625,0.00120749064461377,0.00295225459312555,-0.313237357276783,-0.136484668559569,2.33613462223298,-0.167142562382192,-0.0972022176212855,-0.0935996594832047,-0.431195477655541,-0.0706118281047075,2.19002190067306,-0.0357342266820288,0.0927875609680455,0.12458873079744
0.7,1.85122593323507,0.644053903981842,1.88044877187075,-0.0583468275727621,0.00850357901943578,-0.00600115593407988,-0.277088858775086,-0.0741111090158577,2.28295804074997,-0.0280553510236184,0.0903795505875891,0.0885420321728014,5.81945926506206,-0.00250866604111224,-0.00287331275328408,-0.00389812804615766,-0.277088858775086,-0.0741111090158577,2.28295804074997,-0.0280553510236184,0.0903795505875891,0.0885420321728014,-0.102874085198473,-0.678103576482349,1.80869256900375,-0.202214588536648,-0.220832208910437,-0.164454132303597
0.8,1.81574571492588,0.630281198089402,1.95695901959242,-0.0317979524969238,0.0585728736225688,0.0411640506915484,-0.331589213330611,-0.177810013022057,2.16970000287221,-0.14677700512943,-0.105786509634847,-0.088331009374807,5.84796100290242,-0.000792000560373335,-0.00127668244021479,0.00226200031218563,-0.331589213330611,-0.177810013022057,2.16970000287221,-0.14677700512943,-0.105786509634847,-0.088331009374807,-0.66844402443609,-0.399690381688717,1.8599623714411,-0.0639703115537924,-0.0983542002511662,0.0954789244336618
0.9,1.78937503949691,0.59555479358649,2.05183329907302,-0.0791404157889983,-0.0135296024062925,-0.0233445879443788,-0.365223528056728,-0.200229452076608,2.29680395604365,-0.0708646646843576,-0.0353045011639776,0.0558742119883492,5.61173785723885,-0.00122693691189324,-0.000548872208981875,-0.00152934547752522,-0.365223528056728,-0.200229452076608,2.29680395604365,-0.0708646646843576,-0.0353045011639776,0.0558742119883492,0.130616162554696,-0.890595196175979,1.37732258979326,-0.0988565374412024,-0.0419521249967261,-0.0644981547889784
1,1.70381880593042,0.526259295285705,2.20427145687556,-0.0961264836863804,-0.0314046381235709,-0.00488852340225342,-0.445311458485774,-0.328797481786986,2.10236946786633,-0.127506287823322,-0.0509448283942666,-0.0639086256243194,5.61418506551585,0.00127319160458547,-0.00074902764010071,0.00326244020172865,-0.445311458485774,-0.328797481786986,2.10236946786633,-0.127506287823322,-0.0509448283942666,-0.0639086256243194,0.345664844660733,-1.0793849438722,1.36102232374246,0.102669892227151,-0.0576451620344835,0.137684515891566
1.1,1.66400245928057,0.478735010060099,2.25675537224842,-0.112786425549985,-0.0276848854516651,-0.0435240591276209,-0.399701790446435,-0.397207363061104,2.19416778514766,-0.011417705635009,-0.0452999621579138,0.0558119373100711,5.45812213293718,-0.00107241114664182,-0.001797791040388,-0.00057721570963875,-0.399701790446435,-0.397207363061104,2.19416778514766,-0.011417705635009,-0.0452999621579138,0.0558119373100711,0.246515512975766,-1.24049626474514,1.03272972969678,-0.0864247090835959,-0.137878516219028,-0.024331196406961
1.2,1.69300594429059,0.471989688498479,2.46024281763911,-0.0288703310204534,0.00953219426927491,0.0456938681754794,-0.314791540833496,-0.422626279608703,2.12374962842651,-0.0778079269861174,-0.0652627220288258,0.00444013659810894,5.38464444057,-0.00366682953107451,-0.0033896356203228,-0.00230350758430989,-0.314791540833496,-0.422626279608703,2.12374962842651,-0.0778079269861174,-0.0652627220288258,0.00444013659810894,-0.0883036197263481,-0.315232310045248,0.954312057298061,-0.295709947131414,-0.260717236424076,-0.0971795140497852
1.3,1.66054363782637,0.397371737042113,2.52685845789927,-0.0967675248647033,-0.0379151636779804,-0.0107588100260493,-0.356542879994422,-0.576829971188132,2.03913987887598,-0.227663589356433,-0.168928269437839,-0.0666968853703015,5.30151382941477,0.00354673480311798,0.00051963842667284,0.003673534248048,-0.356542879994422,-0.576829971188132,2.03913987887598,-0.227663589356433,-0.168928269437839,-0.0666968853703015,0.388994339014005,-1.02867278154091,0.735838574842498,0.286026936453485,0.0399640135803125,0.155003029103721
1.4,1.64966538737232,0.330321036540437,2.63744690492089,-0.146899478649979,-0.0685107635799872,-0.0233899976416884,-0.325438652391312,-0.566759855747593,2.03196482686074,0.0933915764898233,0.00762408469455259,0.0861007502222849,5.17178877343009,-0.00258476332587665,-0.00333348447809958,-0.00296473874714171,-0.325438652391312,-0.566759855747593,2.03196482686074,0.0933915764898233,0.00762408469455259,0.0861007502222849,0.664864771917212,-1.52997543380884,0.398169594737094,-0.208540368951074,-0.255782993680039,-0.125140359584384
1.5,1.61534454794665,0.281720004920769,2.73627127798652,-0.0295725294822943,-0.0137472169983028,0.0301904632379266,-0.323837516758754,-0.678494093160897,1.93832624887765,-0.17560930490598,-0.171802326116633,-0.0746789747050945,5.19204722483711,-0.000903192370832342,-0.0021276701856471,0.00212997745592493,-0.323837516758754,-0.678494093160897,1.93832624887765,-0.17560930490598,-0.171802326116633,-0.0746789747050945,0.151888714602797,-0.302592178356447,0.568573376516097,-0.0728108572845772,-0.163849443014057,0.0898323779550855
1.6,1.59559049316494,0.210377251956718,2.82057787509063,-0.145523098630415,-0.09152279827664,-0.0374666816634315,-0.246463502040598,-0.834561873640284,1.93967787429213,-0.111986504375651,-0.126754517709933,0.0405338805833252,4.99070361924686,0.00325155212338693,-0.000167086736679277,-0.000167091694445528,-0.246463502040598,-0.834561873640284,1.93967787429213,-0.111986504375651,-0.126754517709933,0.0405338805833252,0.847758993925885,-1.48019813422439,0.0245721123143561,0.262069374941751,-0.0122863529306569,-0.00714950713512578
1.7,1.58409811337837,0.0663345502315946,2.91149227444305,-0.149281114368004,-0.102213289864056,-0.0135241457874175,-0.29525369849557,-0.855831910614295,1.77072316294831,0.0542153025579367,-0.0768949413528347,-0.0273574649503121,5.01547998688856,-0.000422318009968888,-0.00196680702700484,0.00190353473110937,-0.29525369849557,-0.855831910614295,1.77072316294831,0.0542153025579367,-0.0768949413528347,-0.0273574649503121,0.991861476658517,-1.50542874025709,0.0576265188062095,-0.0341113884104645,-0.151136528540648,0.0801672884377037
1.8,1.54000878153859,0.0198023632652664,2.95247032997412,-0.0784690871479216,-0.086631804317377,-0.0382645778178299,-0.212282499045219,-1.00146907348431,1.79621079002105,-0.0962433268956861,-0.151594332064775,0.0217782284709895,4.90639141961945,0.000748073476021952,-0.0013376360887129,0.000738190103330543,-0.212282499045219,-1.00146907348431,1.79621079002105,-0.0962433268956861,-0.151594332064775,0.0217782284709895,0.816377652516433,-0.801027230871109,-0.0640988126322384,0.0601408846023509,-0.102445659856363,0.0309783220025926
1.9,1.59788340718048,-0.0455774437359929,3.11310462732386,-0.101021295503257,-0.0825687744982709,0.0242581109625441,-0.0546789586140105,-1.08561300987091,1.68168966325395,-0.0082360738875043,-0.0974637263172771,0.0342253713244169,4.78927159955102,-1.04027267268752e-05,-0.00248909906317092,-0.00279884422049149,-0.0546789586140105,-1.08561300987091,1.68168966325395,-0.0082360738875043,-0.0974637263172771,0.0342253713244169,0.809162199981197,-0.946643538862117,-0.31275764437297,-0.000952201982633499,-0.191242080728976,-0.118328578504635
2,1.62579929208798,-0.175990752484708,3.14350515882749,-0.0860707642226088,-0.0861522558688254,0.0127679311920233,-0.0161534904174595,-1.17622912860596,1.52792879663261,-0.0551770565434532,-0.167258591451602,-0.0624731359724426,4.81073727960601,0.00127180708598352,-0.000869561283297651,0.00231716808425022,-0.0161534904174595,-1.17622912860596,1.52792879663261,-0.0551770565434532,-0.167258591451602,-0.0624731359724426,0.83531496233493,-0.816507159380099,-0.259694367930184,0.10266561616716,-0.0670667100282291,0.0975018388625683
2.1,1.61996427729699,-0.296082772406916,3.16152569839391,-0.122109547437725,-0.140080831176171,-0.0456401077739165,0.0421916868059317,-1.30496187136516,1.51760568612753,-0.0155140150054986,-0.117684850496571,0.0382938121741674,4.71338074539153,0.00297584148078139,-0.000344171752349488,0.000323781117361683,0.0421916868059317,-1.30496187136516,1.51760568612753,-0.0155140150054986,-0.117684850496571,0.0382938121741674,1.25264569781072,-1.20664664640957,-0.545081498978243,0.23959933102488,-0.025888547848761,0.0133217043270776
2.2,1.64162725694938,-0.426745305982926,3.24761490684586,-0.107008804527833,-0.124236100106647,-0.00301444999192851,0.0898927517150203,-1.34999317487531,1.42045911068224,0.0709243745957402,-0.100953619187733,-0.00247272150518754,4.65668647966386,0.000743691146317979,-0.00175817459288717,0.000237638546704399,0.0898927517150203,-1.34999317487531,1.42045911068224,0.0709243745957402,-0.100953619187733,-0.00247272150518754,1.14447792655725,-0.998166480058022,-0.621270499506014,0.0598904581110179,-0.135129200648838,0.00964053117187261
2.3,1.68607082102471,-0.486544932149722,3.32518336614599,-0.0374986293620177,-0.0939719703305782,0.0137560283685101,0.260142898972925,-1.42230272904614,1.33462515090721,0.00872752604744605,-0.135645241512817,0.0220259056998743,4.56702550036482,-0.000183166477930519,-0.00172813828487276,-0.0017140464578694,0.260142898972925,-1.42230272904614,1.33462515090721,0.00872752604744605,-0.135645241512817,0.0220259056998743,0.861108855392105,-0.330620344358553,-0.722642330633633,-0.0148890079997024,-0.132795083696479,-0.0727248063861654
2.4,1.74163997409799,-0.627797850886966,3.35284058975211,-0.0790420095344598,-0.133286548206028,0.00759399100772084,0.359867061136917,-1.5963471081901,1.1874524099597,-0.0430394734921993,-0.155956212302042,-0.037377867778832,4.55770611869419,0.00458901144981583,0.000777007882416964,0.00141119554853292,0.359867061136917,-1.5963471081901,1.1874524099597,-0.0430394734921993,-0.155956212302042,-0.037377867778832,1.21301644774149,-0.710559438394726,-0.80364465282728,0.370197510044903,0.0596481172578469,0.0590979796037202
2.5,1.81528961939679,-0.795662881381168,3.37180669661518,-0.0909807518011359,-0.141364058011034,-0.0112019100324643,0.433580497024632,-1.58024849392422,1.14564468983333,0.173593858536681,-0.0464596731962615,0.0404384623361836,4.48895958633715,0.000431567637707237,-0.00166510125516151,-0.00138505410982453,0.433580497024632,-1.58024849392422,1.14564468983333,0.173593858536681,-0.0464596731962615,0.0404384623361836,1.25048444708356,-0.82975101484829,-0.95839932147676,0.0344639817451691,-0.127756005773698,-0.0589566132312477
2.6,1.85538070087544,-0.886581785516262,3.42219607396897,0.00330842080540872,-0.100849787197619,0.0235811604923566,0.538167423537396,-1.63795627816365,1.01725319995429,0.00919256853421292,-0.148047084413463,-0.0231266631881319,4.44754829400695,0.00117297129907719,-0.000613103664560716,-1.56957354317647e-05,0.538167423537396,-1.63795627816365,1.01725319995429,0.00919256853421292,-0.148047084413463,-0.0231266631881319,0.894600957704789,0.0505364929167832,-0.960148108614829,0.0947681367756478,-0.0473043946380207,-0.00112818208962941
2.7,1.9300366765181,-1.00223285533899,3.44004306293764,-0.0548210411949953,-0.144774399953272,0.00324022854134376,0.705890172606909,-1.78457876382461,0.959047042747101,0.047476246063935,-0.105620581013697,0.0112606120160574,4.38223250461671,0.00445142519839495,0.00104307572790298,-0.000689608460408451,0.705890172606909,-1.78457876382461,0.959047042747101,0.047476246063935,-0.105620581013697,0.0112606120160574,1.26409217553861,-0.476143025937738,-1.15025371684194,0.358847254549806,0.0803394280035898,-0.0296053768434787
2.8,2.03497474122543,-1.20421600010712,3.46316347240152,-0.0438404676699779,-0.139563647383451,0.00811134192137962,0.741726560089779,-1.74191203648282,0.802875505560473,0.193254723032371,-0.0437609335516128,-0.0100113601485436,4.39970740811288,0.00119088971976864,-0.000667996774206574,7.48738529475377e-05,0.741726560089779,-1.74191203648282,0.802875505560473,0.193254723032371,-0.0437609335516128,-0.0100113601485436,1.2260072434174,-0.375714803259956,-1.10451634119546,0.0960626427694851,-0.0513998739136112,0.00263987108438259
2.9,2.04546895358592,-1.32464382020481,3.41675055740486,-0.0067365524744209,-0.15123112415854,-0.0333325494145678,0.829067395800967,-1.85631104044927,0.732355239583065,0.0382347145241422,-0.141273321182602,-0.0211601036386605,4.40068159834982,0.00515513786622591,0.00221125908112922,0.00256049079090449,0.829067395800967,-1.85631104044927,0.732355239583065,0.0382347145241422,-0.141273321182602,-0.0211601036386605,1.32322962623159,-0.103446308571124,-1.10928989462786,0.415605135542622,0.170168734548194,0.107593357657785
3,2.16551903250229,-1.45315088719651,3.46428863359612,-0.0332581292522346,-0.166730709650723,-0.00832802983363216,1.00107286871926,-1.86245079438949,0.720179757538048,0.244944383891134,0.00658005674227294,0.063670703675153,4.28860329732655,0.00219946747502574,0.000366182283730274,-0.00267287078959623,1.00107286871926,-1.86245079438949,0.720179757538048,0.244944383891134,0.00658005674227294,0.063670703675153,1.42025538128625,-0.297047353709562,-1.35641434130213,0.176879784168281,0.0284091808629821,-0.113239655702191
3.1,2.30078990019121,-1.57262910212517,3.5152058892574,0.0766769844368013,-0.0917591217352846,0.0453165978877131,1.12659457874808,-1.82901933050168,0.531133493694564,0.148880727611801,-0.0470093271772763,-0.0404841234412141,4.24780456869169,0.000427223251363304,-0.000678356858581887,-0.000259965750601656,1.12659457874808,-1.82901933050168,0.531133493694564,0.148880727611801,-0.0470093271772763,-0.0404841234412141,0.745891014490829,0.685272748347254,-1.37498829461,0.0350216011212334,-0.0523858377416834,-0.0113077721558717
3.2,2.40196043331288,-1.68353168959157,3.46462813107374,0.0412660730559669,-0.125329822448029,-0.00362892294339025,1.32448467427176,-1.94555070647073,0.514005235703253,0.0710469961036625,-0.101260244765054,0.00362493661855662,4.23828581596309,0.00584612054631975,0.00365928579151243,-3.64639822945063e-05,1.32448467427176,-1.94555070647073,0.514005235703253,0.0710469961036625,-0.101260244765054,0.00362493661855662,1.05994819289994,0.345851371128883,-1.40707412334061,0.471350899402952,0.28151398307067,-0.00181084802616783
3.3,2.5176651516914,-1.9545964216051,3.43525434716176,-0.0452807465853645,-0.210189624366489,-0.0505101511248052,1.28440461265629,-1.94775592732787,0.333492249443712,0.264046772370846,0.0309855109434397,-0.0409101263326331,4.48074668529891,0.00690335266270937,0.00358988294785526,0.00435925774265995,1.28440461265629,-1.94775592732787,0.333492249443712,0.264046772370846,0.0309855109434397,-0.0409101263326331,1.84499479308334,-0.499432763314443,-1.05472018952608,0.556671071799079,0.276156454354455,0.183686199498577
3.4,2.61888550424429,-2.02865495363562,3.41842220799027,0.0891234973917714,-0.117327334011029,-0.0321627267095136,1.4496344932378,-1.80931288179773,0.482009626726744,0.368587234699179,0.0713555375089719,0.0942952373900754,4.10985551008906,-0.00146265113695263,-0.000311623089632029,-0.0029942039051306,1.4496344932378,-1.80931288179773,0.482009626726744,0.368587234699179,0.0713555375089719,0.0942952373900754,0.981397461365768,0.700403234215375,-1.67919785091514,-0.118730340862619,-0.023892079778482,-0.126445562637332
3.5,2.74173508934325,-2.07004518707697,3.50307868814225,0.149940468862732,-0.0989708641230357,0.0291401587961127,1.63246426734158,-1.92279280899225,0.136199585155963,0.0253329095722663,-0.0686879041123342,-0.0680083311589648,4.23300740663653,0.00565843652306011,0.00410333589033593,0.00185780200863975,1.63246426734158,-1.92279280899225,0.136199585155963,0.0253329095722663,-0.0686879041123342,-0.0680083311589648,0.789937832224745,1.28820966718001,-1.47993872212437,0.457189593236543,0.315711971834496,0.0784690107728135
3.6,2.95306914530424,-2.27207372723133,3.39289077001225,0.0303010367830341,-0.149017900571038,-0.0242685893523801,1.79292243388141,-1.83155072961388,0.293409779720696,0.342213468374724,0.119109848170201,0.0484321817123207,4.2488088013626,0.00434491741568994,0.00361330875162964,-0.000744196371714388,1.79292243388141,-1.83155072961388,0.293409779720696,0.342213468374724,0.119109848170201,0.0484321817123207,1.26691249893145,0.226770838843234,-1.41041592524684,0.350087857085713,0.277918553448707,-0.0313040063848832
3.7,3.11994528543112,-2.40161175421955,3.46936296907957,0.15705165139736,-0.0766549527762187,0.00208313969267476,1.81477111491113,-1.69763742217049,0.0352065145912743,0.296795252030573,0.103070952112378,-0.0213167589821805,4.17644291131037,0.000267770116620606,0.00131301528549481,0.00105691484641667,1.81477111491113,-1.69763742217049,0.0352065145912743,0.296795252030573,0.103070952112378,-0.0213167589821805,0.629067797990123,1.30776165042083,-1.58414230994974,0.0221103492873708,0.101143492184573,0.0448538701525127
3.8,3.23472950096353,-2.41714676992719,3.36055451748433,0.169275960926972,-0.070282835964856,-0.0136217488756893,1.99396703739166,-1.68063240226183,0.0757285170296376,0.141797176506978,0.0232516164918072,0.0270161614067,4.14589899068436,0.00445233843770553,0.0047957585132672,-0.000323787404968928,1.99396703739166,-1.68063240226183,0.0757285170296376,0.141797176506978,0.0232516164918072,0.0270161614067,0.592943221034329,1.38896063702767,-1.65689504242417,0.35921186409594,0.368973800988444,-0.0132800999370571
3.9,3.48987816617165,-2.5342861996221,3.43465937065647,0.144607286664743,-0.0690726385481741,0.0395640017131631,2.10694409368787,-1.501027917526,-0.0110615094512518,0.353365485155216,0.205862819639624,0.0227792632069094,4.09929436008781,0.000291880682669526,0.00202271948106553,-0.00247613019720633,2.10694409368787,-1.501027917526,-0.0110615094512518,0.353365485155216,0.205862819639624,0.0227792632069094,0.512773160454418,1.20267122572697,-1.71632947227794,0.0241097086801026,0.155902129723133,-0.104036347591585
4,3.65329545960042,-2.59304471445667,3.39083886861875,0.236672677358651,0.000841354689555651,0.0195967535081242,2.14227675017672,-1.38294131475546,-0.193144164561395,0.17482241264479,0.0940988603668419,-0.040343383767502,4.09911718414271,0.00117405643873904,0.00236532354055025,0.00125764800729324,2.14227675017672,-1.38294131475546,-0.193144164561395,0.17482241264479,0.0940988603668419,-0.040343383767502,-0.0443712032814811,1.92173429652087,-1.84030645211303,0.0955019112480506,0.182630407130395,0.0535996061060438
4.1,3.79762194445451,-2.65136367246426,3.29408156441948,0.166450456276191,-0.0487817362755272,-0.013605003257969,2.1842004515851,-1.23286109778211,-0.105866167785725,0.206524812859157,0.10377105840579,0.032348675035833,4.06873131424284,0.00368254915993082,0.00549487878862138,-0.000328723293679078,2.1842004515851,-1.23286109778211,-0.105866167785725,0.206524812859157,0.10377105840579,0.032348675035833,0.409623973355081,1.34279003126306,-1.79455109414361,0.297227820286996,0.422931395346823,-0.0133007798888067
4.2,3.9557954314603,-2.72979695868708,3.33564503158807,0.165949558115079,-0.0599069140987701,-0.00844476779912856,2.14362809599753,-1.10561823872765,-0.422437400543795,0.303480738584888,0.229738696593833,-0.0206343449126502,4.19649176107943,0.00137794385447723,0.00291658328819825,0.0019349720674351,2.14362809599753,-1.10561823872765,-0.422437400543795,0.303480738584888,0.229738696593833,-0.0206343449126502,0.507283971620059,1.38219331000177,-1.54716894586645,0.111746325593889,0.225113817599401,0.0822477241443379
4.3,4.08261835340805,-2.7271796291604,3.17427377955223,0.241356367824125,0.0195377224661084,-0.0156561318605721,2.22360900144566,-0.92087413740201,-0.384695689472761,0.231734499719557,0.15081555689827,0.0442780042519695,4.07327542400685,-0.000278011432565183,0.00249740914399131,-0.00103559963105312,2.22360900144566,-0.92087413740201,-0.384695689472761,0.231734499719557,0.15081555689827,0.0442780042519695,-0.124038642698259,1.94936855078083,-1.9010893678322,-0.0221089009384574,0.192645724530978,-0.0431018995584471
4.4,4.25874791975794,-2.72137524163596,3.17106269929172,0.230062005534972,-0.000479682867908143,0.0186954605699266,2.26097616456839,-0.737980197341394,-0.440668993153055,0.164166752850338,0.154411167771178,-0.016824381939374,4.0214103937742,0.0015184899378916,0.00443722458031494,0.000219169150857024,2.26097616456839,-0.737980197341394,-0.440668993153055,0.164166752850338,0.154411167771178,-0.016824381939374,-0.0305310501673979,1.83381763877709,-1.97909028635202,0.12311975773385,0.342785390237366,0.00982519193983709
4.5,4.43241387792534,-2.74044805881028,3.14957745321279,0.200791217456115,-0.00221823130342158,-0.0195520769348005,2.22929276891837,-0.573113116659984,-0.654257526681242,0.233631780139692,0.230409579206315,-0.000962976040099102,4.10405380185464,0.00084224607383355,0.00309074393679985,0.00127444316221773,2.22929276891837,-0.573113116659984,-0.654257526681242,0.233631780139692,0.230409579206315,-0.000962976040099102,0.0498442070010208,1.63640195533451,-1.76682061435429,0.0683582600663807,0.238965964688776,0.0543000367426059
4.6,4.57059743428651,-2.71745255892426,3.02636963736996,0.245499124395199,0.047374018834083,-0.010481723068021,2.23880969758078,-0.374521423037014,-0.725567415505635,0.213410377187875,0.194483802676944,0.0272210625990408,4.05955613564892,-0.00109962912569757,0.00245461226601621,-0.000638126616871592,2.23880969758078,-0.374521423037014,-0.725567415505635,0.213410377187875,0.194483802676944,0.0272210625990408,-0.352259180117358,1.97707403938751,-1.94316608877866,-0.0883657270302587,0.190129058300529,-0.0265016221883865
4.7,4.73537107115655,-2.65259531988599,2.95908621469177,0.265155452259386,0.0570843201376306,0.0164590256884521,2.24061315484702,-0.145579953952317,-0.772303002526478,0.140639760991002,0.194338510431304,-0.00249293353252911,3.98557680877701,-0.000995275546183284,0.00282667742063277,-0.000633583352077837,2.24061315484702,-0.145579953952317,-0.772303002526478,0.140639760991002,0.194338510431304,-0.00249293353252911,-0.473207521670528,2.08140860065695,-2.129954240163,-0.0799428417961379,0.219529722012657,-0.0264158570885054
4.8,4.92382392757793,-2.56883549265828,2.94797521351343,0.266571930183946,0.0911052413481365,0.0261440881990009,2.23059942491622,0.0948912090743581,-0.925576432164698,0.159678093959287,0.236052159136495,0.0143937345500926,3.9513100281284,-0.00258111243189593,0.00101232620234402,-0.00196794174039804,2.23059942491622,0.0948912090743581,-0.925576432164698,0.159678093959287,0.236052159136495,0.0143937345500926,-0.747762458102339,2.06291324007499,-2.21811986239718,-0.20797997374395,0.080002821687344,-0.0828492696374991
4.9,4.98772589574599,-2.56533433100134,2.77238719153471,0.207321774496786,0.0462615786488324,-0.0430843143758773,2.02698010932034,0.214769244932404,-1.11490028118554,0.023947462887837,0.106191535712542,-0.0811907578903715,4.07935372295205,0.00355242676473603,0.00513739952819361,0.00591308044966571,2.02698010932034,0.214769244932404,-1.11490028118554,0.023947462887837,0.106191535712542,-0.0811907578903715,-0.296544998238397,1.69373069102916,-1.83454737346296,0.28649441909409,0.397823966677965,0.249505101634346
5,5.09128036138243,-2.48043235480728,2.6700081931628,0.181528790507492,0.0268886975725048,-0.0529052678471621,2.03655862209336,0.434072235200582,-1.2045691206483,0.306954406898939,0.304391696133206,0.119129729806923,4.09094838506421,-0.00366934499556158,0.00156083062952455,-0.00321610823319966,2.03655862209336,0.434072235200582,-1.2045691206483,0.306954406898939,0.304391696133206,0.119129729806923,-0.137946646525326,1.48648060888345,-1.76545023763519,-0.29592756449129,0.120484378221022,-0.135777962537562
5.1,5.26238175106127,-2.3250024693297,2.56538554294607,0.353402902387284,0.160355383897075,0.0635870049732464,2.09072096189364,0.650168026965405,-1.30354052871801,0.0264629221548439,0.222097187719456,-0.0460659454292242,4.03248486705678,-0.00502083185529673,-0.00149597972400316,-0.000912607548257305,2.09072096189364,0.650168026965405,-1.30354052871801,0.0264629221548439,0.222097187719456,-0.0460659454292242,-1.38306948803237,2.70881325230604,-2.34051632523555,-0.405370195403772,-0.111011128944927,-0.0388594441124332
5.2,5.4021782557807,-2.21408447149818,2.42273522006962,0.235107535516971,0.136087070164862,-0.0142890842747784,1.88383014010214,1.0082211136241,-1.22775522642794,-0.0448859244864576,0.0769642853927712,-0.00722907382492462,3.85631250472947,-0.000170028238815415,0.00357887105559312,0.000914643711622413,1.88383014010214,1.0082211136241,-1.22775522642794,-0.0448859244864576,0.0769642853927712,-0.00722907382492462,-0.991790680637398,1.81099338564329,-2.37890056993661,-0.0141864018095632,0.277989061459649,0.0380399516144189
5.3,5.46594569621597,-2.04908896473482,2.49375118576981,0.184687851636522,0.0678962657857647,-0.00504928063254404,1.79892499440413,1.07728149006306,-1.6941697776796,0.132085919815803,0.274641826698294,0.0199754178014154,4.05584446913779,-0.00314674166057841,0.000876867266881014,-0.000832838022886445,1.79892499440413,1.07728149006306,-1.6941697776796,0.132085919815803,0.274641826698294,0.0199754178014154,-0.533442791702252,1.49234065910621,-1.85463353600214,-0.254258947244705,0.0698906753302339,-0.0357538178412195
5.4,5.57170665319436,-1.93696160595243,2.15810981817796,0.276763479487334,0.175385341863718,0.0120995948268423,1.76814564315324,1.26702923936519,-1.69120101318581,0.0100417504407654,0.185606387207095,-0.00838596300262433,4.10781716411146,-0.00491833371247505,-0.0012580248227884,-0.000228960341715186,1.76814564315324,1.26702923936519,-1.69120101318581,0.0100417504407654,0.185606387207095,-0.00838596300262433,-1.40603350626332,2.22802164460866,-2.02824976335689,-0.397489353036187,-0.0936148095483235,-0.0105469712016701
5.5,5.63651411639413,-1.8115914422893,1.98578892941143,0.203340490636838,0.124847846769983,-0.0252455628579895,1.51498012576069,1.54263924186349,-1.66172928865288,-0.101224493209025,0.0759448325009349,-0.0177938745314339,3.99709115062786,-0.000535518781306341,0.00295130312775787,0.00197900174574588,1.51498012576069,1.54263924186349,-1.66172928865288,-0.101224493209025,0.0759448325009349,-0.0177938745314339,-0.933894737955906,1.63845840988679,-2.04145796669674,-0.044114463534258,0.229925819198886,0.0824441984785748
5.6,5.66595182954175,-1.61749030078017,1.98511749893277,0.15084549773885,0.0854144149590352,-0.023863277905235,1.46309281994707,1.64028509717122,-1.97184232792848,0.0711542016827697,0.249353889945727,0.032417767391992,4.11299250755786,-0.00349500863748727,-3.84824119991613e-05,-0.000465279608778415,1.46309281994707,1.64028509717122,-1.97184232792848,0.0711542016827697,0.249353889945727,0.032417767391992,-0.664101324191592,1.25235504626517,-1.70707424826012,-0.282653988219397,-0.000680874599791596,-0.0207276450517225
5.7,5.76920103842472,-1.44590394365696,1.71491369642829,0.249686140151418,0.193705392205243,0.0169490371305094,1.44639149040858,1.80206195648825,-1.96509611156078,-0.0430562203236597,0.156440868634915,0.000563574797989092,4.17004122206094,-0.00597134447519764,-0.00200506970751905,-0.000824356414930463,1.44639149040858,1.80206195648825,-1.96509611156078,-0.0430562203236597,0.156440868634915,0.000563574797989092,-1.59035454272241,2.03417155739754,-1.87968514633454,-0.482935040743768,-0.150903651622493,-0.0361263891533692
5.8,5.87854340165807,-1.23760832982874,1.58467443039287,0.225361988330196,0.189412524888775,0.0246481011049401,1.23263276784996,2.138999031918,-1.92891438760027,-0.146351121555047,0.0911418345746498,0.0104326317825978,4.07671148930864,-0.0048447178387261,-0.000646022498537231,-0.001649552982465,1.23263276784996,2.138999031918,-1.92891438760027,-0.146351121555047,0.0911418345746498,0.0104326317825978,-1.54077247662918,1.78452624827017,-2.00488677130555,-0.392230879151524,-0.0463844218916383,-0.0710684314153373
5.9,5.8834503920361,-0.998606213580808,1.56454975964475,0.159839404695305,0.154439960009733,0.0168781643276489,1.0616838909977,2.26607621502061,-2.16571905167103,-0.13332034598649,0.129360623720404,-0.022472318840531,4.11277134424323,-0.00374195929827901,-0.000849711887147966,0.000270901618417955,1.0616838909977,2.26607621502061,-2.16571905167103,-0.13332034598649,0.129360623720404,-0.022472318840531,-1.27109691311566,1.28790525768317,-1.78596328492865,-0.303539549599095,-0.0618831985088263,0.00994615346872279
6,5.8703538580259,-0.82839715421412,1.3063879174025,0.131933635174332,0.155148346925586,-0.0206361390668072,0.908564316896331,2.32379040750506,-2.26733503137375,-0.121832119601112,0.0991065818216139,-0.00133264531462718,4.22003488455287,-0.00349324211205956,-0.000789268661132091,0.00104058693105119,0.908564316896331,2.32379040750506,-2.26733503137375,-0.121832119601112,0.0991065818216139,-0.00133264531462718,-1.2696954057275,1.13674324235084,-1.54377558464466,-0.283252677410697,-0.0580057266008593,0.04237435945631
6.1,5.90814134909175,-0.619757190479511,1.1137565647614,0.155982702453955,0.17447084694901,0.015041120725964,0.810457844168275,2.48203903446486,-2.22363493797396,-0.105659302150496,0.119733900149573,0.0390326964461637,4.22698623165379,-0.00626263735768754,-0.00261582807260545,-0.00255407814216282,0.810457844168275,2.48203903446486,-2.22363493797396,-0.105659302150496,0.119733900149573,0.0390326964461637,-1.46927292904221,1.29138001608683,-1.58544985276409,-0.506650395851242,-0.198648010687494,-0.109320336803508
6.2,5.9038562448927,-0.419966513650717,0.966564183395825,0.136265633251025,0.166900282567056,0.0097099630181107,0.594720694711069,2.60407125425807,-2.33561235138157,-0.261882258909886,0.0220982128095839,-0.0602158674253028,4.29002205166578,-0.00284883681216496,-0.000659678798200442,0.00236984720287081,0.594720694711069,2.60407125425807,-2.33561235138157,-0.261882258909886,0.0220982128095839,-0.0602158674253028,-1.42341053040539,1.15178351168179,-1.42761048272848,-0.232142398083352,-0.0472361403811185,0.0984010538823175
6.3,5.86075411070512,-0.215481547497929,0.793189338519578,0.0466618886773846,0.122904193521212,-0.0399070079453451,0.42961742783044,2.7002956428626,-2.36448260431094,-0.140861327707765,0.0912194606919687,0.0411408059690928,4.27439852052367,-0.00320040808688313,-0.00122023628413846,-8.13025708253512e-05,0.42961742783044,2.7002956428626,-2.36448260431094,-0.140861327707765,0.0912194606919687,0.0411408059690928,-1.03015652795504,0.440208312577551,-1.33492330309224,-0.25942765616956,-0.0921050531969644,-0.00490047195909775
6.4,5.83855358203306,0.00549348468988065,0.634614647483296,0.0931645049384738,0.158803150126281,0.00944362176781843,0.379359131321803,2.65936679483582,-2.38900139456598,-0.166360555033975,0.0649884797425747,-0.00642623608413583,4.3235510340398,-0.00480675229646955,-0.00236144822851065,-0.000160841397482853,0.379359131321803,2.65936679483582,-2.38900139456598,-0.166360555033975,0.0649884797425747,-0.00642623608413583,-1.36902863436761,0.79154499941837,-1.30873001911105,-0.389808200922818,-0.179043344671775,-0.00824205468104969
6.5,5.83949004377143,0.177761490964543,0.426136145754133,0.0695314143974036,0.151107558252728,-0.0147898944497494,0.181360860707153,2.79017387925231,-2.45069887879191,-0.251381519026918,0.0106784173746714,-0.0111418825418931,4.42046794201307,-0.00303997362318978,-0.00136896299001877,0.00119454582547131,0.181360860707153,2.79017387925231,-2.45069887879191,-0.251381519026918,0.0106784173746714,-0.0111418825418931,-1.3184090142596,0.633795307942993,-1.09092616820975,-0.247264951420325,-0.103000887024129,0.0489993202815816
6.6,5.79518596951361,0.410774789454363,0.296241588344957,0.0275095493851729,0.137057049708821,-0.00943052521786336,0.0560697373847721,2.85119603324945,-2.39662780911334,-0.186480216728249,0.0507243063796585,0.0263126287110669,4.36108211545965,-0.00402058877080062,-0.00234933749600451,-0.000833907339053686,0.0560697373847721,2.85119603324945,-2.39662780911334,-0.186480216728249,0.0507243063796585,0.0263126287110669,-1.18892864488439,0.251135767650898,-1.17289814956962,-0.326138537038853,-0.178863642745758,-0.0364515973898439
6.7,5.77131744129338,0.640388102893031,0.177969824626556,0.0578819139980437,0.170384961361711,0.0213794434155123,-0.0217127658147347,2.83587793732039,-2.45996233557063,-0.231188692954565,0.0142517033119625,-0.00610413937821857,4.44244487147914,-0.0047769498697508,-0.00323638293538372,-0.000736228912745474,-0.0217127658147347,2.83587793732039,-2.45996233557063,-0.231188692954565,0.0142517033119625,-0.00610413937821857,-1.51465866766045,0.481717303643947,-1.0684313018557,-0.387704701577488,-0.24679385531883,-0.0322488714767497
6.8,5.70736612640415,0.796541613855995,-0.0441874564441513,-0.00542682667227179,0.126758437398543,-0.0234428390865053,-0.291496519490001,2.87967129952381,-2.50027594179551,-0.305789250191818,-0.0555389842637193,-0.031381044583524,4.49236309231624,-0.00114763663182607,-0.000798862218589577,0.0025828241781952,-0.291496519490001,2.87967129952381,-2.50027594179551,-0.305789250191818,-0.0555389842637193,-0.031381044583524,-1.13665652195315,-0.0221203750674173,-0.897490406572979,-0.0949103163903856,-0.0596345160608958,0.10792494531644
6.9,5.62715025033237,1.0299367909784,-0.155452108716388,-0.0275148960668087,0.1214936976681,-0.00727575030031191,-0.30409563649556,2.83062789459429,-2.40995213200316,-0.142065765536059,0.058585380850137,0.0663599837741905,4.40758939575735,-0.00483588951847625,-0.00351790545098711,-0.00280868488443245,-0.30409563649556,2.83062789459429,-2.40995213200316,-0.142065765536059,0.058585380850137,0.0663599837741905,-1.06968768521089,-0.234741626389139,-1.06311245348845,-0.391676741216143,-0.269506326751732,-0.11936334068174
7,5.61616177380862,1.22508275087408,-0.28717241461686,0.0471654638627057,0.184431143629185,0.0507446463706598,-0.374261003716663,2.78813522937246,-2.50712518652413,-0.300472771161529,-0.0515817203545046,-0.0409472369512488,4.57998893224218,-0.00431800441114826,-0.00380171602048951,-0.000392087853041682,-0.374261003716663,2.78813522937246,-2.50712518652413,-0.300472771161529,-0.0515817203545046,-0.0409472369512488,-1.69770199020737,0.346207771062471,-0.815382575698646,-0.351293874028947,-0.290672585829844,-0.0173350719981884
7.1,5.54490926109486,1.37893659541291,-0.501662961452395,-0.0559846807999119,0.121256788932735,-0.0168135386023193,-0.7050077927299,2.91223975763834,-2.49632958015103,-0.310264728381176,-0.0863713538363846,-0.0064106042790538,4.59921808055955,-0.00140850377608376,-0.00157293134703204,0.0011656973187949,-0.7050077927299,2.91223975763834,-2.49632958015103,-0.310264728381176,-0.0863713538363846,-0.0064106042790538,-1.11939491288391,-0.495952540485377,-0.693409962229342,-0.115781205705767,-0.119993666294274,0.0485856365123332
7.2,5.3970734387202,1.61895359468313,-0.585918000166108,-0.0675338072585721,0.110856013473858,0.00966339732735743,-0.699614128826686,2.70292171055387,-2.37968669032485,-0.190271936295014,-0.00136693308217217,0.0375545433312639,4.44952660027141,-0.00373081954874745,-0.00337191090876566,-0.00218075902845142,-0.699614128826686,2.70292171055387,-2.37968669032485,-0.190271936295014,-0.00136693308217217,0.0375545433312639,-0.976401121052612,-0.609993901981718,-0.985732542786138,-0.30286022511538,-0.258716846499434,-0.0924195888128585
7.3,5.33497554002421,1.72052552541593,-0.747132240258876,-0.0441180052323346,0.131189823490287,0.0172012120454398,-0.786215983690503,2.59153315279398,-2.57743017717206,-0.311429547758512,-0.0980081617950824,-0.049510496502089,4.64148272268846,-0.00134210917494859,-0.00200097747407089,0.00161518815605312,-0.786215983690503,2.59153315279398,-2.57743017717206,-0.311429547758512,-0.0980081617950824,-0.049510496502089,-1.20593717433312,-0.43021927799286,-0.615758630291088,-0.110933527384009,-0.153258665700271,0.0678531162316622
7.4,5.29546093512517,1.90093545008254,-0.947747166519505,-0.0738915165742418,0.125739937416774,0.0156445531231456,-0.898853661485872,2.65432238971104,-2.42214497533313,-0.187315747226966,-0.0152292514811688,0.0666142741016819,4.62477065962927,-0.00443028444120621,-0.00430314675746695,-0.00376978392839461,-0.898853661485872,2.65432238971104,-2.42214497533313,-0.187315747226966,-0.0152292514811688,0.0666142741016819,-1.14598533204071,-0.700854322544249,-0.658522772033493,-0.358962185001549,-0.330830318899538,-0.159181983661487
7.5,5.17338198007771,2.07097782157535,-1.03806715973449,-0.0532100256677239,0.136540212465597,0.0475730752003878,-1.0409955185722,2.48538156391876,-2.46092630678992,-0.348090897734176,-0.144297071037598,-0.0721669686418797,4.65347047581794,-0.00121077656813497,-0.00223716726506151,0.00135220401086606,-1.0409955185722,2.48538156391876,-2.46092630678992,-0.348090897734176,-0.144297071037598,-0.0721669686418797,-1.24006335712063,-0.554587742093411,-0.602729764806323,-0.10051095486731,-0.172038322839978,0.0570354068921262
7.6,4.9964940623804,2.12266741933864,-1.25736210885075,-0.193029709554574,0.0238337448346969,-0.0650026503396663,-1.27488060145559,2.37779194671888,-2.54905926922629,-0.268778645859312,-0.10333767547991,-0.00494110887109681,4.67996920812479,0.00294008603586932,0.00021443601007389,0.00335531133299897,-1.27488060145559,2.37779194671888,-2.54905926922629,-0.268778645859312,-0.10333767547991,-0.00494110887109681,-0.335089268280738,-1.77753471517496,-0.626507599250941,0.235643210932552,0.016259403497337,0.141727113737498
7.7,4.87088996190144,2.28178330749336,-1.40161996345161,-0.141597357337908,0.0686818332550599,-0.00112315846098824,-1.04606755472276,1.92858763132609,-2.32987778856436,-0.0574340828671621,0.011536566420584,0.073838633755314,4.46629849537733,-0.0029069217525162,-0.00288558660116077,-0.00341199755283287,-1.04606755472276,1.92858763132609,-2.32987778856436,-0.0574340828671621,0.011536566420584,0.073838633755314,-0.608305137689244,-1.25992732729199,-0.987651277089361,-0.23573356649119,-0.222382695817683,-0.143696432850648
7.8,4.83673073521386,2.22887484807025,-1.54090082687779,-0.0947795639591984,0.083088627783314,0.00413820197778171,-1.22361162596946,1.89612990942595,-2.70997146500219,-0.334861977847027,-0.150828980670201,-0.105117790150956,4.81596688081711,0.00246065864531146,1.33232587084388e-05,0.00483124231050751,-1.22361162596946,1.89612990942595,-2.70997146500219,-0.334861977847027,-0.150828980670201,-0.105117790150956,-0.792016862688544,-0.914829640910897,-0.254376315182922,0.195949374300723,0.000160364241547448,0.204148176817158
7.9,4.75507458425289,2.39968110244557,-1.78212228451364,-0.172949420118281,0.0575566166038584,-0.025939237557316,-1.26674607632989,1.97941552957361,-2.38717365073558,-0.0655783261217642,0.0177036125528261,0.123545745537764,4.69427638227524,-0.00269719840332841,-0.00306805116067371,-0.0045787597497534,-1.26674607632989,1.97941552957361,-2.38717365073558,-0.0655783261217642,0.0177036125528261,0.123545745537764,-0.573743282744053,-1.60131997470138,-0.576825248221661,-0.218263106818872,-0.236434643572366,-0.192778669362224
8,4.64302771692279,2.53994180434674,-1.80325162848638,-0.0785959023722661,0.118189914234764,0.0665164748338934,-1.29175678665534,1.61342375471668,-2.47275406745171,-0.294224637655171,-0.136207972894214,-0.0943227412820836,4.71557331550723,0.000264052108306456,-0.00172157987072716,0.00140834000704634,-1.29175678665534,1.61342375471668,-2.47275406745171,-0.294224637655171,-0.136207972894214,-0.0943227412820836,-1.05697017987653,-0.812537507596879,-0.473559371297043,0.0187101094129614,-0.134003253213207,0.059874421233714
8.1,4.55229664772459,2.52839743709041,-1.98358308488984,-0.186371225805432,0.0512982809488111,-0.0271613453397523,-1.50178609155677,1.75726642016527,-2.59124245752309,-0.16972993505238,-0.0751338673703442,0.038588236257489,4.87412593184434,0.000489673251428416,-0.00112750358476655,-0.000496986678169448,-1.50178609155677,1.75726642016527,-2.59124245752309,-0.16972993505238,-0.0751338673703442,0.038588236257489,-0.540067605266781,-1.79228833122539,-0.243159146436863,0.0383963995640013,-0.0876594868131297,-0.020437205763349
8.2,4.3837983916106,2.69618430845028,-2.16045477099004,-0.141017695933393,0.0774715329982783,0.0359792290007274,-1.43218476042348,1.3062228667981,-2.33405453020171,-0.152438792053431,-0.064337322219799,0.00126538148242454,4.68490349412521,-0.000560314648613147,-0.00201304640296678,-0.00171756030576287,-1.43218476042348,1.3062228667981,-2.33405453020171,-0.152438792053431,-0.064337322219799,0.00126538148242454,-0.67013232425734,-1.34190779220372,-0.561027671018001,-0.0467291072138859,-0.156400137595942,-0.0718988757589512
8.3,4.33246412916113,2.64468402330955,-2.19858442740485,-0.127290517352592,0.0949685892855038,0.037746970052899,-1.49441874772123,1.34082945631428,-2.58813090855704,-0.183219111994843,-0.0906447079853012,-0.0141657703639379,4.89681921045833,-0.000656726095050948,-0.00197849643511793,-0.00105471633366026,-1.49441874772123,1.34082945631428,-2.58813090855704,-0.183219111994843,-0.0906447079853012,-0.0141657703639379,-0.873602148748448,-1.2771512693904,-0.139371404068322,-0.0544540043958234,-0.153918040140739,-0.0438996431014325
8.4,4.16624011284601,2.70237561149556,-2.49155195408353,-0.189792636675717,0.0386140691075559,-0.00867327447450263,-1.70750232623807,1.15840609087287,-2.45950927599888,-0.223219125143999,-0.127814795593198,-0.0352457766372948,4.90647508005538,0.00318343922532874,0.000220176072360167,0.00210653195638444,-1.70750232623807,1.15840609087287,-2.45950927599888,-0.223219125143999,-0.127814795593198,-0.0352457766372948,-0.388063715105832,-1.84796842250918,-0.180440814489733,0.255495645365442,0.0152456375991081,0.089511014757412
8.5,3.9824667538915,2.71858547411871,-2.57387935378411,-0.21528980689541,0.0179230670293111,-0.0167968921714089,-1.61373814528278,0.813520024666733,-2.39774923364532,-0.053570773729375,-0.0375479970913329,0.0386973677620495,4.80907572956724,0.00133007025865654,-0.000464282869092556,-0.00103655702787438,-1.61373814528278,0.813520024666733,-2.39774923364532,-0.053570773729375,-0.0375479970913329,0.0386973677620495,-0.202885843816709,-2.05161274134621,-0.415397295000957,0.106518841602908,-0.0369792581636685,-0.0430991665576974
8.6,3.92676726341739,2.66710107704824,-2.69361846688126,-0.136787614443598,0.069368782727734,0.0326042308888649,-1.55782214274174,0.580398322933596,-2.49337079698194,-0.109848928324104,-0.0585908638404561,-0.0176446636831264,4.91026709809335,0.000463912738821934,-0.00119992335954403,-0.000698516274247713,-1.55782214274174,0.580398322933596,-2.49337079698194,-0.109848928324104,-0.0585908638404561,-0.0176446636831264,-0.630321679073209,-1.36041276162244,-0.104596165157407,0.0362948101318392,-0.094310965582066,-0.0288393660805817
8.7,3.85052217883842,2.63110900108157,-2.87713349043952,-0.159147337701024,0.0626294546418441,0.0151174613959559,-1.72260216327436,0.658217642588901,-2.4715363746103,-0.137093730920967,-0.0839853923219989,-0.00625445273522184,5.01310048270333,0.00115127481453446,-0.000815209254720314,-0.000406034012905955,-1.72260216327436,0.658217642588901,-2.4715363746103,-0.137093730920967,-0.0839853923219989,-0.00625445273522184,-0.595504631913121,-1.59810079224263,0.0700887592128829,0.0919539324758255,-0.0644808979559417,-0.0164983900146051
8.8,3.63126720910422,2.66065221742106,-3.04862966166021,-0.217601752856472,0.00756310110661552,-0.0207790225714129,-1.84248474227895,0.36140379381706,-2.40822712901602,-0.13838763295036,-0.105153873084637,-0.0340899777009062,5.01055701918952,0.00465675938261539,0.00117267172902138,0.00259809562845448,-1.84248474227895,0.36140379381706,-2.40822712901602,-0.13838763295036,-0.105153873084637,-0.0340899777009062,-0.118937735479409,-2.16143919499682,-0.0254836097225599,0.374776982296073,0.0884521082349126,0.110247011349562
8.9,3.48024849719719,2.59088693231376,-3.15313221459985,-0.215289993492975,0.00192438174524447,-0.0245383179075248,-1.70598942859672,-0.000370421534563903,-2.36754038813539,0.0299159519267018,-0.0136936405534452,0.0437003105151696,4.9820913007903,0.00204625515935173,0.000244872136458158,-0.000910526354786909,-1.70598942859672,-0.000370421534563903,-2.36754038813539,0.0299159519267018,-0.0136936405534452,0.0437003105151696,-0.070954965620161,-2.12755522251928,-0.0758637216429818,0.16460551874269,0.0177207325153153,-0.0378261440765892
9,3.43212248622631,2.47176304811537,-3.2777002764096,-0.135863984675611,0.0524225877762139,0.0231651491168682,-1.68054283275553,-0.17449161370588,-2.40570628306901,-0.0568691228983322,-0.0423715916826469,-0.0227397105042073,5.05522196226743,0.00157388338883004,-0.000356833135318398,-2.20807444526688e-05,-1.68054283275553,-0.17449161370588,-2.40570628306901,-0.0568691228983322,-0.0423715916826469,-0.0227397105042073,-0.493029999945339,-1.38121374432448,0.193511701537954,0.126169029975881,-0.0294889556979001,-0.000354642594461851
9.1,3.27637573725115,2.34564562292962,-3.48781425941671,-0.221513616612651,-0.0119874167622992,-0.0528012690468357,-1.92344164393885,-0.177119376266087,-2.42474181520163,-0.109770276306855,-0.104872664872,-0.04394169379987,5.21391520344581,0.00665746303453166,0.00222111123938769,0.00458802759297404,-1.92344164393885,-0.177119376266087,-2.42474181520163,-0.109770276306855,-0.104872664872,-0.04394169379987,0.00086077365050339,-2.29430511292627,0.362306046455863,0.536342683734068,0.169266816979796,0.194150886002745
9.2,3.13615540440443,2.42176961593408,-3.56587132062994,-0.179136008889562,0.0238324053556451,0.00186765863940641,-1.67669037892584,-0.553717251797942,-2.15976414667392,0.179266259571707,0.0610670963662021,0.120534110115961,5.00987544332854,-0.00151021740650587,-0.00138831677072251,-0.00579020974416508,-1.67669037892584,-0.553717251797942,-2.15976414667392,0.179266259571707,0.0610670963662021,0.120534110115961,-0.231616564445449,-1.78574964257003,0.0466150280814333,-0.121981634637322,-0.107443637313551,-0.24379493785214
9.3,3.07133010146928,2.19018300326205,-3.63614250049699,-0.0953856546258812,0.0565263342414114,0.0379230194338546,-1.82761555311278,-0.634580448513715,-2.43168364418126,-0.192352957180625,-0.117394214931542,-0.145100723749271,5.25472093516362,0.00486986560787793,0.0012227472822907,0.00507847922302021,-1.82761555311278,-0.634580448513715,-2.43168364418126,-0.192352957180625,-0.117394214931542,-0.145100723749271,-0.552670727688251,-1.02261973924155,0.63495918428872,0.391655856728779,0.0908776333688901,0.214802308002648
9.4,2.9390383532756,2.17620344524341,-3.84581153811235,-0.21283535140624,0.0114513858401628,-0.0385725080172355,-1.90261513308896,-0.463063735126919,-2.13815342176476,0.11770575517259,0.0294907907324853,0.129254629767093,5.18914912534652,0.000471760748544646,-0.000715788424426324,-0.0042957355263502,-1.90261513308896,-0.463063735126919,-2.13815342176476,0.11770575517259,0.0294907907324853,0.129254629767093,-0.200614146905627,-2.18611975937874,0.333456459316693,0.0380216131537919,-0.0551482173343263,-0.180772160518843
9.5,2.73992399153514,2.17764008490131,-3.90109493475381,-0.11951285774554,0.0445446448737395,0.0447424095700372,-1.88813613126615,-1.05286722209421,-2.23549611757799,-0.0864710986941095,-0.0876620685965066,-0.108038825537741,5.25818374516685,0.00416478201122053,0.00110204521015659,0.00300000812004038,-1.88813613126615,-1.05286722209421,-2.23549611757799,-0.0864710986941095,-0.0876620685965066,-0.108038825537741,-0.408405617142997,-1.27339262419831,0.620995219453938,0.335009628803029,0.0818449181222138,0.127062585355897
9.6,2.65646080336878,1.90709434779523,-4.03372042622698,-0.179184914870039,0.0122937761796812,-0.0319614557125833,-1.93839796662998,-0.881988826732483,-2.10842693190827,0.101444696769716,0.0127981405213394,0.0746319832490435,5.26910644284336,0.00139079028309242,-3.73994098094016e-06,-0.00201999458169171,-1.93839796662998,-0.881988826732483,-2.10842693190827,0.101444696769716,0.0127981405213394,0.0746319832490435,-0.187431653409248,-1.87316746914254,0.558705021935003,0.112017747777121,-0.000857002502269867,-0.0847935783562312
9.7,2.50954858293906,1.93329298811462,-4.1193012708207,-0.0944541450468368,0.0626101573588311,0.0511032475968396,-1.8928014541318,-1.21552145954777,-2.08060127679914,-0.00080801237273484,-0.0307231642870266,-0.0325100495253614,5.28731803506715,0.00129799297428053,-0.000461733411574943,-0.000879007248943172,-1.8928014541318,-1.21552145954777,-2.08060127679914,-0.00080801237273484,-0.0307231642870266,-0.0325100495253614,-0.606893142340904,-1.02967864288705,0.696872542386108,0.104097231926671,-0.037697692684348,-0.0366594823084977
9.8,2.38333061477099,1.7000980996563,-4.24814346561107,-0.155163470375777,0.0221142602365425,-0.0129655957427561,-2.09070878028702,-1.12264244998051,-2.05635988134754,-0.0142465108311094,-0.0660390156633401,-0.0260170960502863,5.38134157970061,0.00395409178577737,0.00115392864737032,0.00184676940646914,-2.09070878028702,-1.12264244998051,-2.05635988134754,-0.0142465108311094,-0.0660390156633401,-0.0260170960502863,-0.256675319150841,-1.66009403947234,0.820783336626976,0.318505644299465,0.0872946506252196,0.0783327494988088
9.9,2.18142465718403,1.69518560636758,-4.35060188867843,-0.146311476953187,0.01803520743881,0.000668653953938957,-2.00414262097553,-1.42623508808037,-1.91379521210761,0.120305140383676,0.012023602332089,0.0470584863796146,5.3472843924937,0.00121073003091555,-2.08907523780431e-05,-0.00225580201045567,-2.00414262097553,-1.42623508808037,-1.91379521210761,0.120305140383676,0.012023602332089,0.0470584863796146,-0.189765037862387,-1.55928862493377,0.768582594628841,0.0974346591808733,-0.00251188971365449,-0.094811532973788
10,2.07257518966641,1.46332603029855,-4.4226142727404,-0.0991885525920921,0.0385671919639654,0.020976387002656,-2.025809907913,-1.56842200284822,-1.92195913256587,0.00353016524322614,-0.0443942534255236,-0.0551226194937812,5.41284431368222,0.00306478027140922,0.000682148808546056,0.00161981047829628,-2.025809907913,-1.56842200284822,-1.92195913256587,0.00353016524322614,-0.0443942534255236,-0.0551226194937812,-0.392784336142415,-1.08050083545501,0.954468062403741,0.246711265975541,0.0506247855224898,0.0687061768144732
10.1,1.94670115117622,1.32757796189925,-4.53259008225962,-0.132425284534387,0.0238295097352389,-0.0107297819233937,-2.09407286102809,-1.52946139693315,-1.79287851559103,0.101477130045134,-0.00343965912744519,0.0408516340130742,5.4170541238862,0.00170150824384293,0.000120196753119532,-0.00142349744859826,-2.09407286102809,-1.52946139693315,-1.79287851559103,0.101477130045134,-0.00343965912744519,0.0408516340130742,-0.271221014798867,-1.42769235143217,0.926202086177573,0.137062953703015,0.00855402935950457,-0.0597310270038646
10.2,1.74323570634314,1.2180050062015,-4.62492185089137,-0.118548767399857,0.0112687642429543,-0.00118932277154171,-2.14120475580672,-1.80433647771823,-1.79052414459906,0.0274975550744028,-0.0519758387170402,-0.0524357666994096,5.51347705626152,0.00430867078672978,0.00153277603962038,0.0025492921007443,-2.14120475580672,-1.80433647771823,-1.79052414459906,0.0274975550744028,-0.0519758387170402,-0.0524357666994096,-0.124936386566224,-1.30402437037245,1.13886424888333,0.347128097214514,0.116424216610019,0.107881216260286
10.3,1.59633455848589,1.00041885855737,-4.7218193693325,-0.139088716127875,-0.00732197082188937,-0.0358022527982114,-2.10700946751191,-1.89158078582766,-1.61445138984207,0.154978778581396,0.0148316318770919,0.0425444889328461,5.49601190519581,0.00276536252200146,0.00096454350992997,-0.000302676378850373,-2.10700946751191,-1.89158078582766,-1.61445138984207,0.154978778581396,0.0148316318770919,0.0425444889328461,0.0251053477165334,-1.52581818356358,1.07557926986154,0.222922393963472,0.07377029098241,-0.0124887601718128
10.4,1.51775404382104,0.894455519327255,-4.71573738196014,-0.0386768408122853,0.0636430083257825,0.0464702270790095,-2.00094860116912,-2.01701540998576,-1.55034953302818,0.137946176731891,0.0314246117367446,0.0154956723175089,5.4390629175207,-0.000758686083565794,-0.00145602677842463,-0.00292527095208958,-2.00094860116912,-2.01701540998576,-1.55034953302818,0.137946176731891,0.0314246117367446,0.0154956723175089,-0.671046073577079,-0.452287360393426,1.03798391378602,-0.0614629778500855,-0.113183865976932,-0.123157991053578
10.5,1.38270158752789,0.665568911432782,-4.8241057571084,-0.0761297347523086,0.0325595230720758,-0.000701692450459477,-2.29191155565921,-1.86650286790427,-1.57847612987086,-0.0387898408614617,-0.100871949826594,-0.0779826951219472,5.58296178448732,0.00472923840098937,0.00161998556592036,0.00373171567311396,-2.29191155565921,-1.86650286790427,-1.57847612987086,-0.0387898408614617,-0.100871949826594,-0.0779826951219472,-0.363035882247563,-0.848983387507846,1.31768085919612,0.381022577908122,0.123241762323129,0.157725705181433
10.6,1.12537055162893,0.647704050667723,-4.91400525041646,-0.131460161122892,-0.0121192808141834,-0.028888993433136,-2.23064682902592,-2.01662386759984,-1.35650384022416,0.21326673628801,0.0391496538719658,0.083852858554597,5.54605961374287,0.00131060079003422,0.000198464171322555,-0.00258734780776838,-2.23064682902592,-2.01662386759984,-1.35650384022416,0.21326673628801,0.0391496538719658,0.083852858554597,0.0912116850409965,-1.45721812575185,1.18560388151787,0.1056878601284,0.0152395016185438,-0.108947886189901
10.7,0.970270353564011,0.409698987699086,-4.94441656414087,-0.0537632404794592,0.0153017990740815,0.00656579217299186,-2.17294302174333,-2.35168026668048,-1.37986215568139,0.0531229780689119,-0.0439124312412786,-0.0837197135928916,5.64043280797705,0.0040960321881044,0.00148186386631877,0.00366920276755221,-2.17294302174333,-2.35168026668048,-1.37986215568139,0.0531229780689119,-0.0439124312412786,-0.0837197135928916,-0.168377503907663,-0.607322369595351,1.453247204993,0.32997589847495,0.112645187944541,0.155036060893011
10.8,0.887075345997534,0.142079218870342,-5.01664119188996,-0.0915067970246377,-0.00196531442902616,-0.0428252267551201,-2.21258327313769,-2.1814632104172,-1.14514384989608,0.200368756349458,0.0280856523572611,0.0748107193448193,5.57079671039103,0.00175325438021793,0.000520718437796962,-0.00149466743346558,-2.21258327313769,-2.1814632104172,-1.14514384989608,0.200368756349458,0.0280856523572611,0.0748107193448193,-0.0218023189191815,-1.01810934283704,1.28495750234906,0.141385299105896,0.0400298056375253,-0.0628746788916487
10.9,0.708986320493739,0.0786672060327449,-5.00666878777222,-0.0278314659757019,0.0251436438612605,0.0181053221361251,-2.19202632300638,-2.37552204420363,-1.18327772328697,0.107496849963035,-0.0106460394777196,-0.0431560833200994,5.63832866092875,0.00204025568658678,0.000518641430311876,0.00119814573062263,-2.19202632300638,-2.37552204420363,-1.18327772328697,0.107496849963035,-0.0106460394777196,-0.0431560833200994,-0.277668902527767,-0.318884663602686,1.45872720880626,0.164234358426788,0.0388599313703063,0.0507353868697584
11,0.586318415730426,-0.150919977539604,-5.08110545809492,-0.0494833941788132,0.0167005931918848,-0.0211387774152666,-2.25950187644345,-2.24010977417383,-0.99479103939402,0.135953713322696,-0.00362372616439101,0.0242662020842644,5.60579217796669,0.00206130042992275,0.000423611146612492,-0.000136783134342664,-2.25950187644345,-2.24010977417383,-0.99479103939402,0.135953713322696,-0.00362372616439101,0.0242662020842644,-0.198682310878514,-0.55048426493818,1.3862992182064,0.166105216449563,0.0321654170913882,-0.00560710472467618
11.1,0.429243790290249,-0.200565463768446,-5.04748348341368,-0.00559036001329777,0.0440921134045792,0.0312049758522544,-2.2209835004365,-2.29954425031132,-0.952655176111743,0.164595345661009,0.0156942480269666,0.0153940294054777,5.60091065211136,-0.000411174414255007,-0.00100717899187411,-0.00219750077261928,-2.2209835004365,-2.29954425031132,-0.952655176111743,0.164595345661009,0.0156942480269666,0.0153940294054777,-0.491550068837412,-0.0779961778315134,1.38075938700353,-0.0333798354522932,-0.0781332220419244,-0.0925738268548265
11.2,0.297370623635282,-0.383455983296617,-5.08686870879318,0.0152417461597477,0.0519118012336296,0.0297022712911368,-2.32712626348645,-2.2099129123324,-0.872462457956463,0.0631637186418288,-0.0430747879356112,-0.0327109290812581,5.62895322934941,0.00104509149863919,-0.000412246304990287,0.00014501427837028,-2.32712626348645,-2.2099129123324,-0.872462457956463,0.0631637186418288,-0.0430747879356112,-0.0327109290812581,-0.588925942191558,0.154161640348896,1.43143488421613,0.0839921075992256,-0.0324406279506466,0.00625253947901192
