time,x,y,z,roll,pitch,yaw,xdot,ydot,zdot,p,q,r,thrust,roll angle,pitch angle,yaw angle,_xdot,_ydot,_zdot,_p,_q,_r,_xddot,_yddot,_zddot,_phiddot,_thetaddtot,_yawddot
0,4.01841953230695,5.01841953230695,0.0184195323069548,0.0184195323069548,0.0184195323069548,0.0184195323069548,0.0184195323069548,0.0184195323069548,0.0184195323069548,0.0184195323069548,0.0184195323069548,0.0184195323069548,9.32037427611558,-0.0108644040792062,0.00656341319697166,-0.00201127350690995,-0.090546467984892,0.125994799194768,4.86631868693214,-0.472082450684653,0.287709017371985,-0.0367675980580264,-0.211601472302234,0.210298696353148,1.07625027365118,-0.0624378452421184,-0.0705232468353223,0.0183305946153532
0.1,2.42036642022637,3.02036642022637,0.0203664202263731,0.0196657871546416,0.019076758813625,0.0183850983694594,-0.090546467984892,0.125994799194768,4.86631868693214,-0.472082450684653,0.287709017371985,-0.0367675980580264,5.4451686324975,-0.000774192978131034,-0.000916840547405446,0.000434437128058893,-0.090546467984892,0.125994799194768,4.86631868693214,-0.472082450684653,0.287709017371985,-0.0367675980580264,-0.211601472302234,0.210298696353148,1.07625027365118,-0.0624320114253517,-0.0705221951266139,0.0183415700308903
0.2,2.62527042130799,3.38865271281843,2.24006174892144,-0.214924644199305,0.134712416011317,-0.0177579246131849,-0.0567052317645949,0.0600144761832813,1.03724602182181,-0.0732975405612901,-0.00632197587300389,0.00812889843123085,6.65590639645132,0.000158088057142828,0.000236609940217551,0.000394279160506913,-0.0567052317645949,0.0600144761832813,1.03724602182181,-0.0732975405612901,-0.00632197587300389,0.00812889843123085,-1.79685134033827,-2.8075969844931,3.07771059058499,0.0127975049907993,0.0182731179849839,0.0166714107820417
0.3,2.63988601623952,3.3673184127216,0.775746749351938,-0.0543208216801443,0.0220552354426482,0.00885938251102162,-0.403522095581648,-0.494621387060151,2.49947277319602,-0.0343682085828427,0.0370703140472645,0.0113884337868753,6.42511860856844,-0.00562707777588752,0.00201099389824017,-0.00105616390212812,-0.403522095581648,-0.494621387060151,2.49947277319602,-0.0343682085828427,0.0370703140472645,0.0113884337868753,-0.276781877505259,-0.700171768894882,3.01816229329116,-0.45377015742892,0.15473864724712,-0.0445238812181336
0.4,2.44762766211902,3.08231692058883,1.59500801922094,-0.0607592771455797,0.0215528194161847,-0.00918359785541746,-0.300782138810604,-0.360839579075868,2.30556548504872,-0.30691952437802,0.0966026532624704,-0.0379952479597966,6.08836300804274,3.63106649920297e-05,0.000334163828897506,0.00210244970919017,-0.300782138810604,-0.360839579075868,2.30556548504872,-0.30691952437802,0.0966026532624704,-0.0379952479597966,-0.268717372220419,-0.736957258325991,2.34143371969252,0.00292488046897111,0.0256992047817285,0.0887588312707863
0.5,2.53970601606773,3.19392810816508,1.62286220424439,-0.142951335313614,0.0965386258035587,0.0131988799060541,-0.242237141385053,-0.33491109738582,2.12628751791016,-0.0395739315990278,0.0735761260728429,0.0712015755044124,6.12799694852676,-0.00386255136227368,-0.0029626868200868,-0.00403922047560104,-0.242237141385053,-0.33491109738582,2.12628751791016,-0.0395739315990278,0.0735761260728429,0.0712015755044124,-1.14614292501561,-1.76133048851203,2.26449616796858,-0.31135832968959,-0.227621057516016,-0.170335960701867
0.6,2.50859900900898,3.14585127904197,1.64927051366807,-0.0676597372265631,0.0598461268718012,0.0297432022721172,-0.431627505874714,-0.588412544119833,2.27817307995309,-0.240740453076009,-0.0938953509779245,-0.0930374066100486,5.98895615486733,-0.00184237670563324,0.00155833690941043,0.00295368083639024,-0.431627505874714,-0.588412544119833,2.27817307995309,-0.240740453076009,-0.0938953509779245,-0.0930374066100486,-0.690365917824224,-0.830702292610324,2.11911194935532,-0.148729173547354,0.119600809762572,0.124744419177441
0.7,2.44329138952195,3.04567014949118,1.9289000201296,-0.130828135633246,0.0215773362714182,-0.00601693718586213,-0.415242481540928,-0.569083747739669,2.24128141859888,-0.138696999523904,0.119704280064559,0.0880464505577757,5.79171090211608,-0.00238627666995351,-0.00288922394112078,-0.00391881725370156,-0.415242481540928,-0.569083747739669,2.24128141859888,-0.138696999523904,0.119704280064559,0.0880464505577757,-0.256871989599028,-1.50959989183972,1.67175882181288,-0.19223252738048,-0.221662335918785,-0.165230802145047
0.8,2.39612180801125,2.99448899484711,1.9837361408384,-0.125583343979072,0.0845021059405945,0.0387388693390659,-0.481270119598457,-0.737285096277445,2.1103490539244,-0.196446257391223,-0.0954776851924842,-0.0891421231085044,5.81261941632493,-0.000753448984588651,-0.00150788440828308,0.00244420270693728,-0.481270119598457,-0.737285096277445,2.1103490539244,-0.196446257391223,-0.0954776851924842,-0.0891421231085044,-0.916337412307167,-1.49271081930946,1.6825331443017,-0.0608971285601325,-0.116319900575328,0.103304570348658
0.9,2.35721821837157,2.89847367581283,2.08184817319775,-0.151980921201275,0.00398954391298251,-0.026262301486608,-0.535697745408198,-0.856216336547854,2.21942052383733,-0.122901223348312,-0.0290318079207395,0.0595529882808167,5.60032211562957,-0.00155275361077716,-0.000527440010011705,-0.00154865774011076,-0.535697745408198,-0.856216336547854,2.21942052383733,-0.122901223348312,-0.0290318079207395,0.0595529882808167,-0.0886839060370032,-1.69399388053323,1.26144756085512,-0.124996527145154,-0.0398016264768942,-0.065179916415273
1,2.2501987575163,2.75159651642324,2.22877746459187,-0.17272129490705,-0.0140389853973538,-0.00411371285231279,-0.633659855348079,-1.05327061415343,2.02857284815139,-0.19589905108713,-0.0382146713441943,-0.0644924561711951,5.58203840592426,0.00212599340150952,-0.00110453654641261,0.00327744826274923,-0.633659855348079,-1.05327061415343,2.02857284815139,-0.19589905108713,-0.0382146713441943,-0.0644924561711951,0.146500908982292,-1.91931941043091,1.18687962766094,0.171451801354425,-0.0849614939001526,0.138455048940584
1.1,2.19601507946862,2.63460339776282,2.27877802505299,-0.200389049705719,-0.00832966022925349,-0.0452669476975982,-0.607338436501736,-1.19471216823075,2.08711183833865,-0.0283583226673892,-0.0450941598043951,0.0559892443096778,5.45142052919554,-0.000420162651637955,-0.00210494870135821,-0.000483267070399411,-0.607338436501736,-1.19471216823075,2.08711183833865,-0.0283583226673892,-0.0450941598043951,0.0559892443096778,-0.00929811465937707,-2.17202137461948,0.874295944880881,-0.0336774457352802,-0.16090546304363,-0.0202221092010363
1.2,2.20603425459459,2.54986363472012,2.4672908996427,-0.0964466016211298,0.0255765364130532,0.0445339629850961,-0.538966619107141,-1.29157268898586,2.03400557045712,-0.100698531358247,-0.0673200174340785,0.00648475413824065,5.37841499887741,-0.00302473371964705,-0.00343135745881714,-0.00229918103541047,-0.538966619107141,-1.29157268898586,2.03400557045712,-0.100698531358247,-0.0673200174340785,0.00648475413824065,-0.22742717406434,-1.04701501923003,0.893337238011414,-0.243905714997031,-0.2638119954734,-0.0968611958423678
1.3,2.15276283248018,2.39072050466809,2.54522580842819,-0.168277840880392,-0.0236706105653434,-0.0115269285723171,-0.60137812080814,-1.52176195332875,1.92968470486322,-0.248233009604246,-0.160150917369334,-0.0665404062549496,5.29455092336682,0.00495113431375886,-7.33342448072099e-05,0.00371178745667971,-0.60137812080814,-1.52176195332875,1.92968470486322,-0.248233009604246,-0.160150917369334,-0.0665404062549496,0.226627785516705,-1.77624350472978,0.626602741277209,0.399289968994459,-0.00560377292568242,0.156741533485473
1.4,2.11786166273823,2.2455438390149,2.61171988615449,-0.219116041455572,-0.0504869396080922,-0.027020654194543,-0.582136182865971,-1.57389782881425,1.91134209543863,0.109063676525185,-0.00528863712832978,0.0870414647397484,5.21166153999339,-0.00136232660694179,-0.00360040173504726,-0.00284099723749425,-0.582136182865971,-1.57389782881425,1.91134209543863,0.109063676525185,-0.00528863712832978,0.0870414647397484,0.452040771565773,-2.27873003853968,0.351137366559126,-0.109807151521992,-0.27565108877618,-0.119819454495038
1.5,2.0646002084959,2.10498276225237,2.71558855059773,-0.0858372118597222,-0.00250504659641604,0.0309848107224608,-0.592222498262581,-1.75776214167374,1.8463251832293,-0.16212719070216,-0.175332943965072,-0.0716299586668295,5.18326798015461,0.000492359824079756,-0.00237393736591523,0.00193533164963062,-0.592222498262581,-1.75776214167374,1.8463251832293,-0.16212719070216,-0.175332943965072,-0.0716299586668295,0.0533937031702706,-0.887514094710549,0.518336538888338,0.0396918817507505,-0.182939562284454,0.081707943288278
1.6,2.0257668606887,1.9327928517603,2.81912985375073,-0.202241844051503,-0.0796395718027102,-0.0391841249776555,-0.53809487876507,-1.97841225489434,1.80676792736158,-0.0861945538563714,-0.1294561866314,0.0364348482531505,5.03201262719845,0.0050526445428892,-0.000818264127607308,9.69907553137723e-05,-0.53809487876507,-1.97841225489434,1.80676792736158,-0.0861945538563714,-0.1294561866314,0.0364348482531505,0.704536183362895,-2.05069403907702,0.0176592861965457,0.407433101699749,-0.0619079041977596,0.0040454924790428
1.7,1.98323213477033,1.70244362213356,2.84805660031961,-0.19923481908446,-0.0880214051143935,-0.0182977602210264,-0.591444544474099,-2.05157115521338,1.65871451214316,0.10334457479912,-0.098118559684593,-0.0211898915655778,5.0899928513194,0.00122373985368481,-0.00232957007421722,0.00182882949468435,-0.591444544474099,-2.05157115521338,1.65871451214316,0.10334457479912,-0.098118559684593,-0.0211898915655778,0.840185977906898,-2.03052866982575,0.129977351557425,0.0986576773265748,-0.178856686162023,0.0770410408002067
1.8,1.92275716156523,1.55068669341143,2.91857973963016,-0.116369861997361,-0.0822815246471612,-0.0369570297654493,-0.520044380236175,-2.26192800330021,1.70961762164591,-0.0462525796352647,-0.163702933482753,0.0206587908402109,4.93286069637072,0.0026239257804645,-0.0016601552404328,0.000725332321772704,-0.520044380236175,-2.26192800330021,1.70961762164591,-0.0462525796352647,-0.163702933482753,0.0206587908402109,0.762492922530889,-1.17445822008674,-0.044155897642181,0.211504777629508,-0.126970324566506,0.0304304998550642
1.9,1.95746174638121,1.38033375233212,3.08144276398663,-0.135439323466655,-0.0747140512104501,0.0213285369293483,-0.381270106730874,-2.38658811354398,1.57690464466891,0.0583249894930834,-0.108531957854782,0.0343834009263076,4.85067728661282,0.00202777118825218,-0.00301706867206374,-0.0026676440697933,-0.381270106730874,-2.38658811354398,1.57690464466891,0.0583249894930834,-0.108531957854782,0.0343834009263076,0.745295224475931,-1.2943309940414,-0.224306344260574,0.163458520193579,-0.231739146615203,-0.112830442450046
2,1.95347720219888,1.15588145995168,3.07363340068221,-0.109906729632553,-0.0784529166148996,0.011747660861044,-0.344400045059289,-2.51470746608614,1.45159385281676,0.0264407357826426,-0.188323149582189,-0.0589847527268891,4.89275257024596,0.00306135296238012,-0.00137682151661867,0.00221868513924515,-0.344400045059289,-2.51470746608614,1.45159385281676,0.0264407357826426,-0.188323149582189,-0.0589847527268891,0.774843054836,-1.06429999688671,-0.113454501133242,0.24696847917593,-0.10623373775513,0.0932902414487643
2.1,1.92604685552837,0.933002076646371,3.10137297001321,-0.135310796811949,-0.138903442317503,-0.0471490124494508,-0.290481476333671,-2.68746540859122,1.47757937191383,0.0626762808525546,-0.141548219010316,0.0367770284922258,4.80313562546391,0.0050895944981272,-0.000797394481501529,0.000492135805601686,-0.290481476333671,-2.68746540859122,1.47757937191383,0.0626762808525546,-0.141548219010316,0.0367770284922258,1.25535906507632,-1.35654395835997,-0.383213195729411,0.410171349870237,-0.0605422568999052,0.0203401585111367
2.2,1.92389636294202,0.695639117589114,3.19139068902167,-0.11670702986497,-0.12403187770551,-0.00670423463946832,-0.248806768744109,-2.7628074297211,1.38597393574597,0.170996506677649,-0.123072526307991,0.00196842139099781,4.76753817936176,0.00282389040023134,-0.00228961028972554,0.000239598849007433,-0.248806768744109,-2.7628074297211,1.38597393574597,0.170996506677649,-0.123072526307991,0.00196842139099781,1.16412912525756,-1.11811564713282,-0.412537473016885,0.22769157137822,-0.176026960856851,0.00962105352945332
2.3,1.94475772905593,0.528461573024825,3.27095937317013,-0.0325171831952092,-0.0954901127758265,0.014904089636503,-0.0760172448441008,-2.85243913435851,1.34480925927749,0.116343219985894,-0.162730659398557,0.0229886626346604,4.63706199079901,0.00168050123288272,-0.00209769174443712,-0.0017618397525553,-0.0760172448441008,-2.85243913435851,1.34480925927749,0.116343219985894,-0.162730659398557,0.0229886626346604,0.888169953181903,-0.288310392886947,-0.583006617664141,0.135494761906757,-0.161305086463626,-0.0748488759490554
2.4,1.97773318373179,0.286914008160789,3.3107054871745,-0.064464728878245,-0.138186590808843,0.00679972742388243,0.0227793109870642,-3.03943526168196,1.22404898240533,0.0632209020242524,-0.178022942779221,-0.0375316896355941,4.66680398405165,0.00659703040681848,0.00018227711018343,0.00144026206582985,0.0227793109870642,-3.03943526168196,1.22404898240533,0.0632209020242524,-0.178022942779221,-0.0375316896355941,1.28706681416194,-0.592533916249228,-0.584567745833336,0.532222162987343,0.0137086763623503,0.0602161383349507
2.5,2.02538713714642,0.017837754978796,3.32261235575889,-0.0708543112597018,-0.146198102466635,-0.0146165907866309,0.104022662025819,-3.03205083283494,1.21975775326446,0.29297344798578,-0.0811646079032645,0.0419735186187579,4.61741210504866,0.00245563574417543,-0.00204381695854763,-0.0013695676688153,0.104022662025819,-3.03205083283494,1.21975775326446,0.29297344798578,-0.0811646079032645,0.0419735186187579,1.33223480878415,-0.673323718795926,-0.696616228020993,0.197823147790074,-0.156943042691863,-0.0584023955496002
2.6,2.04650094809297,-0.175446649142689,3.39571818542116,0.0359931632076289,-0.111712913920938,0.0237203493458181,0.217301702987139,-3.08418985906914,1.11867008323059,0.138581315248659,-0.173463416561274,-0.0218609272993125,4.53327163146451,0.00280797140761368,-0.000993357333022266,-9.82847460267692e-05,0.217301702987139,-3.08418985906914,1.11867008323059,0.138581315248659,-0.173463416561274,-0.0218609272993125,1.00206744612547,0.350128771862163,-0.805807786642188,0.226752786742597,-0.0767205900802,-0.00468989207560395
2.7,2.10306040360263,-0.387346062016229,3.43129339425083,-0.0103616639828678,-0.154742895816065,0.00257899612066096,0.390349121283499,-3.20702022561982,1.12618585965023,0.167112539132408,-0.134432997697653,0.0103527213699309,4.48109877988137,0.00627684150250583,0.000605510325437293,-0.000827328664413424,0.390349121283499,-3.20702022561982,1.12618585965023,0.167112539132408,-0.134432997697653,0.0103527213699309,1.38146905425939,-0.0892991155661479,-0.955365393179681,0.506228784223354,0.0465514784265334,-0.0354586087129402
2.8,2.18457583522414,-0.678922878288293,3.47108685383053,0.00388081901899751,-0.151895782779608,0.00471131489892852,0.44046922483913,-3.15398999730861,0.963122379101582,0.327830869221493,-0.0761461170673484,-0.0124122899496341,4.52999512234236,0.00279722287515615,-0.000894091991383572,6.44335101495392e-05,0.44046922483913,-3.15398999730861,0.963122379101582,0.327830869221493,-0.0761461170673484,-0.0124122899496341,1.37069730005174,0.0416183188081361,-0.854393931120423,0.225774736234352,-0.0689041185309464,0.00219783843863238
2.9,2.18067751958841,-0.893656325005499,3.43817605221625,0.0550194486213014,-0.167360792076153,-0.0364320313911533,0.544659081767305,-3.22703167096775,0.953610331006685,0.170331043907958,-0.168076038234105,-0.0208680956020642,4.50743072631896,0.00641258821915214,0.00200837348180237,0.00233375821594976,0.544659081767305,-3.22703167096775,0.953610331006685,0.170331043907958,-0.168076038234105,-0.0208680956020642,1.51649060225503,0.440798394320931,-0.934546206582258,0.517147484886448,0.154488768357697,0.0980803290164257
3,2.28679175352284,-1.10064893524861,3.5214671681017,0.0355989308186286,-0.182126658526706,-0.0118082944713589,0.734293681788816,-3.18937457164238,0.983771076690219,0.367785392605709,-0.0198011353569118,0.0589751980731022,4.38305476125044,0.00369868386215445,0.000317231841329109,-0.00276229706058147,0.734293681788816,-3.18937457164238,0.983771076690219,0.367785392605709,-0.0198011353569118,0.0589751980731022,1.59029812584013,0.293240390013669,-1.19433762818583,0.297922614815759,0.0245222668560108,-0.116892067362541
3.1,2.40731823410288,-1.29835712002219,3.59937318339981,0.148846148254943,-0.108717574922117,0.0407348571570065,0.875768929497557,-3.11709319174271,0.778150043020802,0.28875134420872,-0.0649124327974925,-0.0425853960980549,4.31941304370382,0.00141818011430223,-0.000942430748784006,-0.00030947329267282,0.875768929497557,-3.11709319174271,0.778150043020802,0.28875134420872,-0.0649124327974925,-0.0425853960980549,0.874038331934935,1.3178003462925,-1.31713385186752,0.11504037218467,-0.072594363530773,-0.0132117578744329
3.2,2.49771646220257,-1.48546099495795,3.56017542176298,0.128905517856236,-0.140304053465302,-0.00521146334004444,1.08755278923968,-3.13552913202263,0.846255939531403,0.193667197943275,-0.131204798129314,0.00232225276416844,4.27373323262804,0.00647034910611474,0.00378486356263655,-0.000290876940127434,1.08755278923968,-3.13552913202263,0.846255939531403,0.193667197943275,-0.131204798129314,0.00232225276416844,1.19110625778034,1.09257417273932,-1.41674493808172,0.521725129843496,0.29114374437287,-0.0122789059616554
3.3,2.60247490587091,-1.80411962840941,3.57827652636338,0.043055901004302,-0.231090883131889,-0.056679724442067,1.06351709970562,-3.09138572665198,0.625748220335321,0.373705651187434,0.0159779495396937,-0.0469902789434759,4.58444120834534,0.00749392141360308,0.00389375829952977,0.00472273163908783,1.06351709970562,-3.09138572665198,0.625748220335321,0.373705651187434,0.0159779495396937,-0.0469902789434759,2.11707798308258,0.275163249632262,-0.893124382907519,0.60431104813788,0.299516766008304,0.199374535981612
3.4,2.69359213999903,-1.94547561725734,3.56725496107702,0.17879814316425,-0.133245937530655,-0.0408673055232879,1.25500299125967,-2.88768354742224,0.759305489526026,0.479949535083864,0.0618627785063825,0.101886177972239,4.1879975576579,-0.000823577669131091,-0.00035400413061498,-0.00323945186795292,1.25500299125967,-2.88768354742224,0.759305489526026,0.479949535083864,0.0618627785063825,0.101886177972239,1.15497470734426,1.44366346948298,-1.64059589785953,-0.0673507598243992,-0.0274679433929883,-0.136374249716406
3.5,2.80977590402914,-2.03517526009769,3.66960794617822,0.246736987453594,-0.11465868005453,0.0292558720256449,1.4577966079457,-2.89937089487449,0.506438250367771,0.142287237058997,-0.0841728989423904,-0.0737802814129617,4.20504384199365,0.00548553738249776,0.00423210884063473,0.00197788882916645,1.4577966079457,-2.89937089487449,0.506438250367771,0.142287237058997,-0.0841728989423904,-0.0737802814129617,0.872553226370165,2.08050280981644,-1.70816478951517,0.4433633675454,0.326023958913041,0.0840189729043523
3.6,3.01763784851735,-2.2703120088513,3.61616958181457,0.136820364516159,-0.167412722781484,-0.0300567534467113,1.62803967316226,-2.70082384241765,0.610889768348721,0.424072634860782,0.104624090948737,0.0507616025733547,4.22975731549882,0.00411819033809333,0.0039152230411197,-0.000164398460642405,1.62803967316226,-2.70082384241765,0.610889768348721,0.424072634860782,0.104624090948737,0.0507616025733547,1.43049511865265,1.11133848943062,-1.54670778263989,0.331710837131778,0.300957484120813,-0.00627039915899933
3.7,3.17933503257356,-2.42326052630523,3.6948195911899,0.253913489158765,-0.094758128983601,-0.00334924064433772,1.65327138640631,-2.5392002071576,0.251059380653136,0.377239921472213,0.0985682321634608,-0.00820725828154012,4.21391474155409,0.000138347782694322,0.0014158009629015,0.00085134168553866,1.65327138640631,-2.5392002071576,0.251059380653136,0.377239921472213,0.0985682321634608,-0.00820725828154012,0.778929280257435,2.11442225801384,-1.68899036526118,0.0117064805712822,0.109324787700233,0.0367850108941904
3.8,3.28060043253505,-2.49169503659204,3.56359512870354,0.270614924167336,-0.0859434921145739,-0.0112983058424592,1.85542535909551,-2.36680309922237,0.408090636758536,0.225068692586963,0.0121621197298653,0.0231406349403816,4.06999216142396,0.00364547303837459,0.0050566188034285,8.06660312241832e-05,1.85542535909551,-2.36680309922237,0.408090636758536,0.225068692586963,0.0121621197298653,0.0231406349403816,0.69783090176924,2.16826768239192,-1.99520684430863,0.294370020235593,0.389344555565694,0.00442081446105552
3.9,3.53644879158914,-2.59572464270757,3.70702152934395,0.252533391703105,-0.0878823720212107,0.034952622021438,1.9704743597083,-2.12894421682286,0.193470375241135,0.40612870391881,0.202552008549096,0.03271441223545,4.03859749812423,-0.000578222621806334,0.00213356578306351,-0.00228421414262537,1.9704743597083,-2.12894421682286,0.193470375241135,0.40612870391881,0.202552008549096,0.03271441223545,0.615499693344431,2.04090564463646,-2.01917569928541,-0.045850173199216,0.164980421133271,-0.0952543443378474
4,3.69193196777368,-2.67889991074077,3.63053859271531,0.334928604697141,-0.0152811460006162,0.0189316918798118,2.01595312228562,-1.93469801961841,-0.00949639368349731,0.222064821579829,0.0851201015261415,-0.0345821449694128,4.04735990795096,0.000370758660938339,0.00267868030754098,0.00128557206710847,2.01595312228562,-1.93469801961841,-0.00949639368349731,0.222064821579829,0.0851201015261415,-0.0345821449694128,0.066428300690307,2.66248314880508,-2.16596574699253,0.0311142987045033,0.207813297450237,0.0554429851421778
4.1,3.83170717048968,-2.75091515295318,3.54208952229322,0.266068202257563,-0.0667111773603738,-0.0127410922375224,2.05968790467601,-1.64985313961807,0.0729114035994378,0.252486041907511,0.10309151662164,0.0348083615951826,3.96109370536658,0.00214215266776733,0.00568942449055695,-0.00013950395856505,2.05968790467601,-1.64985313961807,0.0729114035994378,0.252486041907511,0.10309151662164,0.0348083615951826,0.536022002798845,2.07639942868544,-2.18357887368858,0.173395705247036,0.438706969743348,-0.00464587581817587
4.2,3.98264436183871,-2.80311945331438,3.59648159342876,0.267467849693661,-0.0748617721398697,-0.0105772318477706,2.03316346928305,-1.49867928202251,-0.371105970862148,0.314060529046075,0.22605124762418,-0.014360363269826,4.14292845212113,4.21844246139913e-05,0.00310702698073821,0.00197026931811228,2.03316346928305,-1.49867928202251,-0.371105970862148,0.314060529046075,0.22605124762418,-0.014360363269826,0.620808547380652,2.1834263654046,-1.84114370239151,0.00449356210897646,0.241089102031458,0.0844040722177634
4.3,4.104572345072,-2.82502991244436,3.38868828868844,0.329390101991495,0.00351963206359404,-0.0167814687130486,2.13441662276909,-1.21095100477615,-0.312260725934907,0.245382203840141,0.14700302947531,0.047380523450729,4.00959037840117,-0.00161679543927247,0.00291606128121291,-0.00099314435314963,2.13441662276909,-1.21095100477615,-0.312260725934907,0.245382203840141,0.14700302947531,0.047380523450729,0.016824556376073,2.59401507702734,-2.22197899813618,-0.129620368093615,0.226187401960272,-0.0406997837766495
4.4,4.28361083444598,-2.80283418107597,3.40284169981624,0.320292377039808,-0.0176377751985297,0.0181695604767352,2.17214215779115,-0.937150361781134,-0.416381524578742,0.172227527709694,0.162376495892244,-0.0134220046277757,3.9344877567385,-0.000444385991861139,0.00452620067106079,0.000126865611673808,2.17214215779115,-0.937150361781134,-0.416381524578742,0.172227527709694,0.162376495892244,-0.0134220046277757,0.0866915832880655,2.47948470012551,-2.34237548996128,-0.0346394416158358,0.351680986422907,0.00650931494178487
4.5,4.45084188657053,-2.79663349725419,3.36432800427038,0.289150620739331,-0.0131408971062232,-0.0201479011332157,2.15419292200312,-0.717481732949746,-0.686452793798152,0.208573104004832,0.225334535984717,-0.00060853353330373,4.03105028734328,-0.000814792229630014,0.00337681727375499,0.00125883748046598,2.15419292200312,-0.717481732949746,-0.686452793798152,0.208573104004832,0.225334535984717,-0.00060853353330373,0.147834740566905,2.29630062707122,-2.08325333688523,-0.0647924948888893,0.262987374853167,0.0541695306688966
4.6,4.58916228974612,-2.76644292525806,3.22067471019717,0.31931910676499,0.0312453584844964,-0.0126565268524462,2.17673844183416,-0.451952054110807,-0.793114704193717,0.194314860819854,0.198219652453551,0.0292365089003388,4.01259958094984,-0.00283573045389418,0.00277564580345206,-0.000682994471143176,2.17673844183416,-0.451952054110807,-0.793114704193717,0.194314860819854,0.198219652453551,0.0292365089003388,-0.206132465824602,2.52208265512407,-2.19419865835442,-0.227965312275164,0.216898701320485,-0.0279364112754529
4.7,4.75498214884163,-2.68465431826069,3.13603987763911,0.340080473793069,0.0441601523749266,0.0152722728268347,2.18697632036877,-0.150654054984885,-0.864735013351648,0.111266296908386,0.201129019111639,-0.00118821955474165,3.94217243313453,-0.00309478529393414,0.00286858963875705,-0.000714218400612649,2.18697632036877,-0.150654054984885,-0.864735013351648,0.111266296908386,0.201129019111639,-0.00118821955474165,-0.368251635167623,2.62460765433076,-2.38445494496949,-0.248854118250972,0.225284312628517,-0.0294231148575066
4.8,4.94154071846644,-2.57108826446605,3.10595487027763,0.335720892080922,0.0802602019639788,0.0247286638974096,2.18558741296137,0.149723760331234,-1.03570055334342,0.107183200578636,0.232351470283215,0.0147986674237887,3.91338374998113,-0.00443168232859753,0.00123145775955928,-0.00198311843297947,2.18558741296137,0.149723760331234,-1.03570055334342,0.107183200578636,0.232351470283215,0.0147986674237887,-0.656048027442936,2.56308988393329,-2.44396573921675,-0.356891898270418,0.0994282383480572,-0.0831649875109771
4.9,5.00700219843762,-2.54111071102225,2.92154236683173,0.264049564140644,0.0310770455543156,-0.044629961183401,1.98797775176989,0.327990458320818,-1.25486430461482,-0.0258536269616121,0.110870231640718,-0.0793751404637503,4.0436620297176,0.00163586084953247,0.00566084742514773,0.00578791767348174,1.98797775176989,0.327990458320818,-1.25486430461482,-0.0258536269616121,0.110870231640718,-0.0793751404637503,-0.148168334133041,2.11944699754945,-2.00674420439402,0.132205619539202,0.440837848819648,0.244478351321234
5,5.11062641606983,-2.42751040069853,2.7977930435346,0.236573861450208,0.0169291096175966,-0.0504574331362742,2.02244948070746,0.574499074515528,-1.38800971165138,0.246076228063844,0.322962152729317,0.118352677164306,4.09544002516768,-0.00564984357551788,0.00141330294094838,-0.0033837633395558,2.02244948070746,0.574499074515528,-1.38800971165138,0.246076228063844,0.322962152729317,0.118352677164306,-0.0378008226206589,1.92407889226088,-1.84840421064048,-0.455568776093788,0.111027354603281,-0.142637809448108
5.1,5.28671813898477,-2.25510878162612,2.65507949381399,0.400116910655196,0.154358834764652,0.0593789796917651,2.08895931347988,0.838249172309802,-1.46008061511414,-0.0433479809294751,0.212464382228269,-0.0480701054668866,4.08089136557594,-0.00691722306310407,-0.00108444972781465,-0.000609015370486023,2.08895931347988,0.838249172309802,-1.46008061511414,-0.0433479809294751,0.212464382228269,-0.0480701054668866,-1.34236424745245,3.10503772893772,-2.38224823519501,-0.558149331809263,-0.0761852670057755,-0.0259331532258834
5.2,5.43235270297616,-2.11486516877557,2.51462441333346,0.274334431051255,0.120443649220558,-0.0170673319820792,1.86075568666359,1.28674901638957,-1.36539256680017,-0.120004808828348,0.0931730870751493,0.00141473119716222,3.86619451514679,-0.00233204416200735,0.00384692822152788,0.000653892803368798,1.86075568666359,1.28674901638957,-1.36539256680017,-0.120004808828348,0.0931730870751493,0.00141473119716222,-0.858444907419822,2.10971094853071,-2.42068121066771,-0.188533080272667,0.30115546403735,0.0271080246338474
5.3,5.4900756498981,-1.89013329508761,2.5903774730155,0.216908043362148,0.0629242322504816,-4.36588773883567e-05,1.8040710520694,1.33712506604031,-1.88685814220945,0.0367955427249291,0.285829295356318,0.0161201041007723,4.09999877386156,-0.00464725053316877,0.000801191367719825,-0.000853842021597881,1.8040710520694,1.33712506604031,-1.88685814220945,0.0367955427249291,0.285829295356318,0.0161201041007723,-0.503478401950826,1.7647529027275,-1.81799671710847,-0.375354405697853,0.066787127627916,-0.036602988603525
5.4,5.60377031732279,-1.77240244294866,2.20849308703005,0.295177283788109,0.16924686752783,0.00869477443012615,1.7797681846183,1.56067771838134,-1.83609844417881,-0.0631207377537926,0.183009283585429,-0.00711209305100611,4.18379233240838,-0.00670643131056704,-0.000758239558266698,-8.54170956802874e-05,1.7797681846183,1.56067771838134,-1.83609844417881,-0.0631207377537926,0.183009283585429,-0.00711209305100611,-1.36959254614087,2.42239304549464,-1.91869457481392,-0.54185298100801,-0.0524917585901983,-0.0045127073560654
5.5,5.67426199148506,-1.61375698202896,2.04713898600554,0.226341552228202,0.113253810558913,-0.0253783081845278,1.51657293995664,1.872009428847,-1.79420259287362,-0.194222741815592,0.0985679210932005,-0.0128138385513974,4.06496739069772,-0.00241984152765019,0.003130102298443,0.00179067614013114,1.51657293995664,1.872009428847,-1.79420259287362,-0.194222741815592,0.0985679210932005,-0.0128138385513974,-0.848759278642208,1.84660274686547,-1.93818283164994,-0.19633427926433,0.246253900128502,0.0744529131578154
5.6,5.70177564457201,-1.38174088046336,2.0388856746072,0.160220889046633,0.0850539520061701,-0.0201554696236003,1.484947734282,1.97551765893961,-2.10273451116997,-0.0336256308008973,0.260194261319626,0.029985164029201,4.18084164545357,-0.00466603361637515,5.24823162103978e-06,-0.000467832389308446,1.484947734282,1.97551765893961,-2.10273451116997,-0.0336256308008973,0.260194261319626,0.029985164029201,-0.674211244847607,1.3478536596253,-1.58525215176834,-0.377480018290024,0.00516631954764612,-0.0209015620081428
5.7,5.81113660181144,-1.18779625686054,1.75818841539854,0.247998358915339,0.189306154780959,0.0150958065279298,1.46455404257628,2.13551403435108,-2.06623037069571,-0.122942588145365,0.161553700580161,0.00216051942291162,4.26653445607899,-0.00745020944462788,-0.00166742852731498,-0.000791370835080078,1.46455404257628,2.13551403435108,-2.06623037069571,-0.122942588145365,0.161553700580161,0.00216051942291162,-1.58804579274252,2.07082568160551,-1.68577347581982,-0.60264311280155,-0.122433001938713,-0.034823250240698
5.8,5.92317074977743,-0.953567752946425,1.63222532660373,0.228992980417423,0.183297724445143,0.0243051004217184,1.23738263269571,2.48504651723783,-2.01336054671532,-0.245170580201511,0.10979942815853,0.0127687763314172,4.20542719185892,-0.00634002598014545,-0.000707967647558733,-0.00177970962707721,1.23738263269571,2.48504651723783,-2.01336054671532,-0.245170580201511,0.10979942815853,0.0127687763314172,-1.53901055468882,1.87238882510929,-1.75592785826525,-0.513360516420681,-0.0487199637781256,-0.0766522612267353
5.9,5.92524204024799,-0.686519818808646,1.6087548122708,0.149935566405493,0.154637840788874,0.0166314657483091,1.06476191047283,2.62576249704325,-2.20506938786615,-0.238984648172209,0.132779947825761,-0.0238510858572975,4.20751674224182,-0.00467428723008171,-0.000706903319187562,0.00030413770533275,1.06476191047283,2.62576249704325,-2.20506938786615,-0.238984648172209,0.132779947825761,-0.0238510858572975,-1.30228861183189,1.23550366335514,-1.58866412227855,-0.379355457930785,-0.0485497679995941,0.0112589088613645
6,5.91114459121197,-0.487858482444961,1.36680174543595,0.112844524873186,0.149585991119748,-0.0207598130960546,0.91065634050113,2.65126933928454,-2.29827986675223,-0.20853844524447,0.111898852028324,0.000826030112865897,4.2916543808249,-0.00435814073863177,-0.000590001229431644,0.000900881472702809,0.91065634050113,2.65126933928454,-2.29827986675223,-0.20853844524447,0.111898852028324,0.000826030112865897,-1.25068684349906,0.992701142034455,-1.37652407604575,-0.353700429406393,-0.0406703657655973,0.0364128918506406
6.1,5.94956525051781,-0.264613213479335,1.17262823667098,0.139273859273243,0.173266818057297,0.0165169175514938,0.822927781484037,2.77724196086299,-2.25632493199912,-0.193383815628649,0.134346509235089,0.0372180750286152,4.33212226683311,-0.00706483427400597,-0.00271389361109868,-0.00262539612888773,0.822927781484037,2.77724196086299,-2.25632493199912,-0.193383815628649,0.134346509235089,0.0372180750286152,-1.49892617471257,1.17820963972925,-1.35812590564818,-0.572139430992183,-0.204292586281576,-0.112380510168225
6.2,5.9490669047753,-0.05433047532834,1.01636251730821,0.113871930983019,0.167638347265245,0.00841675816584727,0.593136388262142,2.8958122015191,-2.32575758846124,-0.350057261726995,0.0248078606926947,-0.060729146671904,4.37731858160491,-0.00341122229488886,-0.000544121148629801,0.00235565354149504,0.593136388262142,2.8958122015191,-2.32575758846124,-0.350057261726995,0.0248078606926947,-0.060729146671904,-1.45960929929613,0.982504150099599,-1.23399287850693,-0.278304402049527,-0.0365933945210302,0.0977709625994018
6.3,5.90191052253863,0.167613255587959,0.863567949376019,0.0187904533296709,0.118480249029938,-0.0388644236242174,0.42565694754334,2.96151647762385,-2.34907749955885,-0.222053957368789,0.104635301262583,0.0417371760020636,4.33246828421715,-0.00355880006127799,-0.00113676687046748,-0.000241295792310907,0.42565694754334,2.96151647762385,-2.34907749955885,-0.222053957368789,0.104635301262583,0.0417371760020636,-1.01694368412097,0.202474380200211,-1.20732858911378,-0.289193266922231,-0.084273038759935,-0.011647241996813
6.4,5.87873352340219,0.397007499522863,0.707490610805472,0.0631828045744487,0.159752890428836,0.0111050592341421,0.390185475173239,2.87250874527938,-2.37207287217484,-0.240853813019303,0.0749361880821213,-0.00919320535322401,4.37837443453321,-0.00495478613348322,-0.00239288582351034,-0.000190060847153554,0.390185475173239,2.87250874527938,-2.37207287217484,-0.240853813019303,0.0749361880821213,-0.00919320535322401,-1.39624797763204,0.537435947663443,-1.1820045814214,-0.402648175128542,-0.180176538179233,-0.0094429859772764
6.5,5.88381690972933,0.57069922684261,0.498392887851329,0.0376891509484616,0.151294405187738,-0.0151367876968765,0.179492594951058,2.97872279382427,-2.43184145557573,-0.317754973859372,0.0175067664101779,-0.011226930762252,4.47682837492761,-0.00310535688692317,-0.00135405328359408,0.00114075085020154,0.179492594951058,2.97872279382427,-2.43184145557573,-0.317754973859372,0.0175067664101779,-0.011226930762252,-1.3432567303875,0.357748634224503,-0.964908340485827,-0.253435866419941,-0.100811994187132,0.0467923651609484
6.6,5.83644902124349,0.806610863238865,0.371862653160519,-0.00503316553147554,0.136112364085685,-0.00837875068103601,0.0525874632614827,3.00343467351665,-2.36253529944225,-0.250056804282625,0.0592925649873266,0.0255627756639791,4.40079866669898,-0.00392594861553062,-0.00234808952069958,-0.000919481320504579,0.0525874632614827,3.00343467351665,-2.36253529944225,-0.250056804282625,0.0592925649873266,0.0255627756639791,-1.1946246098216,-0.0342915683202089,-1.08991905145205,-0.319422954276854,-0.177920826751465,-0.0399705404821531
6.7,5.8114137712424,1.03461450222474,0.262187690796404,0.022640462558531,0.171045070419593,0.0221409590854252,-0.0202247528626418,2.95115415115327,-2.43017383929408,-0.287980227703471,0.0214577371686833,-0.00767360538356037,4.47380569651631,-0.00445758770497957,-0.00325612350479599,-0.000755302299535004,-0.0202247528626418,2.95115415115327,-2.43017383929408,-0.287980227703471,0.0214577371686833,-0.00767360538356037,-1.52671418666568,0.16880197352499,-0.995217000589582,-0.362872365367543,-0.24767944605174,-0.0329313140324847
6.8,5.74861949166604,1.18687277947869,0.0409375044544551,-0.0414019771858307,0.127010582127859,-0.0231997682389375,-0.295076532662938,2.95875208770418,-2.47446920144035,-0.352213376991443,-0.0482089042761961,-0.03161054339227,4.51137853452594,-0.000780453464728093,-0.000841704197169858,0.00255436215473202,-0.295076532662938,2.95875208770418,-2.47446920144035,-0.352213376991443,-0.0482089042761961,-0.03161054339227,-1.1502835526189,-0.346862693769466,-0.867590976287699,-0.0662099825766122,-0.0624932927891892,0.106873620997
6.9,5.66705767049063,1.41223336394213,-0.0704434317423841,-0.0621371021861927,0.121779048965594,-0.0063861395167367,-0.304936665303649,2.86535344106931,-2.38722102285158,-0.185250959793751,0.0648884400469019,0.0658479972200928,4.41831249072079,-0.00430397958435579,-0.00348703590804627,-0.00286133929528702,-0.304936665303649,2.86535344106931,-2.38722102285158,-0.185250959793751,0.0648884400469019,0.0658479972200928,-1.07486866869657,-0.541875836376649,-1.05574566364199,-0.34968581074979,-0.266820726007787,-0.121418309259764
7,5.65595675952242,1.59624504271753,-0.198659590283818,0.0113251430804792,0.185926339875366,0.0522961197619838,-0.372726246266655,2.79294950908036,-2.49329431621476,-0.335015601066744,-0.0441667126267314,-0.0420267337843635,4.58229760591039,-0.0036520371741083,-0.003838723533472,-0.000431822910308727,-0.372726246266655,2.79294950908036,-2.49329431621476,-0.335015601066744,-0.0441667126267314,-0.0420267337843635,-1.6971401014921,0.0150953784558571,-0.803930213351386,-0.298493635009754,-0.293502039646753,-0.0188189554128053
7.1,5.58527487815208,1.7401638484132,-0.414380439615355,-0.0905283438844444,0.1223165912573,-0.0166880623181663,-0.706999018187691,2.88419384568059,-2.4929714802098,-0.33662080103412,-0.0796055212605812,-0.00733642723467693,4.60168714797945,-0.000735178573737206,-0.00163259560124277,0.00120152297258339,-0.706999018187691,2.88419384568059,-2.4929714802098,-0.33662080103412,-0.0796055212605812,-0.00733642723467693,-1.13205075484659,-0.813251062672955,-0.712792613717681,-0.0623676278452359,-0.124634853209469,0.0503016736166323
7.2,5.43720909142219,1.96460024701253,-0.505069852819118,-0.100375650039494,0.112345197426991,0.0100499085534508,-0.700621078860331,2.63231563430995,-2.37741393579742,-0.213786328306233,0.00362663633161858,0.0382972198312312,4.43929394498147,-0.00289365871213671,-0.00334420955814394,-0.00224528226362799,-0.700621078860331,2.63231563430995,-2.37741393579742,-0.213786328306233,0.00362663633161858,0.0382972198312312,-0.981368437651923,-0.899606208073317,-1.03179132283965,-0.236192133076049,-0.256782259240666,-0.0949334729271756
7.3,5.37396712446012,2.04863345222014,-0.66060150311456,-0.0771513579132451,0.132915904133219,0.0194653144173587,-0.783616021017484,2.49808473285561,-2.59498840851287,-0.324994850704617,-0.0904953320321959,-0.0509921029022773,4.62474166215389,-0.000470373686657399,-0.00205635271185679,0.00156761340675696,-0.783616021017484,2.49808473285561,-2.59498840851287,-0.324994850704617,-0.0904953320321959,-0.0509921029022773,-1.20803287465657,-0.736555258557411,-0.669371756192687,-0.0414920844840588,-0.157949254926142,0.0660660321222895
7.4,5.33556243061685,2.21519405065652,-0.868815181136943,-0.103893743275019,0.127707129289131,0.0158837043781756,-0.897445026422782,2.5271481768551,-2.44932067595763,-0.195987128676418,-0.0100087777778812,0.0653789668513734,4.61036160728721,-0.00353297738852567,-0.0042592008166467,-0.00374034946085211,-0.897445026422782,2.5271481768551,-2.44932067595763,-0.195987128676418,-0.0100087777778812,0.0653789668513734,-1.15268612055503,-0.974684102550549,-0.71367974357176,-0.287407957308861,-0.327851269883748,-0.157723237912616
7.5,5.21337656693729,2.36419252390495,-0.965328458532838,-0.0816873529573635,0.139386992322211,0.0491018280900243,-1.04043874428391,2.33447050949568,-2.49710509180087,-0.352230263184635,-0.136294313101102,-0.0716917504273442,4.63357318015242,-0.000232691612668576,-0.00232607310367249,0.00123313063579093,-1.04043874428391,2.33447050949568,-2.49710509180087,-0.352230263184635,-0.136294313101102,-0.0716917504273442,-1.24458669151775,-0.818240153207562,-0.663334559398882,-0.0224188876019875,-0.179599967744655,0.0522311099704522
7.6,5.0359736063781,2.39721937817798,-1.18816890695142,-0.220031288612828,0.0264681269490278,-0.064277884300996,-1.27429376202452,2.20406996640588,-2.5982149856327,-0.26565010055667,-0.0996761911995121,-0.00785617068783245,4.6721498345274,0.00390027620312744,0.000109082145425525,0.0034482002953679,-1.27429376202452,2.20406996640588,-2.5982149856327,-0.26565010055667,-0.0996761911995121,-0.00785617068783245,-0.371840406723326,-2.0197747185663,-0.694179625329054,0.312328114855691,0.00755345118099181,0.145854415039449
7.7,4.91047903670943,2.53656749083231,-1.34059737358798,-0.165470292834836,0.0705513503157323,-0.00128029795471184,-1.0497040832889,1.71932305289887,-2.38805820726168,-0.0512898199762317,0.0137493290499318,0.0756014794347572,4.45745351110979,-0.0018331888254655,-0.00280920180084908,-0.00349949450937572,-1.0497040832889,1.71932305289887,-2.38805820726168,-0.0512898199762317,0.0137493290499318,0.0756014794347572,-0.621732781930222,-1.46763497099514,-1.03873651321514,-0.149809716322546,-0.21716568632451,-0.147191546020375
7.8,4.87402364872402,2.45741507113616,-1.4786886396655,-0.116967770654347,0.0855933810832957,0.00769042639264531,-1.22446187111144,1.68387677073518,-2.77260947422005,-0.319877382086219,-0.142093706552277,-0.107331892495006,4.799941335312,0.00338107390908693,-0.000169712892020317,0.004751615412287,-1.22446187111144,1.68387677073518,-2.77260947422005,-0.319877382086219,-0.142093706552277,-0.107331892495006,-0.806436054637817,-1.12655328258877,-0.310616552585349,0.269467002374879,-0.0148726236210981,0.200984181668876
7.9,4.79324557288007,2.6132703436427,-1.72895372982965,-0.190977178355343,0.0609998695310248,-0.0261526885604935,-1.27031290192108,1.7473866541145,-2.45883147346658,-0.0530158117519661,0.0164858468663012,0.121347567535599,4.68660278781343,-0.00170451125070973,-0.00299505530700788,-0.00448011667674447,-1.27031290192108,1.7473866541145,-2.45883147346658,-0.0530158117519661,0.0164858468663012,0.121347567535599,-0.607355009322752,-1.76392790655796,-0.62432305183342,-0.138824967540279,-0.231483800946489,-0.188438965640038
8,4.68017616052268,2.73083081278953,-1.76014212600092,-0.09662286380018,0.120118848332587,0.0683195893874891,-1.30178573573395,1.37274728215075,-2.55522324289066,-0.274797482555996,-0.127833225048958,-0.0925579538931363,4.70992964430659,0.00126870968364645,-0.00182931188757041,0.00120959761654431,-1.30178573573395,1.37274728215075,-2.55522324289066,-0.274797482555996,-0.127833225048958,-0.0925579538931363,-1.05885984215207,-0.983336824184997,-0.501637440336175,0.0991213120676678,-0.143353471782562,0.0516623645238197
8.1,4.58629874251434,2.69968977497924,-1.94559768914973,-0.200640340568724,0.0552639375430342,-0.0253259629797206,-1.50788552905495,1.50470296267089,-2.66325996470872,-0.145614850979564,-0.0743674369162475,0.0336874709605584,4.86595459282756,0.00134051352690668,-0.00120127419541034,-0.000371991055630307,-1.50788552905495,1.50470296267089,-2.66325996470872,-0.145614850979564,-0.0743674369162475,0.0336874709605584,-0.575712715796046,-1.92557758854924,-0.287880371619652,0.10643075133362,-0.0941874440978348,-0.015005558534094
8.2,4.41918297876986,2.8466035170153,-2.12788569333151,-0.151815209656746,0.0796463277559533,0.0354985042703576,-1.44594765018285,1.04246721273538,-2.43088762133303,-0.131285196090923,-0.0619956886503909,0.00345010164016778,4.69567945860194,0.000427138069094469,-0.00202201204357518,-0.00181824264807736,-1.44594765018285,1.04246721273538,-2.43088762133303,-0.131285196090923,-0.0619956886503909,0.00345010164016778,-0.687729995496042,-1.4455996745432,-0.556087781592032,0.0324034585025876,-0.15801351298708,-0.0760042791771177
8.3,4.36373359932264,2.77334968025907,-2.1764218830344,-0.13795507994629,0.0976186535162819,0.0405454252685969,-1.50630298517618,1.07856825675727,-2.66275986443219,-0.152554044511171,-0.0863647256360063,-0.0169488009824653,4.88982887744715,0.000135768248478501,-0.00206630869685043,-0.00107996544049544,-1.50630298517618,1.07856825675727,-2.66275986443219,-0.152554044511171,-0.0863647256360063,-0.0169488009824653,-0.888816141421039,-1.38204150260128,-0.169373829740042,0.00894476092262255,-0.161656441733465,-0.0448333803706841
8.4,4.19765796181843,2.81441730807334,-2.46853052307852,-0.194903032007644,0.0421692815519148,-0.00821343831079079,-1.72085577600387,0.885861448894179,-2.55393356899982,-0.197248897726473,-0.126889577982433,-0.0364697003265663,4.92154724402799,0.00399346319539809,0.000100415441990124,0.00212608317780067,-1.72085577600387,0.885861448894179,-2.55393356899982,-0.197248897726473,-0.126889577982433,-0.0364697003265663,-0.422740262841648,-1.90291800109313,-0.161854952785674,0.320369345162409,0.00511844006646584,0.0904532407204856
8.5,4.01245743724923,2.8088619519731,-2.56481644925405,-0.220691435619182,0.0200447340777219,-0.0165530995873508,-1.63293349727987,0.546438686543873,-2.48256662005625,-0.0237555310134296,-0.0383786798430343,0.0384645922136026,4.83659491621278,0.00214165244733492,-0.000511245467896203,-0.00104220853938482,-1.63293349727987,0.546438686543873,-2.48256662005625,-0.0237555310134296,-0.0383786798430343,0.0384645922136026,-0.224204869194634,-2.11408175871906,-0.373316682847626,0.17157983136737,-0.0414376047694962,-0.043235468716591
8.6,3.95328343708111,2.74162796861418,-2.68435993999853,-0.138816148477826,0.0712892618460639,0.0341471596123328,-1.5744200378569,0.303909638805913,-2.56723156330459,-0.0766027350795193,-0.0565691180273077,-0.0184337383120748,4.92363379574996,0.00113721217850275,-0.00127824022866958,-0.00074132063662817,-1.5744200378569,0.303909638805913,-2.56723156330459,-0.0766027350795193,-0.0565691180273077,-0.0184337383120748,-0.647738817856,-1.38549561431549,-0.0822296827505475,0.0902066147963639,-0.101243557592731,-0.0305550204794081
8.7,3.87697759566486,2.68379841570048,-2.86807601841848,-0.157867492121951,0.0654108187255544,0.0165517637052201,-1.74198017746326,0.393911196606525,-2.54889172624113,-0.106707386530567,-0.0838320908884558,-0.00790548124944313,5.02542561972305,0.00175143102192776,-0.000914916451585602,-0.000405532983091491,-1.74198017746326,0.393911196606525,-2.54889172624113,-0.106707386530567,-0.0838320908884558,-0.00790548124944313,-0.622554733174456,-1.59064200449739,0.0946400366295919,0.139995087139553,-0.0730024189520718,-0.0163978375496967
8.8,3.65556716177316,2.70069167163886,-3.0491267187238,-0.215599778106271,0.00968177806085321,-0.0201968675605402,-1.86660146154929,0.106586133736119,-2.49006054757254,-0.108605633289382,-0.106264854013792,-0.0348134515998162,5.04770994418471,0.00525182415707933,0.00105698044053641,0.00260201966563756,-1.86660146154929,0.106586133736119,-2.49006054757254,-0.108605633289382,-0.106264854013792,-0.0348134515998162,-0.139074922274263,-2.15737839671832,0.0512311270881511,0.4224485354607,0.0787403131517439,0.110480813870417
8.9,3.50115407881893,2.61764195600567,-3.16025211038556,-0.211775004329608,0.0034047541554329,-0.0240641713433266,-1.72818573002784,-0.258171720015079,-2.42782818083551,0.0618282316891586,-0.0160869501292279,0.04306327853231,5.01711696895015,0.00259031690115898,0.000193920751468079,-0.00090197888748922,-1.72818573002784,-0.258171720015079,-2.42782818083551,0.0618282316891586,-0.0160869501292279,0.04306327853231,-0.0841412042585546,-2.10773727537302,5.83874745530011e-06,0.208209901072686,0.0130395983411793,-0.0374085698330613
9,3.45230039198037,2.48019698054641,-3.27933465196895,-0.129532124419204,0.0534898355513932,0.0242712669324107,-1.70173085566289,-0.425014500417212,-2.46278664554681,-0.0247214570522876,-0.0419425166317373,-0.0232799557265408,5.0799373861335,0.00199471235228328,-0.0004429996501299,-4.96301820645395e-05,-1.70173085566289,-0.425014500417212,-2.46278664554681,-0.0247214570522876,-0.0419425166317373,-0.0232799557265408,-0.506632310875384,-1.32503873301965,0.250350463364702,0.159833317954873,-0.0368750184324657,-0.00147020468911388
9.1,3.29556222555741,2.34028836936237,-3.49276614450851,-0.21321428125623,-0.00994477271252441,-0.0517580313386621,-1.94795498853428,-0.409356382685431,-2.47789372656515,-0.0809276064612402,-0.106872490391804,-0.0452824727021575,5.24706440220123,0.00699094602598507,0.00209508231997002,0.00460306098936692,-1.94795498853428,-0.409356382685431,-2.47789372656515,-0.0809276064612402,-0.106872490391804,-0.0452824727021575,-0.0130214637944843,-2.22288683231674,0.445990636480857,0.562984252865393,0.158861746728886,0.194824234065024
9.2,3.15267257715981,2.40794582885355,-3.57533737698557,-0.170425176703295,0.0248169056005796,0.00221361155885383,-1.70046150879962,-0.775852399712723,-2.2093465256134,0.205834186775844,0.0571629738613281,0.12012864524066,5.04422626974913,-0.001121173504807,-0.00138653078254634,-0.00578678131281827,-1.70046150879962,-0.775852399712723,-2.2093465256134,0.205834186775844,0.0571629738613281,0.12012864524066,-0.242923633870754,-1.71155741883892,0.129237091036375,-0.0908097372042885,-0.107970109529318,-0.243619595167398
9.3,3.08634541451185,2.16558438905791,-3.64614559925606,-0.0859513227567205,0.0566266375262074,0.039306604215235,-1.85260439151668,-0.848601865213382,-2.4690149467704,-0.161808982723995,-0.115379127072933,-0.145770429243179,5.277698061701,0.00505846688569248,0.00108271769132901,0.0050441957170309,-1.85260439151668,-0.848601865213382,-2.4690149467704,-0.161808982723995,-0.115379127072933,-0.145770429243179,-0.559124294296488,-0.928822646017394,0.689574078871143,0.406624382854886,0.0794863208430242,0.213377429759926
9.4,2.9521193211324,2.14014431080246,-3.85470167406832,-0.200208660238137,0.0140782539661997,-0.0376272615741066,-1.92824252401096,-0.659963376942509,-2.17336691840931,0.140914567379869,0.0236267758227078,0.127761139760335,5.20733474840842,0.000666331646310175,-0.000773363968336285,-0.00426933344933568,-1.92824252401096,-0.659963376942509,-2.17336691840931,0.140914567379869,0.0236267758227078,0.127761139760335,-0.22150057477763,-2.06433387104198,0.395626090160723,0.0535379704311453,-0.0601936975405561,-0.179640150719226
9.5,2.75125256437522,2.13465822170386,-3.9133083209609,-0.108143844190756,0.0435286185722158,0.0454052312390103,-1.91779669240069,-1.23113498477466,-2.28251734380949,-0.0621370683845469,-0.0887648211921417,-0.108232594636135,5.29883836433893,0.00429577549345708,0.0010454409283623,0.00297784932230105,-1.91779669240069,-1.23113498477466,-2.28251734380949,-0.0621370683845469,-0.0887648211921417,-0.108232594636135,-0.406071533396991,-1.16347145911981,0.715787007114406,0.345376823449021,0.0769778668775349,0.126136367171417
9.6,2.66393380810455,1.85977897322966,-4.05207196902375,-0.166060735578206,0.0132613813055379,-0.0307753203038268,-1.96307139034936,-1.05344440168521,-2.11622413088839,0.123530919414368,0.00997805433760467,0.0733895608722896,5.28089762008404,0.00146592033595265,-8.62125755563313e-05,-0.00201679979436367,-1.96307139034936,-1.05344440168521,-2.11622413088839,0.123530919414368,0.00997805433760467,0.0733895608722896,-0.19178835608343,-1.74077250176021,0.605586734256658,0.117922916384812,-0.00774945245903254,-0.0846536957723065
9.7,2.51780153379439,1.87638088508911,-4.12485479420118,-0.0807685910350354,0.062562081318002,0.0518838379775599,-1.91804929007753,-1.36723742598605,-2.1181549404068,0.0194012141980989,-0.0336133797080716,-0.0332323075656418,5.31585833565652,0.00131935574028732,-0.000508632021657307,-0.000881709778049079,-1.91804929007753,-1.36723742598605,-2.1181549404068,0.0194012141980989,-0.0336133797080716,-0.0332323075656418,-0.61716527954705,-0.890980940142378,0.766325418646129,0.105659363586536,-0.0417436831955187,-0.0367748393689422
9.8,2.3893475403985,1.64074815358913,-4.26732694500671,-0.141086370647835,0.0219806510155006,-0.0119376698299778,-2.12057471475861,-1.25905901888848,-2.06542992364109,0.00378240464952356,-0.0684972353840333,-0.0268606296376461,5.39741842664137,0.00391385928332046,0.00107423005551893,0.00183801858210584,-2.12057471475861,-1.25905901888848,-2.06542992364109,0.00378240464952356,-0.0684972353840333,-0.0268606296376461,-0.253004690307249,-1.51504445734336,0.874995629757965,0.315118752205772,0.0807340265709022,0.0779576531886127
9.9,2.18395484248388,1.63185332810734,-4.36015958226338,-0.132001494295685,0.0180024299530483,0.00156196760640324,-2.02823146506101,-1.54731557996237,-1.93380350208886,0.135686354573814,0.00803796607656806,0.0460737964451549,5.36901762682725,0.00115904430311884,-5.09490186592237e-05,-0.00225114377347816,-2.02823146506101,-1.54731557996237,-1.93380350208886,0.135686354573814,0.00803796607656806,0.0460737964451549,-0.189410860656862,-1.41362153259621,0.832894286667157,0.0931468676775381,-0.00525175464848313,-0.0946233262154406
10,2.07566355619698,1.39776342107998,-4.43778572680136,-0.085000986720712,0.0374440535271597,0.0216528792204295,-2.05065880571613,-1.67575855376004,-1.93050797923178,0.0183073796587288,-0.046246865979202,-0.0558241459946281,5.43108532389778,0.00294779581222833,0.000640990447473073,0.00162111413064561,-2.05065880571613,-1.67575855376004,-1.93050797923178,0.0183073796587288,-0.046246865979202,-0.0558241459946281,-0.385099218689977,-0.93073983158732,1.00536745281882,0.237158097518244,0.0471370818251051,0.0687473859390536
10.1,1.94776826224979,1.2595521895557,-4.54395875567588,-0.117621383734494,0.0237704304777462,-0.00979750407949832,-2.11696815826108,-1.62027577728808,-1.7973289498184,0.113075439608941,-0.00638048590675198,0.0400874059337118,5.42804872064238,0.00155038888222639,6.71133707038131e-05,-0.00143142184784329,-2.11696815826108,-1.62027577728808,-1.7973289498184,0.113075439608941,-0.00638048590675198,0.0400874059337118,-0.268716169429737,-1.27139525909304,0.968042371883328,0.1247744437312,0.00410648957956017,-0.0600808343956117
10.2,1.74373066528969,1.14957042810826,-4.63557840206709,-0.104286400595347,0.0103173776424413,-0.000446814098680824,-2.16455190943593,-1.87882269205805,-1.80001201179447,0.0371407847206334,-0.0551944394086985,-0.0534155324501229,5.53116999705478,0.00412627548284064,0.00152678453891683,0.00256031013719067,-2.16455190943593,-1.87882269205805,-1.80001201179447,0.0371407847206334,-0.0551944394086985,-0.0534155324501229,-0.114026767599116,-1.15151080396295,1.19165382612557,0.332320871971357,0.115693845263622,0.108327358214458
10.3,1.59489255062563,0.933023051532046,-4.73486491278187,-0.125035997779481,-0.00830453497400537,-0.0351339390159375,-2.12692139705048,-1.95216339611904,-1.61169565959697,0.162540585774297,0.0130122476042708,0.0419909997491013,5.50546633434664,0.00256237715004241,0.000942916072011715,-0.000308093265579065,-2.12692139705048,-1.95216339611904,-1.61169565959697,0.162540585774297,0.0130122476042708,0.0419909997491013,0.0424345415404964,-1.37551783424174,1.11459556376638,0.206471569759262,0.0717904958512855,-0.0127369397772674
10.4,1.51637570845089,0.827551508593086,-4.72412643702262,-0.0250108863228774,0.0628308413873313,0.0471898897025915,-2.01720019688859,-2.06448785146053,-1.55331292853607,0.143948483029587,0.0293035947053639,0.0145767413174732,5.45012389878714,-0.000981820616001947,-0.001493753055636,-0.00291540058222347,-2.01720019688859,-2.06448785146053,-1.55331292853607,0.143948483029587,0.0293035947053639,0.0145767413174732,-0.670586453446083,-0.304568650294616,1.06533695083675,-0.0795384005941411,-0.116298973950507,-0.122763744264612
10.5,1.38163416825986,0.600119834788292,-4.83485573088219,-0.0627484354730036,0.0315789630417511,-0.000119883424923174,-2.31426448194942,-1.89841184878429,-1.57550634610637,-0.0345263112290134,-0.10389501608163,-0.078559935837121,5.58931965410326,0.00445563258367209,0.00161377490211237,0.00373087408723759,-2.31426448194942,-1.89841184878429,-1.57550634610637,-0.0345263112290134,-0.10389501608163,-0.078559935837121,-0.352340580991122,-0.70093967741103,1.34107691958932,0.358877822414228,0.122616373154799,0.157664751527493
10.6,1.12038595599486,0.58495170356211,-4.92212630649587,-0.118488749374728,-0.0132740853287969,-0.0278359827943522,-2.24840915600841,-2.03474465483398,-1.35655808495755,0.214352082125642,0.0370493565967033,0.0830545297531562,5.55111989119189,0.00105004423435243,0.000185929100717314,-0.0026001288716994,-2.24840915600841,-2.03474465483398,-1.35655808495755,0.214352082125642,0.0370493565967033,0.0830545297531562,0.109750149705705,-1.31597892431372,1.21342426657645,0.0846124323951199,0.0140075507354409,-0.10950982747843
10.7,0.965918659583685,0.350649912016432,-4.95368038699894,-0.0420103447663476,0.0137964623352289,0.00699255425490045,-2.18598110273713,-2.35935537090441,-1.37897829362257,0.053771426632322,-0.0459769500545878,-0.0848021941635728,5.64731187123373,0.00381872867025214,0.00151208499131989,0.00369945284663876,-2.18598110273713,-2.35935537090441,-1.37897829362257,0.053771426632322,-0.0459769500545878,-0.0848021941635728,-0.152362718642769,-0.4754284997292,1.47358448488434,0.307552427042309,0.114882309804579,0.156287166653179
10.8,0.883609256952225,0.0860488948080436,-5.02550019676765,-0.0798550279926819,-0.00302552165223263,-0.0422684084421965,-2.22528942857272,-2.17656383609438,-1.14053495079601,0.199112485267516,0.0275137291493476,0.074698838258981,5.57116030862572,0.00144929717094341,0.000504144336951451,-0.00151702083867794,-2.22528942857272,-2.17656383609438,-1.14053495079601,0.199112485267516,0.0275137291493476,0.074698838258981,-0.00398419276284086,-0.889451055733207,1.29676234027223,0.116818029527768,0.0385524889286586,-0.0638418374942367
10.9,0.704764480856083,0.0265900952956657,-5.01353669899264,-0.017054457301879,0.0241498615827156,0.0188251231103458,-2.20230285510509,-2.36063307741047,-1.18426963224354,0.104006749960165,-0.0128414173679527,-0.0444269844857224,5.64266689354611,0.00175387170204699,0.000534128755421729,0.00122333064989557,-2.20230285510509,-2.36063307741047,-1.18426963224354,0.104006749960165,-0.0128414173679527,-0.0444269844857224,-0.268802057207679,-0.19755084991451,1.47040237765587,0.141087031338625,0.0399983499440995,0.0517730977866188
11,0.58227142957562,-0.198556633049994,-5.0901476119451,-0.0398024458585704,0.0152824116874431,-0.0208097927274787,-2.27152338391258,-2.21351756127211,-0.991961132940768,0.13195920517338,-0.00466256196602091,0.0240502481631418,5.60644205778775,0.00175599170103293,0.000431022700799592,-0.000143239254391663,-2.27152338391258,-2.21351756127211,-0.991961132940768,0.13195920517338,-0.00466256196602091,0.0240502481631418,-0.180464748568353,-0.442523031860301,1.39269503423719,0.141435380622783,0.0326386401583706,-0.00590402107184738
11.1,0.423508419946577,-0.242931134211071,-5.05442279910429,0.0036428793141938,0.0428931448919961,0.0319099701723279,-2.22909342865712,-2.26674493172536,-0.953433368014059,0.158644602286613,0.0144109501093577,0.0144966065936728,5.6037856935814,-0.000704623469987775,-0.00101366333494134,-0.00218849351089256,-2.22909342865712,-2.26674493172536,-0.953433368014059,0.158644602286613,0.0144109501093577,0.0144966065936728,-0.481635337769554,0.0254743469827196,1.38718870330439,-0.0570890104593176,-0.0786742421020661,-0.092217582616132
11.2,0.292780375442273,-0.421945993731723,-5.09514864803828,0.0233171276791521,0.0505631829557243,0.0300065063947909,-2.33671028402111,-2.16735152868062,-0.871864124830233,0.0565117301886379,-0.0449785270658827,-0.0332635046025741,5.63185437591029,0.000751371613574537,-0.000391195593250077,0.000157133340454117,-2.33671028402111,-2.16735152868062,-0.871864124830233,0.0565117301886379,-0.0449785270658827,-0.0332635046025741,-0.576754298770478,0.245420231075471,1.43625529831455,0.0602653209888365,-0.0308170695969113,0.00674023787844792
