time,x,y,z,roll,pitch,yaw,xdot,ydot,zdot,p,q,r,thrust,roll angle,pitch angle,yaw angle,_xdot,_ydot,_zdot,_p,_q,_r,_xddot,_yddot,_zddot,_phiddot,_thetaddtot,_yawddot
0,2.01841953230695,5.01841953230695,0.0184195323069548,0.0184195323069548,0.0184195323069548,0.0184195323069548,0.0184195323069548,0.0184195323069548,0.0184195323069548,0.0184195323069548,0.0184195323069548,0.0184195323069548,9.17978296354284,-0.0109004871428384,0.00244627647683442,-0.00193785956555818,-0.0876788035810524,0.123223596954467,4.71171966256069,-0.473690030960271,0.113537010839952,-0.0350641099541525,-0.213987906416643,0.217452954589962,1.19150935200006,-0.0413052190745444,-0.0738049420295533,0.0238776742346223
0.1,1.22036642022637,3.02036642022637,0.0203664202263731,0.0201222313219531,0.0190727035545465,0.0188372273102106,-0.0876788035810524,0.123223596954467,4.71171966256069,-0.473690030960271,0.113537010839952,-0.0350641099541525,5.50286935683779,-0.000512148413653117,-0.000959502584930449,0.000565902915035572,-0.0876788035810524,0.123223596954467,4.71171966256069,-0.473690030960271,0.113537010839952,-0.0350641099541525,-0.213987906416643,0.217452954589962,1.19150935200006,-0.0413046161109736,-0.0738142048749504,0.0238806039713683
0.2,1.29453270857572,3.38723517792974,2.16647167820987,-0.21557498454909,0.054551143553604,-0.0162513092500608,-0.0576597832384053,0.0615764699315134,1.08666188027993,-0.0641583559663234,-0.0244662681830069,0.0106695129188123,6.65596754633957,0.0001063709416256,0.000366952344538483,0.000237527070319856,-0.0576597832384053,0.0615764699315134,1.08666188027993,-0.0641583559663234,-0.0244662681830069,0.0106695129188123,-0.755201660167955,-2.83564654909187,3.17446745202918,0.00859725421330207,0.0282929718663203,0.0100374483479768
0.3,1.30945106598385,3.36795436651713,0.786526787435252,-0.0501943879850038,0.00325572785211999,0.0103465386463995,-0.193741834993574,-0.494665804864018,2.47780599880393,-0.0356751361481832,0.0265432674700326,0.0081671529307752,6.45244033766,-0.00563326815936592,0.000206772875097439,-0.00090756466110685,-0.193741834993574,-0.494665804864018,2.47780599880393,-0.0356751361481832,0.0265432674700326,0.0081671529307752,-0.0352604790387638,-0.647880117353549,3.0785590077558,-0.454290277209791,0.015932583405663,-0.0382797324811986
0.4,1.21958862687169,3.08803280175404,1.55225953683392,-0.0608136044423281,0.00525035334581795,-0.0104243081918006,-0.157701532294139,-0.356036549413038,2.33380673014825,-0.306449379813861,0.0048236132124342,-0.0344544829244261,6.09128567939335,3.79057247384909e-05,0.000158451039575203,0.00210421629689416,-0.157701532294139,-0.356036549413038,2.33380673014825,-0.306449379813861,0.0048236132124342,-0.0344544829244261,-0.0715589190134694,-0.739703754637299,2.34988332955605,0.00305437796051224,0.0121779643849582,0.0888043338489439
0.5,1.28200444890481,3.19649434867419,1.62116831980211,-0.142251933110884,0.0421793952627209,0.0150406427312324,-0.0896098596451227,-0.332895750770714,2.13038232191388,-0.0395823742123397,0.0433474699797037,0.0714074182087433,6.1349671492987,-0.00384566796053419,-0.00289408970142551,-0.0040628064271771,-0.0896098596451227,-0.332895750770714,2.13038232191388,-0.0395823742123397,0.0433474699797037,0.0714074182087433,-0.485938223192423,-1.74704736603117,2.32519580542403,-0.310095856052184,-0.222380675296925,-0.171396144728871
0.6,1.26389763477522,3.14714700347403,1.64014368110222,-0.0674708005883175,0.0282958184365814,0.0307087434403521,-0.200521343603554,-0.583785201445489,2.28275763994242,-0.238620253093011,-0.11414491723384,-0.0931924171112085,6.01002404888138,-0.00186506206781881,0.000647868586892423,0.0030268860281717,-0.200521343603554,-0.583785201445489,2.28275763994242,-0.238620253093011,-0.11414491723384,-0.0931924171112085,-0.314255923332932,-0.8204227839813,2.17789831216067,-0.15046977702292,0.0495294241664865,0.127758277416785
0.7,1.24637500964391,3.05098190147871,1.90480310630537,-0.129652318598013,-0.00719483955040763,-0.00607631800995231,-0.164997739502622,-0.565399331360157,2.27015710653672,-0.139646121367094,0.0583549271415818,0.0900417782830596,5.79632571098878,-0.00241872002485676,-0.00273483210063956,-0.00391353979568685,-0.164997739502622,-0.565399331360157,2.27015710653672,-0.139646121367094,0.0583549271415818,0.0900417782830596,0.0735978107559982,-1.49928167676609,1.68505566787059,-0.195026325058296,-0.209836246584653,-0.165108623076866
0.8,1.21743350656959,2.99748658279085,1.97900733999876,-0.125880961752552,0.0355762951998146,0.0406967846032329,-0.205110986262445,-0.732097881910607,2.1261103520648,-0.19571406702479,-0.115540889737835,-0.0886083978468251,5.82196643583479,-0.000753803342127505,-0.00122608112215144,0.00237970343016321,-0.205110986262445,-0.732097881910607,2.1261103520648,-0.19571406702479,-0.115540889737835,-0.0886083978468251,-0.351065881499403,-1.47738807212441,1.73449002559831,-0.0608298560764853,-0.0947142244729967,0.100450373041302
0.9,1.20491818203089,2.9023532582114,2.07805996696093,-0.15076716700123,-0.0295986876543003,-0.0245784936103093,-0.211399448158492,-0.849600829665176,2.23936184055903,-0.123086513607956,-0.0431583958148927,0.058509041980247,5.60502363013047,-0.00160708000955671,-0.000879143317205327,-0.00152404567598558,-0.211399448158492,-0.849600829665176,2.23936184055903,-0.123086513607956,-0.0431583958148927,0.058509041980247,0.286512879618479,-1.6912636119911,1.2680276828437,-0.129598289809388,-0.0669517835219375,-0.0643016639559075
1,1.13794113937946,2.75778153248286,2.21741947686363,-0.172395388087948,-0.0461874652723124,-0.00405176934689663,-0.27624960833848,-1.04649085211999,2.05106910212978,-0.197421526655634,-0.0777555105977868,-0.0635918681380051,5.58972007389917,0.00214649076769416,-0.000548116637148069,0.0032577613734207,-0.27624960833848,-1.04649085211999,2.05106910212978,-0.197421526655634,-0.0777555105977868,-0.0635918681380051,0.500740697578646,-1.91979620355613,1.19197815435048,0.173105736437168,-0.0422447123925616,0.137445223161677
1.1,1.11586229759009,2.63974001835896,2.28178824896862,-0.200094950400397,-0.0529374133051642,-0.0442851542196739,-0.216614596370939,-1.18812257560687,2.11182089982135,-0.0282253755028876,-0.0477100108842975,0.0558348654428206,5.44157333624606,-0.000442115858276229,-0.00166807057707464,-0.000511433826616336,-0.216614596370939,-1.18812257560687,2.11182089982135,-0.0282253755028876,-0.0477100108842975,0.0558348654428206,0.468049031730249,-2.1860243041797,0.841061418488227,-0.0357092901620469,-0.127412582220719,-0.0216295093369668
1.2,1.16270307861965,2.55489913647483,2.47595820118269,-0.0963374242264045,-0.00448621267228277,0.045063814277058,-0.117756940249907,-1.28263676059789,2.04302202527616,-0.101022774452094,-0.0727663767327755,0.00617911991806193,5.37922172908705,-0.00308270786699661,-0.00333016814371048,-0.00229301986261438,-0.117756940249907,-1.28263676059789,2.04302202527616,-0.101022774452094,-0.0727663767327755,0.00617911991806193,0.0946099152469116,-1.03162355692035,0.898450282065701,-0.248608007722079,-0.256137261553041,-0.0968247315670663
1.3,1.14798982116896,2.39778616756327,2.54578828006261,-0.168007530767728,-0.0551478729599098,-0.0107862838596407,-0.140997116003314,-1.51534696662681,1.94516081524479,-0.250487936750064,-0.178141868327425,-0.0661347667624726,5.28597995130888,0.00497922649521542,0.000758922485277034,0.00366547348167765,-0.140997116003314,-1.51534696662681,1.94516081524479,-0.250487936750064,-0.178141868327425,-0.0661347667624726,0.555419478366185,-1.7739188033685,0.597259844198408,0.401559111192771,0.0583064200268987,0.154548995445634
1.4,1.15506617005867,2.25191854640949,2.61340744446881,-0.219162144011745,-0.0880660822240944,-0.0251400283760106,-0.0950039021837574,-1.56404636895882,1.91432558419008,0.109876562026757,0.0077482825572246,0.0861736757996145,5.20417115741954,-0.0014438240999388,-0.00300500424835272,-0.00288345971313792,-0.0950039021837574,-1.56404636895882,1.91432558419008,0.109876562026757,0.0077482825572246,0.0861736757996145,0.836374584294586,-2.28464352231251,0.310003521420894,-0.116655416538459,-0.229985269668039,-0.12189002484997
1.5,1.14333439911804,2.11269650777859,2.71903087354185,-0.085793887727832,-0.0270341002164268,0.0303829569524754,-0.0762926367567969,-1.74776707351227,1.85061823230926,-0.165522282709704,-0.168889223047887,-0.072434045238881,5.16798122587899,0.000484289303374716,-0.00189316299179286,0.00200496101750467,-0.0762926367567969,-1.74776707351227,1.85061823230926,-0.165522282709704,-0.168889223047887,-0.072434045238881,0.305138617859778,-0.876810037105004,0.484183522109635,0.0391398479378427,-0.146065206681203,0.0843878724599055
1.6,1.14855919480772,1.94068179952314,2.82607173838906,-0.202949836099356,-0.10628960884018,-0.0381253480104924,0.0147152141940667,-1.96949176062856,1.79648216970836,-0.0867725340296387,-0.125556882548225,0.0381081230815215,5.0164935778147,0.00503071952402755,0.000170315946256266,-2.17745569544119e-05,0.0147152141940667,-1.96949176062856,1.79648216970836,-0.0867725340296387,-0.125556882548225,0.0381081230815215,0.964712430705416,-2.06051228157011,-0.0383854799441767,0.405466796740531,0.0140335834305819,-0.0012405869947969
1.7,1.1539404971753,1.71112398364625,2.8443134364255,-0.199725422281213,-0.115430091734527,-0.0162707465698634,-0.0205087257020107,-2.03744056610526,1.64019581307922,0.102470746228141,-0.0709926940912555,-0.0237517263870624,5.07550735428637,0.00115485589110731,-0.00160184962754086,0.00186258690690403,-0.0205087257020107,-2.03744056610526,1.64019581307922,0.102470746228141,-0.0709926940912555,-0.0237517263870624,1.11297224921151,-2.03234064241884,0.0730149195130547,0.0930737178961489,-0.123018340756516,0.078182144142134
1.8,1.13843294594826,1.56076395995081,2.91982800385844,-0.116442126490419,-0.0988576297360806,-0.0376722465182281,0.0771998342380273,-2.24914656387278,1.68562403321952,-0.049481731414445,-0.143648172838389,0.021388467989139,4.91035201979798,0.00259515988923955,-0.000923018850316274,0.000732980707836161,0.0771998342380273,-2.24914656387278,1.68562403321952,-0.049481731414445,-0.143648172838389,0.021388467989139,0.919051866578815,-1.17641048003356,-0.103423369573511,0.209064092013509,-0.0703521023927728,0.0304976588655809
1.9,1.22127985754446,1.39058134932677,3.08031116041331,-0.137016006389063,-0.0927824749528055,0.0227583645659284,0.240862563331929,-2.37409217035126,1.53269602644856,0.056583865372806,-0.0853634664587423,0.0345641152081564,4.83481134294022,0.00194743137365617,-0.00191139947586306,-0.0027371777308426,0.240862563331929,-2.37409217035126,1.53269602644856,0.056583865372806,-0.0853634664587423,0.0345641152081564,0.917314325932981,-1.30021345034665,-0.272202439857013,0.15695407266486,-0.146787935949534,-0.116014491244058
2,1.26721833395914,1.16749127014243,3.0621830740235,-0.111008729466318,-0.0939573112050141,0.0122863406441602,0.2912718992375,-2.50292497079582,1.41151058116406,0.0221404678022307,-0.146666262921258,-0.0605914058694777,4.86882523119426,0.00307445012226957,-0.000582745670384751,0.00226866628859378,0.2912718992375,-2.50292497079582,1.41151058116406,0.0221404678022307,-0.146666262921258,-0.0605914058694777,0.921139663283329,-1.06750888467061,-0.174972079462815,0.248130467926549,-0.0452533006114392,0.0951678701823557
2.1,1.28631915341423,0.945107634262696,3.08892949231645,-0.137092101889667,-0.144553117409099,-0.0464479152765231,0.36395273579292,-2.6760506027829,1.42300414037362,0.0630410918143822,-0.108691097371838,0.0377939903609464,4.78827315436944,0.00506353976396591,0.000127064697315674,0.000399340469452029,0.36395273579292,-2.6760506027829,1.42300414037362,0.0630410918143822,-0.108691097371838,0.0377939903609464,1.30431936790362,-1.37079988489407,-0.422247453969277,0.407971954929304,0.0105031302543535,0.0162177720917507
2.2,1.33396646937686,0.708528675634145,3.17014412911891,-0.117264326483811,-0.131107207763752,-0.00497317746822871,0.421383546115839,-2.74858676305093,1.31873811360608,0.169042826283585,-0.0817282609100224,-0.000237860031273306,4.75144568720207,0.0027624896871775,-0.00115541030776734,0.000233352510627037,0.421383546115839,-2.74858676305093,1.31873811360608,0.169042826283585,-0.0817282609100224,-0.000237860031273306,1.22825508985943,-1.11792015142152,-0.453366607427387,0.222775313243071,-0.0888672631722397,0.00917386854547612
2.3,1.40745392668146,0.54229528230835,3.2473955580433,-0.0336797725041708,-0.0967747589079187,0.014014143107358,0.598279380899012,-2.84213046282984,1.27717921422717,0.112410255876082,-0.109092590273686,0.0225535705560253,4.61717438852683,0.0016897426938383,-0.00127807833100282,-0.00173558150431525,0.598279380899012,-2.84213046282984,1.27717921422717,0.112410255876082,-0.109092590273686,0.0225535705560253,0.896021642991633,-0.298424711129833,-0.624071345620511,0.136260324629446,-0.0983000572908666,-0.0738904200004415
2.4,1.48596217724335,0.300364866334751,3.28091229805433,-0.066875747041438,-0.131255281207713,0.00710021901590072,0.707875686665501,-3.03219781302428,1.15379064443489,0.0621528257328003,-0.133235132946612,-0.0372282386379015,4.65674274714149,0.00665104880066962,0.00117939156177915,0.00138342397717169,0.707875686665501,-3.03219781302428,1.15379064443489,0.0621528257328003,-0.133235132946612,-0.0372282386379015,1.22060075108893,-0.613731147878937,-0.597265338848423,0.536645444474018,0.0903742761068169,0.0577002447531128
2.5,1.58345873613637,0.0319872365509557,3.28472914907502,-0.0717693263383024,-0.140124711899196,-0.0128248390127471,0.793036911117593,-3.02341604392614,1.13988255335575,0.294899705757775,-0.025637671717178,0.0404178923823609,4.61277067702442,0.00235280813357075,-0.000946162111293507,-0.00140086064702111,0.793036911117593,-3.02341604392614,1.13988255335575,0.294899705757775,-0.025637671717178,0.0404178923823609,1.2765934056523,-0.677970040749539,-0.698398649207901,0.18953225139603,-0.0725422840081765,-0.0598174571911286
2.6,1.65449962571792,-0.160554258732053,3.35373505401086,0.0358612409707389,-0.0980706909604708,0.0227132048357372,0.899812739928794,-3.07900276513486,1.04484723254943,0.132376207778834,-0.110138696263697,-0.0230391236659946,4.52012987625114,0.00290223677804145,-0.000277377818025964,-4.75266804898733e-05,0.899812739928794,-3.07900276513486,1.04484723254943,0.132376207778834,-0.110138696263697,-0.0230391236659946,0.877005455509588,0.34413210572559,-0.818963857400645,0.234395759888591,-0.0216585645939143,-0.00260682381009423
2.7,1.75428286793298,-0.373780978607979,3.38662567770919,-0.0136608300123116,-0.134185064830601,0.00266329555026253,1.07279100425654,-3.20638449430249,1.05511292388915,0.170187589546957,-0.0827641537457438,0.0110494483539584,4.48219818490112,0.00629540484441076,0.00161934542480381,-0.00081589019378318,1.07279100425654,-3.20638449430249,1.05511292388915,0.170187589546957,-0.0827641537457438,0.0110494483539584,1.19949154755912,-0.119263112343659,-0.927016345152273,0.507721981079577,0.124542703703671,-0.0350112927525389
2.8,1.88271456428764,-0.66546633189347,3.41955882370014,0.00423046030595556,-0.132750689950287,0.00622789629493288,1.11378113697233,-3.1503555164866,0.884568705716447,0.327800031673121,-0.00899905384270369,-0.0125163751914288,4.53624391405829,0.00270443255898944,-3.67149068497451e-05,9.12958382449884e-05,1.11378113697233,-3.1503555164866,0.884568705716447,0.327800031673121,-0.00899905384270369,-0.0125163751914288,1.20057166041151,0.0458585619599494,-0.81741638505178,0.218299784173589,-0.00295726322086653,0.00331553331141845
2.9,1.92359049095141,-0.878695433483706,3.38265460535758,0.0543158333002302,-0.138080670533926,-0.0358950106150318,1.1987883961795,-3.2296142365813,0.891762451050786,0.165994079892542,-0.103692090632162,-0.0206917255412595,4.50777381649078,0.00654770020717781,0.00254384456379301,0.00244284859537512,1.1987883961795,-3.2296142365813,0.891762451050786,0.165994079892542,-0.103692090632162,-0.0206917255412595,1.25585748296561,0.444663332901231,-0.893431398491241,0.528047071657904,0.195677137051711,0.102684045075376
3,2.06644304425129,-1.08876891396622,3.46703560571016,0.0327409962838897,-0.150068067329244,-0.00965282233316558,1.37284855038256,-3.19309121142138,0.91173415356565,0.373390460058115,0.0344697229359078,0.0611799799556793,4.40719473350163,0.00359707863549158,0.00115862229158061,-0.00264435087555412,1.37284855038256,-3.19309121142138,0.91173415356565,0.373390460058115,0.0344697229359078,0.0611799799556793,1.31981669780679,0.275813426481427,-1.09934718210047,0.289753789962455,0.0892459740242733,-0.111908046552509
3.1,2.22783644520204,-1.28644393054943,3.53677109315171,0.150387378642324,-0.077429394276997,0.0420840082939088,1.49566406419098,-3.11824452273217,0.726863908492114,0.28258349767528,0.00439852805625751,-0.0400241542207712,4.32976550429797,0.001447034019292,-0.000388943571549086,-0.000301070517045173,1.49566406419098,-3.11824452273217,0.726863908492114,0.28258349767528,0.00439852805625751,-0.0400241542207712,0.60710289111122,1.32409503210507,-1.27386060830813,0.117357149639651,-0.0300306997495813,-0.0128525374994455
3.2,2.35509609835673,-1.47204889834166,3.50283721983794,0.125544108006172,-0.0991126107117037,-0.00384630337961419,1.67719997772468,-3.13865623991682,0.83210095376234,0.194521285996937,-0.0709644361167042,0.00258077750081379,4.27868737467277,0.00658791346145624,0.00407389599282581,4.72089774756076e-05,1.67719997772468,-3.13865623991682,0.83210095376234,0.194521285996937,-0.0709644361167042,0.00258077750081379,0.844206722277799,1.06826889942479,-1.36164044507341,0.531297795569677,0.313376363876775,0.0019767255748681
3.3,2.48694831918538,-1.79100224557279,3.52921457251282,0.04218842084705,-0.189644893773742,-0.0538067209028065,1.62718796199396,-3.09575193982306,0.586731606059576,0.378923396468814,0.067304757706128,-0.0389829201192646,4.61086973271389,0.00738065608924725,0.00413813019603511,0.004957128570355,1.62718796199396,-3.09575193982306,0.586731606059576,0.378923396468814,0.067304757706128,-0.0389829201192646,1.75524844365705,0.29496350922358,-0.761653289274648,0.595272362699247,0.318322614732448,0.2092411939515
3.4,2.61144129033476,-1.93204190669077,3.50787085048888,0.179845184614019,-0.0920601585198069,-0.0339706184242198,1.77546241366162,-2.89398954681077,0.718446158122109,0.475540073073252,0.113696614482426,0.108104189133633,4.22216121904985,-0.000873585065473186,9.72469779455018e-06,-0.00336359286760913,1.77546241366162,-2.89398954681077,0.718446158122109,0.475540073073252,0.113696614482426,0.108104189133633,0.814629623270539,1.48368509241802,-1.53705381608095,-0.0710235741706136,0.000581009686981133,-0.141667399330353
3.5,2.74917803706801,-2.02579875856054,3.60886770291398,0.244216471758717,-0.0709045268128051,0.0334478470411094,1.95483102038433,-2.90019699279814,0.535600932504948,0.137559402671444,-0.0269934301688818,-0.0754459185471928,4.20915233404433,0.00573740649228938,0.00423727857993325,0.00230048457205099,1.95483102038433,-2.90019699279814,0.535600932504948,0.137559402671444,-0.0269934301688818,-0.0754459185471928,0.510304552011131,2.05372752085943,-1.66201583095398,0.463794824040208,0.326586159794945,0.097519167518989
3.6,2.9816647145224,-2.25718782501327,3.58162896939738,0.133887886566674,-0.118068112948087,-0.0282795189523609,2.07797071364728,-2.70185701793112,0.617452147747164,0.435507514520285,0.147187305317425,0.059333118760063,4.25308495592807,0.003936594428016,0.00378341622118983,-6.19076774768911e-05,2.07797071364728,-2.70185701793112,0.617452147747164,0.435507514520285,0.147187305317425,0.059333118760063,1.02471774164426,1.10694152976713,-1.43864643149013,0.317423464795601,0.291003451294483,-0.0020907504147204
3.7,3.15644549847935,-2.40760054603384,3.64964898198031,0.2576846435346,-0.0482891800525741,0.00422347383694372,2.07729482872059,-2.5416478583435,0.263585301573249,0.368208868132435,0.13727564737981,-0.00417894253477556,4.23337774268191,0.000109819929437275,0.00141376689590794,0.000663631210401795,2.07729482872059,-2.5416478583435,0.263585301573249,0.368208868132435,0.13727564737981,-0.00417894253477556,0.386083368296884,2.15933754139647,-1.63233838655703,0.00965430942468503,0.109531916630047,0.0286601676356847
3.8,3.28188595941059,-2.47849725710835,3.5231649462945,0.266157448864501,-0.0391759597503684,-0.00641036452475691,2.22700112265319,-2.36027012720071,0.473155742479945,0.222948374035457,0.0548781030079591,0.0206757648283523,4.06450224810387,0.00385266551610174,0.00477457718664896,0.000290176408883501,2.22700112265319,-2.36027012720071,0.473155742479945,0.222948374035457,0.0548781030079591,0.0206757648283523,0.320869380353255,2.1361276697787,-1.97324585567959,0.31137570730402,0.368165447774721,0.0129871197158091
3.9,3.54169502531574,-2.57874454006982,3.69110426896111,0.250684097158695,-0.036458915180697,0.0370663886392384,2.30463006520011,-2.12801871363758,0.221597038538287,0.413855456989368,0.232453691928691,0.0390950706301614,4.05217819180229,-0.000769444946259962,0.00171890497845091,-0.00249933754297826,2.30463006520011,-2.12801871363758,0.221597038538287,0.413855456989368,0.232453691928691,0.0390950706301614,0.211478361486511,2.01964539756311,-1.96417934418602,-0.061142145284831,0.133607081190725,-0.104659549164337
4,3.70643498988357,-2.66180544454294,3.59975662876409,0.337589562230317,0.0325712572934319,0.0256722436980226,2.31367688182883,-1.93014729133135,0.0507793623801804,0.21239903028171,0.109971677493965,-0.0376841776340101,4.04310522352777,0.000407230455440423,0.00229975931966175,0.00121522357344731,2.31367688182883,-1.93014729133135,0.0507793623801804,0.21239903028171,0.109971677493965,-0.0376841776340101,-0.317135540227341,2.67100291762297,-2.18425624235614,0.0340136114541101,0.17943253852807,0.0520716531940171
4.1,3.8552981275855,-2.7319829765825,3.52853167424465,0.260787067909445,-0.0193554880181049,-0.0108166936873936,2.30021169738672,-1.63995500711843,0.149610907779054,0.253497269706686,0.126336029614399,0.0346870972047241,3.93363453780413,0.00224296602914744,0.00506775204644184,-0.000165209824692935,2.30021169738672,-1.63995500711843,0.149610907779054,0.253497269706686,0.126336029614399,0.0346870972047241,0.169049514088625,2.02679525410452,-2.21016803029515,0.181591993835068,0.391642420340829,-0.00618745131444472
4.2,3.9988666714971,-2.78183123027185,3.59551725705196,0.266604229385816,-0.0263705368441834,-0.00662119477741688,2.2465784837536,-1.50586860014941,-0.352947557121956,0.317251585015636,0.237958159868788,-0.0136315344905563,4.14430762581325,-0.000118022240245099,0.00233964173634238,0.00175534358225018,2.2465784837536,-1.50586860014941,-0.352947557121956,0.317251585015636,0.237958159868788,-0.0136315344905563,0.225282716501252,2.18225124148996,-1.81699243049546,-0.0085992571781259,0.182874563203627,0.074821405758823
4.3,4.12853434060056,-2.8100849606394,3.36379783814676,0.32943231782786,0.0480045539477378,-0.0119165286182627,2.30294308195063,-1.21258768950395,-0.253526905710449,0.237402787151249,0.150729260068178,0.043644624210412,3.99736250805214,-0.00147897166116735,0.00227926669898368,-0.00104878282216629,2.30294308195063,-1.21258768950395,-0.253526905710449,0.237402787151249,0.150729260068178,0.043644624210412,-0.332160997365082,2.59048294935534,-2.25389682150566,-0.118664036752755,0.178130876196894,-0.0436212764397257
4.4,4.30402013905887,-2.78675213556135,3.39940002142039,0.315763814094192,0.024009773040826,0.0207080884040543,2.29698474111086,-0.935515852019131,-0.353793398264904,0.176669809040992,0.168020743615094,-0.0138953249303402,3.90173841930085,-0.000364838172185128,0.00366147175965738,3.00352410260309e-05,2.29698474111086,-0.935515852019131,-0.353793398264904,0.176669809040992,0.168020743615094,-0.0138953249303402,-0.228219825171517,2.41910509289751,-2.39446920096011,-0.028717522966762,0.286022904043603,0.00180486807334637
4.5,4.46065069305309,-2.77860157207977,3.36713300891906,0.289361793433362,0.0295742359194566,-0.0170351633469112,2.24836785254138,-0.730239886811204,-0.663437561932205,0.211378520378876,0.218976974777452,-0.00218682080878593,4.01429185581102,-0.000891508782132095,0.00239703828156865,0.0011883871164995,2.24836785254138,-0.730239886811204,-0.663437561932205,0.211378520378876,0.218976974777452,-0.00218682080878593,-0.188478142423505,2.29442447862352,-2.11856003623218,-0.0714428991813583,0.188514373934002,0.050545438612334
4.6,4.59451341507034,-2.75378392090453,3.20654716507263,0.319029823467516,0.0686648347184021,-0.00933263895219847,2.2353358098113,-0.45952003433042,-0.745577700692881,0.190115216131674,0.183826366734527,0.028057454329418,3.98439650838987,-0.00266029345426345,0.0019709790819817,-0.000768024412445258,2.2353358098113,-0.45952003433042,-0.745577700692881,0.190115216131674,0.183826366734527,0.028057454329418,-0.495809220334863,2.50411215714529,-2.26114196280353,-0.214327174751163,0.155894525368911,-0.0322030752902491
4.7,4.75323957372512,-2.67188003668563,3.13813799311341,0.336936197959058,0.0775686527814367,0.0190455609648502,2.21066871805632,-0.161301103966404,-0.831495956510425,0.117794786023196,0.190494716785264,-0.00285562313059577,3.90778689386703,-0.00299043817910491,0.00186562926524981,-0.000778332894857782,2.21066871805632,-0.161301103966404,-0.831495956510425,0.117794786023196,0.190494716785264,-0.00285562313059577,-0.6206854605457,2.5724521230148,-2.45606001755662,-0.241142886406327,0.149016725629893,-0.0328235542546535
4.8,4.92633269782059,-2.55976726312492,3.1039586060314,0.336987693132279,0.1145803396302,0.0273654871484961,2.18331487034904,0.131337455009213,-1.01942628425337,0.111514499729838,0.209948522758044,0.0133864333193383,3.88702487504132,-0.00437781626769114,0.000223568103980058,-0.00199595483524289,2.18331487034904,0.131337455009213,-1.01942628425337,0.111514499729838,0.209948522758044,0.0133864333193383,-0.90883351459236,2.54654214105458,-2.52131052360256,-0.353272253882409,0.0227519928554679,-0.0844074391193217
4.9,4.98083857126005,-2.53338879929149,2.91138097543947,0.264812581940305,0.0592452672479882,-0.0415812565251078,1.95414647953731,0.313207491219196,-1.22920496922242,-0.0238137312803617,0.0844816569001241,-0.0797453732249968,4.00271747185548,0.00163802580444373,0.00471803776420869,0.00570911869779571,1.95414647953731,0.313207491219196,-1.22920496922242,-0.0238137312803617,0.0844816569001241,-0.0797453732249968,-0.369990150689784,2.11245575958917,-2.09717778046456,0.131563436005033,0.369138738986729,0.240461152125022
5,5.07070976378249,-2.41952191236154,2.79667981066134,0.235759561402355,0.0418632081784965,-0.0490458001933172,1.96976524874879,0.551250090927929,-1.39403620097177,0.246493365523643,0.295383880824941,0.116401951127449,4.06273009743368,-0.00542111832432518,0.000444064060577239,-0.00328897846644789,1.96976524874879,0.551250090927929,-1.39403620097177,0.246493365523643,0.295383880824941,0.116401951127449,-0.237204351349673,1.91188627925477,-1.91623484455788,-0.437517837678045,0.0372887590719239,-0.139297166686931
5.1,5.23802637060019,-2.25373835398169,2.63970744120927,0.400104035639134,0.177435710272188,0.0639135596177119,2.01626926930713,0.814706083062993,-1.46722852677692,-0.0337060734555389,0.18096453002143,-0.0461747874187055,4.06109729058565,-0.00685486370478961,-0.00208769637908025,-0.0008785606825498,2.01626926930713,0.814706083062993,-1.46722852677692,-0.0337060734555389,0.18096453002143,-0.0461747874187055,-1.51976109013196,3.07291681208305,-2.44674302299948,-0.554118320566974,-0.152586255986467,-0.037968407441149
5.2,5.37149010841493,-2.11542759354608,2.49680287055058,0.277370079039831,0.139754898258428,-0.0126419331919934,1.75821260663231,1.26661112599602,-1.3626433857746,-0.116856411684759,0.0555548613586904,-0.00499879608243074,3.82638886482726,-0.00232960230634086,0.00290827474647347,0.000774323588032286,1.75821260663231,1.26661112599602,-1.3626433857746,-0.116856411684759,0.0555548613586904,-0.00499879608243074,-0.998717143205822,2.10833251890618,-2.52148128649685,-0.189111025899965,0.229810081971454,0.0315687752635261
5.3,5.406704906696,-1.88873070427048,2.57671264808751,0.217895484083832,0.077740385512821,-0.000949998089708392,1.69876361751007,1.309962301884,-1.91415269375554,0.0385684940259963,0.247188913929501,0.0181566862950096,4.07280973285714,-0.0044856983910082,-1.71552291570055e-05,-0.000878591245509652,1.69876361751007,1.309962301884,-1.91415269375554,0.0385684940259963,0.247188913929501,0.0181566862950096,-0.615974586562967,1.76146810527767,-1.88100751021787,-0.363019498413597,0.00442721592301823,-0.0382097362660466
5.4,5.51418553368735,-1.77750495920233,2.18261617551886,0.295837320259794,0.181027955025182,0.0129449089932133,1.66183933936043,1.53401613653206,-1.86348572792837,-0.0553274206405722,0.14620848554409,-0.00819003262535671,4.16922437926412,-0.00667786600118579,-0.00167304504423746,-0.000225840852621458,1.66183933936043,1.53401613653206,-1.86348572792837,-0.0553274206405722,0.14620848554409,-0.00819003262535671,-1.46739182014853,2.41220622001143,-1.9641252815954,-0.540316395082055,-0.122184107588647,-0.0109610026443287
5.5,5.57243396952078,-1.62133639830365,2.01648888693696,0.229601790152828,0.123727592440984,-0.0227699928517458,1.38430520595659,1.84683608265101,-1.81730613912005,-0.191440134705643,0.0541521399733504,-0.0166829902858441,4.04479466594668,-0.00243633908272992,0.0023126894761994,0.00184793954736281,1.38430520595659,1.84683608265101,-1.81730613912005,-0.191440134705643,0.0541521399733504,-0.0166829902858441,-0.929983545003366,1.86276463610416,-1.99292291996647,-0.198367746691916,0.184012579281578,0.0763919923299217
5.6,5.58401073781652,-1.38974695771256,2.00803133152823,0.16171315385332,0.0898234010283236,-0.0204051488922839,1.34891932675745,1.95157243121109,-2.13650550522627,-0.0322831423141954,0.216572813668736,0.0303621080506279,4.16332400495252,-0.00456820361352921,-0.000649981358268813,-0.000480477045751799,1.34891932675745,1.95157243121109,-2.13650550522627,-0.0322831423141954,0.216572813668736,0.0303621080506279,-0.709669249591725,1.35542937512712,-1.62512077999424,-0.370157255428596,-0.0447681646031287,-0.0218446541917448
5.7,5.68372826764677,-1.19823567915338,1.72170896746745,0.249193692090053,0.19164539796176,0.0179320600490862,1.32808730746459,2.11071871043253,-2.10528792144557,-0.116905845028178,0.121702994018087,0.00105757532975347,4.26241491438498,-0.00741619650308869,-0.00242418967470039,-0.000879520784974746,1.32808730746459,2.11071871043253,-2.10528792144557,-0.116905845028178,0.121702994018087,0.00105757532975347,-1.61105227668196,2.07386150110498,-1.69973905194669,-0.600532504989675,-0.180162272957943,-0.0389033792672526
5.8,5.78558883064343,-0.966619158983025,1.5877889673135,0.232104008093805,0.184859545844635,0.0269573713224272,1.0976675106542,2.46199367882955,-2.04731029979287,-0.241559301954829,0.062892569093482,0.00984475028028896,4.20298287933294,-0.00632655518859944,-0.00136190661132109,-0.00176731108950701,1.0976675106542,2.46199367882955,-2.04731029979287,-0.241559301954829,0.062892569093482,0.00984475028028896,-1.55522735679283,1.8923552619814,-1.76882348365628,-0.512853801833562,-0.0985836465612216,-0.0764411074713017
5.9,5.7763606783911,-0.700140680355377,1.56303335940033,0.152354909792728,0.150568789882955,0.0180437382014824,0.924439099885534,2.60613627164683,-2.24066224247081,-0.235941152942911,0.0872485656943568,-0.0246789254237961,4.20929836654569,-0.00466345462267653,-0.00119047437972434,0.000274949356014839,0.924439099885534,2.60613627164683,-2.24066224247081,-0.235941152942911,0.0872485656943568,-0.0246789254237961,-1.27101544447412,1.25492994628739,-1.58306609214366,-0.378983096793673,-0.0854238526590139,0.00977741755753555
6,5.752538813076,-0.501982084897977,1.31858918645989,0.115303600034957,0.143204702269595,-0.0191611431063338,0.779524363192281,2.63257090234025,-2.33307792977179,-0.206072015534895,0.0711316655776251,-0.000961516759034602,4.30209371182395,-0.00435519964359293,-0.00105414616956245,0.000915789741202467,0.779524363192281,2.63257090234025,-2.33307792977179,-0.206072015534895,0.0711316655776251,-0.000961516759034602,-1.20060893352072,1.01308654816335,-1.35043529158023,-0.35384822081793,-0.0760947295026616,0.036846698721653
6.1,5.78468310771874,-0.280419878287974,1.11914607470058,0.141669484280834,0.166378547912599,0.0175294913906758,0.699096762341589,2.76118203006881,-2.28218621645646,-0.190694794747611,0.0926615188389879,0.036397455685586,4.34170784697653,-0.0070436662603845,-0.00311909140915409,-0.00260433896981672,0.699096762341589,2.76118203006881,-2.28218621645646,-0.190694794747611,0.0926615188389879,0.036397455685586,-1.44494312118741,1.20092085117063,-1.33228588593911,-0.570739726045856,-0.235246679003386,-0.111643121810353
6.2,5.77805646096936,-0.0704024362482638,0.963339997778544,0.116478579608945,0.157848668784753,0.0103850382684921,0.475938575358761,2.8821909868862,-2.35272537797726,-0.346555790665956,-0.0162520460935854,-0.0613852343875469,4.39651336926199,-0.00343659889298522,-0.000821887701811713,0.00234497007724951,0.475938575358761,2.8821909868862,-2.35272537797726,-0.346555790665956,-0.0162520460935854,-0.0613852343875469,-1.38338321100445,1.00757300900431,-1.18513091418573,-0.280631514535924,-0.057764812681123,0.0972088434018989
6.3,5.72557116352241,0.151398330239475,0.807850645586995,0.0220876668861366,0.106505260827411,-0.03748151461523,0.319466516937144,2.95127751644728,-2.36434393511953,-0.221265738906787,0.0672616462362981,0.0403310608530146,4.34728657186571,-0.00358270852916352,-0.00133528292536771,-0.000207135716715345,0.319466516937144,2.95127751644728,-2.36434393511953,-0.221265738906787,0.0672616462362981,0.0403310608530146,-0.916197842402396,0.226518758691219,-1.16680192768708,-0.291283760865478,-0.0993926459113711,-0.0102786900151184
6.4,5.69873790736029,0.381123838194065,0.653614058837523,0.0653762106786603,0.146945527710241,0.0117936331459347,0.299443959519081,2.86366632724687,-2.38703240058986,-0.239041287881653,0.0401788684368883,-0.00954499405369807,4.39585664339018,-0.00495097188416627,-0.00252603721697561,-0.000158038872681815,0.299443959519081,2.86366632724687,-2.38703240058986,-0.239041287881653,0.0401788684368883,-0.00954499405369807,-1.29119300001519,0.559170939290387,-1.13161472309996,-0.402452242101639,-0.190296113519521,-0.00813626300290171
6.5,5.70198295480924,0.554754038509721,0.442481205936232,0.0404103685113471,0.137466288232429,-0.0136533101924458,0.100337690299627,2.97193203607244,-2.44234350077037,-0.315384065807084,-0.0154048716237817,-0.0115656454962244,4.49893227723621,-0.00314500737157067,-0.0013982555456517,0.00114509605407355,0.100337690299627,2.97193203607244,-2.44234350077037,-0.315384065807084,-0.0154048716237817,-0.0115656454962244,-1.22692672089132,0.380294604969713,-0.904294335897641,-0.256688861000977,-0.104103489912106,0.0469535245851865
6.6,5.65397914892159,0.790911970100161,0.315783432224384,-0.00184273119274114,0.12105223103322,-0.00687314401608638,-0.0119868822788478,2.99925695735334,-2.36360081794917,-0.249484312603206,0.0295306911922514,0.0246277354632927,4.41868978352933,-0.00396070366519507,-0.0023231002876719,-0.000890975449681289,-0.0119868822788478,2.99925695735334,-2.36360081794917,-0.249484312603206,0.0295306911922514,0.0246277354632927,-1.06725862922059,-0.00894975265996832,-1.03730619863275,-0.32223215897482,-0.175904175532269,-0.0387733531430031
6.7,5.62945641534785,1.01959549906939,0.208974019749579,0.0250058892103924,0.155416254599835,0.023261130260141,-0.069029103001227,2.94976768049409,-2.43177934630702,-0.286989471738945,-0.00538114956142499,-0.00801795486018474,4.49420057856396,-0.00448568188587417,-0.00315612975360725,-0.000727612308403283,-0.069029103001227,2.94976768049409,-2.43177934630702,-0.286989471738945,-0.00538114956142499,-0.00801795486018474,-1.39574272916069,0.192327944801796,-0.932710573767348,-0.365076074468191,-0.239904194023815,-0.0317571050853089
6.8,5.56844625639885,1.17282446152782,-0.0132966426684931,-0.0386912525431297,0.110973648162167,-0.0216561669628222,-0.329106338477528,2.95954925236209,-2.46890143092292,-0.351437438966482,-0.0719116426229899,-0.0319251839834258,4.53345064777342,-0.00082107731343281,-0.000666769650970228,0.00254325188303828,-0.329106338477528,2.95954925236209,-2.46890143092292,-0.351437438966482,-0.0719116426229899,-0.0319251839834258,-1.01073109195659,-0.328912521414428,-0.805615605928519,-0.0693831139295893,-0.0489629743078161,0.106416464457963
6.9,5.49041803335045,1.39898255429481,-0.122786290526207,-0.0592554802231735,0.105576743946583,-0.00487861654685286,-0.322203894054736,2.8670333261122,-2.37303671998259,-0.18507394863804,0.0446557799214776,0.064684005058119,4.43221652226378,-0.00437129828184143,-0.00326743368200612,-0.00283971263617811,-0.322203894054736,2.8670333261122,-2.37303671998259,-0.18507394863804,0.0446557799214776,0.064684005058119,-0.935050790501558,-0.520403360931987,-1.0103958292418,-0.355001467380276,-0.249871465251956,-0.12049428398853
7,5.48313415641014,1.58377958040174,-0.246645837295977,0.0134510934722574,0.169831164031753,0.0529561721428639,-0.375307616042271,2.79761043257331,-2.48396223096921,-0.335537641457171,-0.0614906480561096,-0.0424154019954328,4.60093019965177,-0.00369727736517943,-0.0035618821203067,-0.000399997078104649,-0.375307616042271,2.79761043257331,-2.48396223096921,-0.335537641457171,-0.0614906480561096,-0.0424154019954328,-1.55949177815829,0.0412831036639336,-0.741344316411645,-0.301909689437556,-0.272137814354928,-0.0174650630318631
7.1,5.41726568910338,1.72914013149077,-0.463827657588512,-0.0881768604889125,0.106455541804034,-0.0149586596291964,-0.695472510735913,2.89231192675775,-2.47472486324486,-0.337105778253072,-0.0940547400926609,-0.00746857611404909,4.61892716338855,-0.000789962832025431,-0.00129922728770344,0.0011550758717265,-0.695472510735913,2.89231192675775,-2.47472486324486,-0.337105778253072,-0.0940547400926609,-0.00746857611404909,-0.989810093390106,-0.798793528291966,-0.660128009587428,-0.0665701934428393,-0.0989396705465608,0.0483458037653142
7.2,5.27627710835817,1.95499726927337,-0.551046566142039,-0.0981063953053762,0.0967105001518455,0.011708739997442,-0.672284562560367,2.63987853275023,-2.35333277611787,-0.214540729182245,-0.0073295116414373,0.0364202961766323,4.44960863880658,-0.00297453277433572,-0.00297092818962215,-0.00221873137680736,-0.672284562560367,2.63987853275023,-2.35333277611787,-0.214540729182245,-0.0073295116414373,0.0364202961766323,-0.844910199427028,-0.881623311672565,-0.994959713910083,-0.242487619706103,-0.228018285912417,-0.0938193306647672
7.3,5.21965139571788,2.03996289625418,-0.701915223775208,-0.0753514258102887,0.11796921657856,0.0197192460596108,-0.743106749674252,2.50845132194668,-2.57463372377672,-0.326978956639387,-0.0980874817365293,-0.0512517378656619,4.63634202912053,-0.000515078335176217,-0.00166083752289419,0.00157687843827962,-0.743106749674252,2.50845132194668,-2.57463372377672,-0.326978956639387,-0.0980874817365293,-0.0512517378656619,-1.07428331715323,-0.719371501955873,-0.627892962907811,-0.0447667096061067,-0.12746398115735,0.0664428825528371
7.4,5.18789634804913,2.20820860054008,-0.910162786587934,-0.102160880145675,0.113738126874854,0.0173909037562665,-0.843430651964675,2.53903100915115,-2.42412352619228,-0.19689717926446,-0.0155861781302865,0.0647680183158477,4.61922016338663,-0.00363473197836191,-0.00383920160531028,-0.00377954274440378,-0.843430651964675,2.53903100915115,-2.42412352619228,-0.19689717926446,-0.0155861781302865,0.0647680183158477,-1.02649007857997,-0.960162207258047,-0.679108130873496,-0.29534863248378,-0.295494406984896,-0.159403697020337
7.5,5.07456905979581,2.35844610995367,-1.00309999418438,-0.0802282110778502,0.125820254559041,0.0497500719783669,-0.974818033648127,2.34744699895189,-2.47057026101928,-0.355559700802165,-0.139002898420199,-0.0733947391144251,4.63970255260285,-0.000279650156598345,-0.0018668561877145,0.00128151620274362,-0.974818033648127,2.34744699895189,-2.47057026101928,-0.355559700802165,-0.139002898420199,-0.0733947391144251,-1.12229491835302,-0.800473322859212,-0.633559748892415,-0.0258191566087851,-0.144199432538871,0.0542370402193166
7.6,4.90562247271732,2.39286409809365,-1.22320291141019,-0.218948957966793,0.0139371386623187,-0.0632522496946233,-1.1969575701088,2.21953652547437,-2.57081637532982,-0.267179937710919,-0.0993153096481964,-0.00761984201351996,4.67663288769769,0.00386083710497409,0.000581701545666981,0.00338749685738239,-1.1969575701088,2.21953652547437,-2.57081637532982,-0.267179937710919,-0.0993153096481964,-0.00761984201351996,-0.255402441840114,-2.01945922600199,-0.680918190069706,0.309443473500832,0.0439797481990099,0.143243093163312
7.7,4.78947976978648,2.53400527322551,-1.37368578487606,-0.164063153146216,0.0592479135786684,9.04253221879238e-05,-0.960186469776546,1.7311734007173,-2.3607664195278,-0.0525240447616346,0.0164571010599,0.0734193190027908,4.4600716947257,-0.00193904344703405,-0.00233866163734497,-0.00346676690669212,-0.960186469776546,1.7311734007173,-2.3607664195278,-0.0525240447616346,0.0164571010599,0.0734193190027908,-0.520966345020832,-1.45695750815954,-1.02507956921938,-0.158071622225067,-0.18089281775696,-0.145871768129436
7.8,4.76234861758108,2.45470409764164,-1.50746680390795,-0.116014165402793,0.0753327828808395,0.00671726941955664,-1.13053391031486,1.69944765827869,-2.74667976563268,-0.324201149661251,-0.137262924196662,-0.107464681546733,4.80047872460131,0.00337211126625819,0.000275785909042953,0.00479936598339196,-1.13053391031486,1.69944765827869,-2.74667976563268,-0.324201149661251,-0.137262924196662,-0.107464681546733,-0.710244295263672,-1.11614619617977,-0.30062806221156,0.269169679726617,0.0195145769954593,0.202936498225684
7.9,4.6895583961344,2.61267945918006,-1.75682407202361,-0.190567373899065,0.0520124837202482,-0.024799069849236,-1.16713606054314,1.76374413882714,-2.43422855671114,-0.0533863502640285,0.021623366096249,0.121626813685014,4.68906326793636,-0.00181403492950201,-0.00251302580637632,-0.00456655145412667,-1.16713606054314,1.76374413882714,-2.43422855671114,-0.0533863502640285,0.021623366096249,0.121626813685014,-0.52263396493847,-1.76395035338962,-0.61409927128889,-0.147415054951753,-0.1942966554263,-0.19215911343009
8,4.58682517446291,2.73140353029253,-1.78639702670447,-0.0957722565879956,0.111450190320649,0.0683559041045316,-1.19298546683136,1.38668777093742,-2.52716447743891,-0.279818589890634,-0.119067132448588,-0.0952922020285225,4.70636088413569,0.00123212881671134,-0.00137242710315685,0.0013271487566977,-1.19298546683136,1.38668777093742,-2.52716447743891,-0.279818589890634,-0.119067132448588,-0.0952922020285225,-0.978168872422175,-0.969175056155864,-0.498543805910943,0.0965916018329524,-0.108073189059566,0.0565486361337345
8.1,4.50211825965518,2.70042499286938,-1.96776360078771,-0.200936385917822,0.0486253422779368,-0.0254392877773831,-1.39239481229996,1.52328899341182,-2.64028609907271,-0.147637921479218,-0.0647738254586253,0.0355083102249259,4.8645777508076,0.00129289772934313,-0.000771095623927399,-0.000459406424190548,-1.39239481229996,1.52328899341182,-2.64028609907271,-0.147637921479218,-0.0647738254586253,0.0355083102249259,-0.512625544819375,-1.9293974658632,-0.287862254507724,0.102887999638317,-0.0609305696007436,-0.0187735264672443
8.2,4.3452943220097,2.85009439718422,-2.15132376861245,-0.151574259716328,0.0739898568305215,0.036713247551795,-1.32808260824977,1.05667309385073,-2.40653188278784,-0.134120046367929,-0.0519559316811637,0.000758078608697872,4.69362874085714,0.000360982189734852,-0.00157940023211426,-0.001755179907055,-1.32808260824977,1.05667309385073,-2.40653188278784,-0.134120046367929,-0.0519559316811637,0.000758078608697872,-0.633483300170388,-1.44164799080973,-0.555760268557966,0.027374246345235,-0.123812932175978,-0.0734236012660804
8.3,4.29823231230425,2.77608685900179,-2.19546931010315,-0.138109635677584,0.0926926327149578,0.0396253777877068,-1.3862213968212,1.09503481697686,-2.639576580277,-0.156394340357039,-0.07387552553192,-0.0163365467712131,4.88569153613691,9.79291929664386e-05,-0.00167775828425742,-0.00107449906130208,-1.3862213968212,1.09503481697686,-2.639576580277,-0.156394340357039,-0.07387552553192,-0.0163365467712131,-0.841831978131209,-1.37966825070982,-0.17320792049043,0.00621728886291763,-0.131562541402475,-0.0446819525806767
8.4,4.140926367945,2.81901501239453,-2.48645795979224,-0.195595154670285,0.0390313983341573,-0.00766737828217283,-1.59737792032496,0.902009945866513,-2.53195233715593,-0.19996147385713,-0.115132480038122,-0.0370583152281741,4.91603040380708,0.00397694001144479,0.000487381434062282,0.00212627799364509,-1.59737792032496,0.902009945866513,-2.53195233715593,-0.19996147385713,-0.115132480038122,-0.0370583152281741,-0.390986172973625,-1.90792298434929,-0.172760798706014,0.319310647866751,0.0350867367708013,0.0903847786069799
8.5,3.96512219006869,2.81437821510131,-2.58154627724552,-0.221050910907598,0.0172873371160897,-0.0161683853135522,-1.51058335479983,0.560871223882797,-2.46521547352809,-0.0255687123139465,-0.0251904192253195,0.0377628254845957,4.83572103604372,0.00209405637310788,-0.00014372941249406,-0.00102662727433981,-1.51058335479983,0.560871223882797,-2.46521547352809,-0.0255687123139465,-0.0251904192253195,0.0377628254845957,-0.197379585622912,-2.11759845221397,-0.375297575010471,0.167957795073356,-0.0129423855598112,-0.0426534062608933
8.6,3.91349452786991,2.74719434196175,-2.70009781183483,-0.13911779471339,0.0698676906242781,0.0338114609994559,-1.45117961649572,0.318589385765464,-2.54671975209463,-0.0801700726750181,-0.0425890120284639,-0.0187894266843858,4.92000974033477,0.00111178418854685,-0.000962207541818379,-0.000710334090735654,-1.45117961649572,0.318589385765464,-2.54671975209463,-0.0801700726750181,-0.0425890120284639,-0.0187894266843858,-0.633787380252261,-1.3867282333443,-0.0888230268431602,0.0884013930363677,-0.0766909468434829,-0.0293152806212505
8.7,3.84571329061379,2.69031416718935,-2.88083493809975,-0.158947306012928,0.0652112317968122,0.0163185618991171,-1.62051986832248,0.408332862540805,-2.53080108592207,-0.109331577056987,-0.0706030331499359,-0.00786920304843779,5.02050150263765,0.00174149266985092,-0.000612886901364056,-0.000398365262499372,-1.62051986832248,0.408332862540805,-2.53080108592207,-0.109331577056987,-0.0706030331499359,-0.00786920304843779,-0.620054489784124,-1.59960954056386,0.0833575240857023,0.139405541389678,-0.0495166500393637,-0.0161556222731764
8.8,3.63157867307351,2.70819626167563,-3.06151845279378,-0.216510068634241,0.00998370587651981,-0.0201460894048671,-1.7479376779892,0.118213821750748,-2.47465491851278,-0.110558541391928,-0.0924315982279189,-0.035264275013883,5.04334973396029,0.00524880888851417,0.0013286761026259,0.00262354025321032,-1.7479376779892,0.118213821750748,-2.47465491851278,-0.110558541391928,-0.0924315982279189,-0.035264275013883,-0.14198055387478,-2.16442891280721,0.0407154643647498,0.422389924964365,0.0999001580351787,0.111335249515987
8.9,3.48391269907063,2.62471995365522,-3.17190455530535,-0.212475707978984,0.00473381931324864,-0.0239809405711435,-1.61182084980337,-0.245663375700517,-2.41516418701998,0.0602602209954694,-0.00235348353801532,0.0429591450150938,5.01732023601492,0.00256223290719967,0.000437189702449082,-0.000897992798350684,-1.61182084980337,-0.245663375700517,-2.41516418701998,0.0602602209954694,-0.00235348353801532,0.0429591450150938,-0.0971618765353118,-2.11438891569252,-0.00113011168747512,0.206089050917084,0.0320325078971778,-0.0372865397061374
9,3.44204050629192,2.48817741756335,-3.2905305918689,-0.130270967479015,0.0556321621867221,0.0240014020520885,-1.5896081041172,-0.413163810348365,-2.44694170121913,-0.0277671934184543,-0.0283146400214729,-0.0237618996467151,5.07749305307638,0.00199606498248441,-0.000238263586648341,-1.28607314008347e-05,-1.5896081041172,-0.413163810348365,-2.44694170121913,-0.0277671934184543,-0.0283146400214729,-0.0237618996467151,-0.528048081213562,-1.33221770352315,0.243362821986576,0.160097852076013,-0.0208520301649816,4.54904960688939e-05
9.1,3.29118705042277,2.34875288279739,-3.50123025664548,-0.214653981503692,-0.00702033159817186,-0.0521084604672491,-1.83963726628042,-0.399369273802844,-2.46442466429446,-0.0824630135633316,-0.0938815698833731,-0.0449873186406894,5.24231878236308,0.00701301854548907,0.00226614303525746,0.00460916470128394,-1.83963726628042,-0.399369273802844,-2.46442466429446,-0.0824630135633316,-0.0938815698833731,-0.0449873186406894,-0.0445043301185948,-2.23404032207999,0.433764350451858,0.564897279084015,0.172305891726302,0.195055306143627
9.2,3.15390746293398,2.41669173020984,-3.58380867087781,-0.171396620141724,0.0282770567931382,0.00237381018114602,-1.59865690734685,-0.766414453858876,-2.20146349458442,0.205259012704196,0.0694457718021142,0.119789076531771,5.04812976010157,-0.0011592643372618,-0.00121945103101693,-0.00577622312574638,-1.59865690734685,-0.766414453858876,-2.20146349458442,0.205259012704196,0.0694457718021142,0.119789076531771,-0.277183343313612,-1.72266744104054,0.134347267722555,-0.0937835942893157,-0.0948287620218468,-0.243192416187887
9.3,3.09201962795905,2.17425689884339,-3.65548587849156,-0.0865907557367736,0.0605281040399847,0.0385406875758392,-1.75452899349108,-0.841425968345351,-2.45215261716636,-0.165508280758124,-0.102585192128598,-0.1460172222635,5.27178531209031,0.00510233870714219,0.00118747772233535,0.00509326098296628,-1.75452899349108,-0.841425968345351,-2.45215261716636,-0.165508280758124,-0.102585192128598,-0.1460172222635,-0.599797243912732,-0.935640950130744,0.674831938839924,0.410281561088416,0.0878113194750332,0.215438820210533
9.4,2.9629632695705,2.14871262762886,-3.85945144424369,-0.202303850672903,0.0188646876249784,-0.0380300874502448,-1.83517243929844,-0.652991196272689,-2.16659915791186,0.141523379156715,0.0345853298453088,0.128458471531385,5.20790612843933,0.000670669606468357,-0.000661544476748223,-0.00428130054185787,-1.83517243929844,-0.652991196272689,-2.16659915791186,0.141523379156715,0.0345853298453088,0.128458471531385,-0.271904031813312,-2.08398387912432,0.391579503173881,0.053972968388946,-0.05129366995461,-0.180145578100963
9.5,2.766253291998,2.14402812504085,-3.92172895253962,-0.108488127382368,0.048349056586576,0.0452283308786052,-1.8328761078518,-1.22807576098755,-2.27206684988115,-0.0639563419963751,-0.07716434936205,-0.108872127995161,5.2969460360809,0.00430213812600534,0.00109888068065721,0.00301795653187216,-1.8328761078518,-1.22807576098755,-2.27206684988115,-0.0639563419963751,-0.07716434936205,-0.108872127995161,-0.456612680104546,-1.16889847125313,0.709302755453068,0.345963453479069,0.0813448400990865,0.127835204544008
9.6,2.68161396546542,1.86713647204392,-4.05751663021358,-0.167511463745993,0.0189749987979483,-0.0314359767812931,-1.8826595593294,-1.04824471597361,-2.10786790404221,0.122541907033025,0.0195861824675928,0.0739498480739336,5.2799987127944,0.0014962498002287,-3.76237995315859e-05,-0.00201039364980937,-1.8826595593294,-1.04824471597361,-2.10786790404221,0.122541907033025,0.0195861824675928,0.0739498480739336,-0.252800695802257,-1.75358020872293,0.600311901581971,0.120439698101662,-0.00372577993813564,-0.0843690848376573
9.7,2.5392528428792,1.88562348110748,-4.13105560066987,-0.0818938554921854,0.0681369825975742,0.0516576038770659,-1.84649553036482,-1.36419163691338,-2.11108495879683,0.0189186214549856,-0.0240664436769186,-0.0333843718485591,5.31593627677653,0.00132912662279259,-0.000489498000918818,-0.000862971284969206,-1.84649553036482,-1.36419163691338,-2.11108495879683,0.0189186214549856,-0.0240664436769186,-0.0333843718485591,-0.675567695758749,-0.90580312978356,0.761652802353861,0.106494738376679,-0.0400202056912716,-0.0359642980595817
9.8,2.41225359392737,1.64895803282325,-4.27298066331484,-0.142079564631668,0.0280733609206788,-0.0125661930977861,-2.05339330721795,-1.25943823142371,-2.05672524645884,0.00285104828607069,-0.0599836363391073,-0.0267031204515228,5.39438588034237,0.00395066934178936,0.00106562864088674,0.00186139930066736,-2.05339330721795,-1.25943823142371,-2.05672524645884,0.00285104828607069,-0.0599836363391073,-0.0267031204515228,-0.318959161131471,-1.52382429253625,0.865852222804277,0.318133738500773,0.0803285084033922,0.0789697785228534
9.9,2.20974709351248,1.63920930156184,-4.36491608344347,-0.133270805290862,0.0241901326878618,0.00112874593551405,-1.96977981843494,-1.54571714161181,-1.93031742597877,0.135974898052886,0.015460727954112,0.0463794462888378,5.37058980252862,0.00117249348890619,-7.20401569169441e-05,-0.00224402455844722,-1.96977981843494,-1.54571714161181,-1.93031742597877,0.135974898052886,0.015460727954112,0.0463794462888378,-0.255890250197475,-1.42754169988049,0.832818432307016,0.0942746477073649,-0.00661905529062033,-0.09429222708525
10,2.10221476038666,1.40579746238183,-4.44417115847243,-0.0856561446175776,0.0436649760988696,0.0213446145277411,-1.99879462402345,-1.67714409243817,-1.92334045310715,0.0175191524136027,-0.0393554111492052,-0.0558540338508835,5.43022281860216,0.00297466016075318,0.00059138951446232,0.0016377102899549,-1.99879462402345,-1.67714409243817,-1.92334045310715,0.0175191524136027,-0.0393554111492052,-0.0558540338508835,-0.452394422837549,-0.938996108576056,1.00031475179769,0.23934218203963,0.043550458499809,0.0694810476472655
10.1,1.97553712677622,1.26637074805692,-4.54832959224793,-0.118891177120233,0.0301623666705803,-0.0103696044574278,-2.07141038939744,-1.6217065930293,-1.79230113379884,0.113175649571772,-0.0007685392159004,0.0403015139291937,5.42757903155553,0.00158628738638721,9.58581297547651e-06,-0.00141388642904033,-2.07141038939744,-1.6217065930293,-1.79230113379884,0.113175649571772,-0.0007685392159004,0.0403015139291937,-0.338390258488067,-1.28410437482013,0.963626342260673,0.127705890140047,-8.47144676480329e-05,-0.0593038661770258
10.2,1.77224284877743,1.15666114976586,-4.64077037617897,-0.105076104841454,0.0165677179557907,-0.000807722168974852,-2.12636572728552,-1.88196808898038,-1.79606609999435,0.0375639037164328,-0.0501057951219283,-0.0531480481987841,5.53138599637862,0.00413990352324256,0.00144317803914461,0.00256504761364139,-2.12636572728552,-1.88196808898038,-1.79606609999435,0.0375639037164328,-0.0501057951219283,-0.0531480481987841,-0.183202791629501,-1.16014750373961,1.19024630044437,0.333429521386982,0.109475490730209,0.10856561929464
10.3,1.6233424851369,0.939037854383945,-4.74007310657581,-0.125799237633695,-0.00197591781900622,-0.0355339560202004,-2.09566953232796,-1.95536862950673,-1.60721760764557,0.162314136939176,0.0167754436908761,0.0420044072035654,5.50548161741819,0.00259314410007135,0.000849216054348358,-0.000289498310388321,-2.09566953232796,-1.95536862950673,-1.60721760764557,0.162314136939176,0.0167754436908761,0.0420044072035654,-0.0275093566940855,-1.38141490670993,1.11393003683804,0.208984747257598,0.0647938343373606,-0.0119121287764983
10.4,1.54464621687699,0.833544568128462,-4.72898473169754,-0.0259074785516811,0.0688671485297123,0.0468303225878561,-1.9926487647032,-2.06712871598018,-1.54908946443512,0.144324294909215,0.0323507440276057,0.0149167565185994,5.45074636777701,-0.000951161151657425,-0.00158984834174034,-0.00291423940690747,-1.9926487647032,-2.06712871598018,-1.54908946443512,0.144324294909215,0.0323507440276057,0.0149167565185994,-0.735867549506308,-0.317194669012793,1.0620021318463,-0.0770608489148475,-0.123501994818918,-0.122675529627874
10.5,1.40920422344137,0.606153447615597,-4.83967769407893,-0.0634057686242351,0.0375106932278317,-0.000425339562258698,-2.29376398586814,-1.90562763856534,-1.57024690680388,-0.0339723134234958,-0.101303429982202,-0.078581792074946,5.58791017819203,0.0044849137201167,0.00149752430038122,0.00374595281796931,-2.29376398586814,-1.90562763856534,-1.57024690680388,-0.0339723134234958,-0.101303429982202,-0.078581792074946,-0.418573428628969,-0.707958799225017,1.33551709260786,0.361233666701296,0.113841388835791,0.158338912918447
10.6,1.14785588117908,0.589080032653346,-4.92643170539936,-0.119220353563506,-0.0074000312534605,-0.0285633384462978,-2.23497307297946,-2.04067998065718,-1.35390650366165,0.215090954679062,0.0384168522602023,0.0833668703695652,5.5515370664686,0.00108093653988723,6.18703859514294e-05,-0.00258081670674057,-2.23497307297946,-2.04067998065718,-1.35390650366165,0.215090954679062,0.0384168522602023,0.0833668703695652,0.0438308406947533,-1.32237007421226,1.21395897333309,0.087141057787988,0.0046453669836826,-0.108655583742955
10.7,0.991906621108869,0.354896598625851,-4.95900304813396,-0.0423510663629022,0.019300923643328,0.00683894529229205,-2.17936673202725,-2.36473457418871,-1.37527250886977,0.0545098865076001,-0.0453153223111886,-0.08436635727055,5.64752452360793,0.00382604138212538,0.00137756907686996,0.00368528715339344,-2.17936673202725,-2.36473457418871,-1.37527250886977,0.0545098865076001,-0.0453153223111886,-0.08436635727055,-0.214520327443629,-0.479692685806782,1.47281919270661,0.308122581045744,0.10468089007231,0.155725042998451
10.8,0.907858598910041,0.0899788623970625,-5.03014093409001,-0.0804233094396338,0.00222606540230626,-0.0426400361024798,-2.22353435088864,-2.18327054865915,-1.13607976917981,0.19910679234365,0.0271878596631897,0.0744053587170088,5.57031207897027,0.00149299001051492,0.000371084215668671,-0.00148634810504754,-2.22353435088864,-2.18327054865915,-1.13607976917981,0.19910679234365,0.0271878596631897,0.0744053587170088,-0.0628483940540251,-0.893133105037546,1.29458778904193,0.120375949275472,0.0284613739576321,-0.0625131428423699
10.9,0.727549216328153,0.0299589690612723,-5.01793050239081,-0.0176755985062031,0.029001019923845,0.0183877952408833,-2.20517931685254,-2.36685545369805,-1.18096554390669,0.10551121552712,-0.0135896488344835,-0.043710885974529,5.64286315630448,0.0017678202616263,0.000398135196030702,0.00120932518407956,-2.20517931685254,-2.36685545369805,-1.18096554390669,0.10551121552712,-0.0135896488344835,-0.043710885974529,-0.323477626988007,-0.20545401741047,1.46921846914415,0.142196858714506,0.0296588785028944,0.0512124267226918
11,0.603408140441197,-0.195518568509849,-5.09490513623215,-0.0398945004874148,0.0199059390019247,-0.0209829514306878,-2.27850223686334,-2.22251932047218,-0.987377506066891,0.132395616501323,-0.00606493312005811,0.0237976899326718,5.60578268055621,0.00178521587590967,0.000291020745231939,-0.000124176793141863,-2.27850223686334,-2.22251932047218,-0.987377506066891,0.132395616501323,-0.00606493312005811,0.0237976899326718,-0.232317418107454,-0.442384199358156,1.39042511174901,0.143804601858258,0.0219781499433255,-0.00507207476471517
11.1,0.442898923583291,-0.24142043186219,-5.05855646205698,0.0032326014173038,0.0471663164725123,0.0313823236741012,-2.24014141918501,-2.27365514505891,-0.9489308219823,0.159789583448586,0.0123246776053669,0.0149834262843538,5.60311461823735,-0.000674134111802084,-0.00114795341968969,-0.0021872218888204,-2.24014141918501,-2.27365514505891,-0.9489308219823,0.159789583448586,0.0123246776053669,0.0149834262843538,-0.529234328596775,0.0196289974707835,1.38370802854502,-0.0546333048296147,-0.0889065284069615,-0.0921395147269851
11.2,0.310149411566182,-0.419918278835275,-5.09927616441411,0.0232660502019825,0.0544335015009729,0.0298718855356257,-2.35095981687705,-2.17668402157972,-0.867652071244622,0.0578318190412152,-0.0473147807195218,-0.0331478627893858,5.63175734051252,0.000769543329770689,-0.000527738833249778,0.000157349151935081,-2.35095981687705,-2.17668402157972,-0.867652071244622,0.0578318190412152,-0.0473147807195218,-0.0331478627893858,-0.620196921312334,0.243618846090497,1.43378800077139,0.0617180526887835,-0.0412417888163545,0.00676988989353826
