time,x,y,z,roll,pitch,yaw,xdot,ydot,zdot,p,q,r,thrust,roll angle,pitch angle,yaw angle,_xdot,_ydot,_zdot,_p,_q,_r,_xddot,_yddot,_zddot,_phiddot,_thetaddtot,_yawddot
0,3.01841953230695,3.01841953230695,0.0184195323069548,0.0184195323069548,0.0184195323069548,0.0184195323069548,0.0184195323069548,0.0184195323069548,0.0184195323069548,0.0184195323069548,0.0184195323069548,0.0184195323069548,9.02033008364953,-0.0071766993874146,0.00451425818430713,-0.00181765094948104,0.0184195323069548,0.0184195323069548,0.0184195323069548,0.0184195323069548,0.0184195323069548,0.0184195323069548,-0.338289137170877,0.326106276288984,8.22454003927487,-0.578766186235337,0.347250736948934,-0.076694136017151
0.1,1.82036642022637,1.82036642022637,0.0203664202263731,0.0198932219359349,0.0195024670705127,0.0190375557202096,-0.084428211309533,0.120082066873867,4.53637975383389,-0.308532040536169,0.201028085411567,-0.0322745521414403,5.51862443839412,-0.000436239266039197,-0.00127131580726864,0.0005422997726649,-0.084428211309533,0.120082066873867,4.53637975383389,-0.308532040536169,0.201028085411567,-0.0322745521414403,-0.219337834275153,0.215415591055992,1.22296650070818,-0.0351835136218089,-0.0977905745171064,0.0228817610544252
0.2,1.96190650773389,2.05375752126502,2.08943851193008,-0.139695890918101,0.094885812964966,-0.0150005163028097,-0.0583006861800882,0.0613068657421305,1.08805539587556,-0.0449079588062849,-0.0318633940116428,0.0104419350868589,6.7178649215117,0.000467353021194138,0.000433541580571617,0.000207662264482475,-0.0583006861800882,0.0613068657421305,1.08805539587556,-0.0449079588062849,-0.0318633940116428,0.0104419350868589,-1.28846780562512,-1.85169892151204,3.43499521451963,0.0377159959243083,0.0333842912089551,0.00877823845887268
0.3,1.9744879631156,2.03741051188731,0.780620587313654,-0.0314410358133553,0.00516541280968855,0.0103174338623104,-0.299181059207841,-0.301402893738809,2.50486830993147,-0.00432771055045609,0.0362034395646176,0.00767968478275027,6.47620659148365,-0.0041470418672676,0.00118539783114454,-0.000875415614285005,-0.299181059207841,-0.301402893738809,2.50486830993147,-0.00432771055045609,0.0362034395646176,0.00767968478275027,-0.0626667612525398,-0.407838450688103,3.13583902022111,-0.334433335604545,0.0911943877970279,-0.0369214576776201
0.4,1.83862813649946,1.85260461645819,1.52366109461743,-0.035366711134376,0.0145559060295481,-0.0105489379349165,-0.215124636986956,-0.220032930972363,2.35999481199287,-0.223749419108788,0.0532445009855706,-0.033572578162593,6.08268469221893,0.000286340650590624,8.25571344327288e-05,0.00206126631999371,-0.215124636986956,-0.220032930972363,2.35999481199287,-0.223749419108788,0.0532445009855706,-0.033572578162593,-0.181488785916623,-0.428268767811731,2.34647399301794,0.0230837488434083,0.00633796353229114,0.0869924882534976
0.5,1.9175621833576,1.93461567292621,1.61426602492958,-0.0913362135172828,0.0699209549240354,0.0156546208180231,-0.15907443422718,-0.171945287969194,2.1227580542567,-0.00549187335088559,0.0502626955344051,0.0706938849282837,6.16180776041337,-0.00346766750385938,-0.00280628150471605,-0.00407908869801919,-0.15907443422718,-0.171945287969194,2.1227580542567,-0.00549187335088559,0.0502626955344051,0.0706938849282837,-0.83968768024001,-1.1373118369446,2.43226065277,-0.279580548638301,-0.215724366499595,-0.172073954478641
0.6,1.89026680349424,1.90485187518065,1.61816850502803,-0.0338541593509688,0.0397143633469398,0.0310237917688033,-0.312416766218007,-0.355986355001125,2.30919305644207,-0.198302564037761,-0.0991295613878432,-0.0934660212437852,6.00565103047024,-0.00122512122745726,0.0011399090477664,0.00296406500327942,-0.312416766218007,-0.355986355001125,2.30919305644207,-0.198302564037761,-0.0991295613878432,-0.0934660212437852,-0.463782368051582,-0.421143498153414,2.18495399191679,-0.0989169882836028,0.0874807576540815,0.125113146909059
0.7,1.85009279556863,1.85084673247572,1.88791143333621,-0.0910623363019238,0.00839490746322881,-0.00591030337839371,-0.281506463292645,-0.312094606032824,2.27547813144287,-0.0855375246510482,0.0888733663775992,0.0887394621592113,5.80360539417149,-0.00246085250320767,-0.00283113599125874,-0.00391042063542048,-0.281506463292645,-0.312094606032824,2.27547813144287,-0.0855375246510482,0.0888733663775992,0.0887394621592113,-0.10327330000551,-1.05492758257027,1.74871120437154,-0.198353313260145,-0.217432535720199,-0.164952353017793
0.8,1.81302980586788,1.81827401874697,1.96329853104768,-0.0784592500847881,0.0588059932487595,0.0404839195626243,-0.335586248263532,-0.444548112879368,2.14296223357184,-0.170486582078006,-0.105339098125897,-0.0885874905528433,5.8331488646133,-0.000734985763859887,-0.00129331615592906,0.00232545066790022,-0.335586248263532,-0.444548112879368,2.14296223357184,-0.170486582078006,-0.105339098125897,-0.0885874905528433,-0.645975521604224,-0.941305903231585,1.80030411009924,-0.059373341273056,-0.0997575033375872,0.0981886998597026
0.9,1.78676388338904,1.75564017521458,2.05653607769534,-0.113725454408278,-0.0131815711436787,-0.0242315668325655,-0.367322777772062,-0.514615616243813,2.26720711444834,-0.0941040835585617,-0.0346402512348335,0.0572710272998313,5.60701627683266,-0.00151575547627237,-0.000636732596139608,-0.00153766971146526,-0.367322777772062,-0.514615616243813,2.26720711444834,-0.0941040835585617,-0.0346402512348335,0.0572710272998313,0.115982890747761,-1.27575836558831,1.33062451913494,-0.1221434881359,-0.0485177290777345,-0.0648257555292343
1,1.701168499789,1.64917020125548,2.20515930725472,-0.131899901774492,-0.0304715577835207,-0.00441334057343467,-0.447890540423536,-0.676295963053272,2.07662803157925,-0.165780452726454,-0.0548311854713913,-0.0640253532988584,5.60037128887876,0.0016906239634384,-0.000772712584620045,0.00325909044153599,-0.447890540423536,-0.676295963053272,2.07662803157925,-0.165780452726454,-0.0548311854713913,-0.0640253532988584,0.331782535724789,-1.47457539779327,1.28829635747762,0.136332476028138,-0.0594913256536024,0.137564435213224
1.1,1.66190057507132,1.56783575121846,2.26244422943455,-0.156895022894951,-0.0293996271159167,-0.0440381295203708,-0.403674485023241,-0.779798551462646,2.15370129315926,-0.0196487681246316,-0.0451889368448514,0.0557734553978914,5.45049379377298,-0.000767514735117949,-0.00183160524680811,-0.000542246161866918,-0.403674485023241,-0.779798551462646,2.15370129315926,-0.0196487681246316,-0.0451889368448514,0.0557734553978914,0.241210050859014,-1.71558478305007,0.952440101917524,-0.0618344587010585,-0.140238394831202,-0.0228398901223529
1.2,1.69059311389321,1.5238059052784,2.46044644475693,-0.061451691934785,0.0102215565625253,0.0453213658935422,-0.319405482885613,-0.838711381031656,2.08840739287984,-0.0892596548637973,-0.0671543675412377,0.00530831844828732,5.38324355988079,-0.00348666835599977,-0.00340208352010437,-0.00230098681909929,-0.319405482885613,-0.838711381031656,2.08840739287984,-0.0892596548637973,-0.0671543675412377,0.00530831844828732,-0.0797714858432496,-0.665499990675142,0.935603341481107,-0.281180999429438,-0.261665821169687,-0.0970626489946572
1.3,1.65755742825587,1.4096250548948,2.53096358087381,-0.13131865619244,-0.0384984210834815,-0.0108449803285299,-0.361589453161375,-1.03206085676002,1.9994569934715,-0.243396207594576,-0.169670519174732,-0.0665168564801144,5.29339792840247,0.00424021944392124,0.000455023970529951,0.00367545585126348,-0.361589453161375,-1.03206085676002,1.9994569934715,-0.243396207594576,-0.169670519174732,-0.0665168564801144,0.388908603599018,-1.39055094834187,0.677867498770876,0.341952976138529,0.0349727949070743,0.155086008104372
1.4,1.6455088934714,1.30262096165725,2.62313709509128,-0.184148550471035,-0.0692076334280485,-0.024583163566902,-0.329852228664346,-1.05118021637254,1.98043753953643,0.100936559342375,0.00551372090322086,0.086240322124548,5.1875617094839,-0.00203424809255404,-0.00331361009645233,-0.00291557328107577,-0.329852228664346,-1.05118021637254,1.98043753953643,0.100936559342375,0.00551372090322086,0.086240322124548,0.658423037822315,-1.91654771982454,0.365289180151798,-0.164140667788336,-0.253981820367722,-0.123086113067091
1.5,1.61194557359631,1.21060062888861,2.72401242922113,-0.0571110997375813,-0.0138595006304898,0.030486191091093,-0.326874625480928,-1.19742112531983,1.90424032675793,-0.17138468270462,-0.171660905560859,-0.0733919153649275,5.18278701725164,-0.00032282188069437,-0.00214578934916296,0.00205197186220173,-0.326874625480928,-1.19742112531983,1.90424032675793,-0.17138468270462,-0.171660905560859,-0.0733919153649275,0.161391115529815,-0.587020903443033,0.537680147333397,-0.0260045697474839,-0.165355763311185,0.0865211724373875
1.6,1.59370922533977,1.09121218855893,2.82107935791509,-0.174048187848714,-0.0920559103564754,-0.0379030701224563,-0.251540685322343,-1.38773435179694,1.88079209242818,-0.104345988866165,-0.127622920329991,0.0389534925437604,5.00163633220938,0.00413130819414087,-0.000215256317446441,-7.49763575798581e-05,-0.251540685322343,-1.38773435179694,1.88079209242818,-0.104345988866165,-0.127622920329991,0.0389534925437604,0.839374138482639,-1.76534974793827,0.000425848137705742,0.333025827564598,-0.015798132837014,-0.00330429254062403
1.7,1.57923894065982,0.903138960483916,2.87946814453365,-0.176050147584544,-0.102164404783443,-0.0152596961249338,-0.298694828647194,-1.43218454126594,1.71646423261778,0.0774083584359108,-0.0793863999259037,-0.0251460349516892,5.04468312377908,0.000339298977026139,-0.00196218518230389,0.00187750976584595,-0.298694828647194,-1.43218454126594,1.71646423261778,0.0774083584359108,-0.0793863999259037,-0.0251460349516892,0.985995187726598,-1.7823262063988,0.0716212263539937,0.0273146282010932,-0.150743600844444,0.0790120009951587
1.8,1.53781492998537,0.807019761609935,2.93562104992601,-0.0975950519843384,-0.0879934162692165,-0.0377511891613304,-0.214992028924545,-1.60982870982155,1.75521691007772,-0.0745474013326949,-0.1522574053638,0.0214568654663915,4.90800874542528,0.00157735776204813,-0.0013238256755583,0.000726226110771452,-0.214992028924545,-1.60982870982155,1.75521691007772,-0.0745474013326949,-0.1522574053638,0.0214568654663915,0.821814601627398,-0.988195868690672,-0.0784898876721662,0.127034002444452,-0.101268625907562,0.0304087006413541
1.9,1.59625771351165,0.690585217881539,3.09889340153756,-0.119455890274178,-0.0829058440398674,0.0233270653056748,-0.0604127682493376,-1.71617219766489,1.62154326132899,0.0194023987900655,-0.0973981123431706,0.0341705516601058,4.80921577331865,0.000985522288074855,-0.00244780620561463,-0.00275359899902373,-0.0604127682493376,-1.71617219766489,1.62154326132899,0.0194023987900655,-0.0973981123431706,0.0341705516601058,0.817355775717476,-1.12748962115748,-0.292914200899991,0.0793829854419184,-0.188041423377367,-0.116499075580476
2,1.62103881279349,0.513134655762156,3.10646508738091,-0.100503475739391,-0.0861558057036262,0.0123362952042689,-0.0202254886764147,-1.82487318028571,1.48193304219566,-0.0167187941896771,-0.166020706737754,-0.0612236442236925,4.83844823913029,0.00212807628493334,-0.000925871196489184,0.00228436251390473,-0.0202254886764147,-1.82487318028571,1.48193304219566,-0.0167187941896771,-0.166020706737754,-0.0612236442236925,0.840402105241589,-0.96063116780677,-0.217646925184853,0.171741743024421,-0.071503163860569,0.0960324267720597
2.1,1.61577703094432,0.343353657173589,3.12912318085087,-0.129899165920075,-0.140177558073023,-0.0461698851663641,0.0400357640043973,-1.97532085413344,1.48296435784477,0.0207120731287845,-0.12111541957064,0.037853696446921,4.74566199543907,0.00394208849035658,-0.000342684642355909,0.000380661023892807,0.0400357640043973,-1.97532085413344,1.48296435784477,0.0207120731287845,-0.12111541957064,0.037853696446921,1.25680038001658,-1.28882981280575,-0.490954897725185,0.317557921095021,-0.0256850678179398,0.0156283189169786
2.2,1.63789147494328,0.16085132973027,3.2147094846886,-0.113580681733385,-0.125586365038295,-0.0042329788215798,0.088378434602955,-2.03710209986047,1.38160719003825,0.11545107896389,-0.101500250095982,-0.000920174789018305,4.69868633877469,0.00178089165435673,-0.00171839771300599,0.000237631939086218,0.088378434602955,-2.03710209986047,1.38160719003825,0.11545107896389,-0.101500250095982,-0.000920174789018305,1.1649788042801,-1.07000745156368,-0.546711076516722,0.143572274241744,-0.132103784423899,0.00954362028628774
2.3,1.68374753321069,0.0475424815626821,3.2914643178081,-0.0380124253844314,-0.0947680102402756,0.0140816281547299,0.25970563364878,-2.11881118883099,1.31587831627849,0.0604444637586801,-0.13459714622482,0.0223798273870767,4.58865087048092,0.000707705380662441,-0.00171682959747302,-0.00172716856427178,0.25970563364878,-2.11881118883099,1.31587831627849,0.0604444637586801,-0.13459714622482,0.0223798273870767,0.872611082081484,-0.336513476652927,-0.680477787741538,0.0570111378942786,-0.131975037831244,-0.0733709545260462
2.4,1.73887407747663,-0.142742436571224,3.32268890713192,-0.0735699444089759,-0.133227688645303,0.00734403538880722,0.361018829289043,-2.30132963769399,1.17609850745252,0.00630250713260151,-0.155803235340129,-0.0373084509282297,4.60116137276084,0.00555444692128829,0.00072177390128228,0.00142192029905626,0.361018829289043,-2.30132963769399,1.17609850745252,0.00630250713260151,-0.155803235340129,-0.0373084509282297,1.22400857188025,-0.667432727953549,-0.713897511441193,0.448122457595049,0.0552938711294249,0.0594651316293969
2.5,1.8117887559708,-0.360315730842186,3.33434957473377,-0.083538416645913,-0.141960079809297,-0.0123357097451889,0.438952985893626,-2.29245869115417,1.14910888431845,0.22970246122462,-0.0498055271290471,0.0410358355015216,4.54234369674039,0.00144413043092284,-0.00157522712366663,-0.00137416695677963,0.438952985893626,-2.29245869115417,1.14910888431845,0.22970246122462,-0.0498055271290471,0.0410358355015216,1.27140511042772,-0.773780158594658,-0.848061685739411,0.116196625774378,-0.120878281790057,-0.0585743172059408
2.6,1.85474515987502,-0.502999750405958,3.39394714101554,0.016765010939293,-0.102484403491592,0.0236084444631559,0.544674350564084,-2.3481672838166,1.03239415799566,0.0715147276492531,-0.144441929072076,-0.0225334099539556,4.47977178103414,0.00197595593372596,-0.000634361992252068,-4.25809233021269e-05,0.544674350564084,-2.3481672838166,1.03239415799566,0.0715147276492531,-0.144441929072076,-0.0225334099539556,0.912677124151575,0.1717925681088,-0.898719024674831,0.159611932279093,-0.0490353674380308,-0.00232155106197197
2.7,1.93032422430937,-0.666084428786702,3.41800000212666,-0.0350267138123461,-0.144078225837637,0.00310506534746078,0.714582249191227,-2.48826054645691,1.00343963802725,0.104514888494674,-0.107196053199983,0.0110472128835277,4.4252427875807,0.0053523669463242,0.00104747380730766,-0.000723712055740792,0.714582249191227,-2.48826054645691,1.00343963802725,0.104514888494674,-0.107196053199983,0.0110472128835277,1.27093190014421,-0.305995195064783,-1.0565895810871,0.431606079731033,0.0806037123685232,-0.0310814428496727
2.8,2.03487616226159,-0.91346200087066,3.44517396237913,-0.0228029924880806,-0.14062657149042,0.00698542030083354,0.754553532630052,-2.44232790458548,0.841777566167789,0.257798207161323,-0.04409919917028,-0.0104718987673697,4.46057629828486,0.00201782605441002,-0.000575529387610009,7.86161545410696e-05,0.754553532630052,-2.44232790458548,0.841777566167789,0.257798207161323,-0.04409919917028,-0.0104718987673697,1.25148554663278,-0.194674014589672,-0.979210136918935,0.162857202737104,-0.0443598218056645,0.00278343234474339
2.9,2.04899297735872,-1.08174835632196,3.40341053814564,0.0212049072163998,-0.152047088375566,-0.0342599920097032,0.844521557752049,-2.53932396198954,0.804022137913045,0.103208315229671,-0.138634222546735,-0.0208216795478709,4.44976932137422,0.00579252900237674,0.00220921417137424,0.00249590052162908,0.844521557752049,-2.53932396198954,0.804022137913045,0.103208315229671,-0.138634222546735,-0.0208216795478709,1.35331094072747,0.142427975534481,-1.01511217676625,0.467108664027493,0.169955639058526,0.104883150044767
3,2.17048613282868,-1.25025567629836,3.46706410399122,-0.00120975278123833,-0.166155811842678,-0.00933897050780048,1.02024312882729,-2.52843157654585,0.808048408525331,0.304770676652072,0.00569431749552485,0.0624752121130576,4.33849250019167,0.00294769417231208,0.000506999269001978,-0.00268125339531213,1.02024312882729,-2.52843157654585,0.808048408525331,0.304770676652072,0.00569431749552485,0.0624752121130576,1.43494514849979,-0.0238987619771798,-1.2525219856052,0.237334533950104,0.0391653330868156,-0.113544239646538
3.1,2.3077119002952,-1.41039269952766,3.52702811904829,0.110115051754206,-0.0926645551637172,0.0439738695008099,1.14930356302626,-2.47759396082633,0.61705374679231,0.216361261728442,-0.0404190024353699,-0.0405875560052511,4.28537624966441,0.000984363482279386,-0.000666903288545941,-0.000284234978575279,1.14930356302626,-2.47759396082633,0.61705374679231,0.216361261728442,-0.0404190024353699,-0.0405875560052511,0.746099585244535,0.975604184937724,-1.32770489266135,0.0800484521755632,-0.0514830345916433,-0.0122533248780491
3.2,2.41248045506786,-1.56057557246039,3.4823208905954,0.0819804804436947,-0.123182711057004,-0.00377405707035815,1.34744771298928,-2.55080580710312,0.651035039343293,0.133077509255172,-0.101085948870641,0.00316706585793473,4.25982902753217,0.00619625636535726,0.00375920912523279,-8.44853397742353e-05,1.34744771298928,-2.55080580710312,0.651035039343293,0.133077509255172,-0.101085948870641,0.00316706585793473,1.04593228533787,0.693721112998986,-1.38329542186923,0.499682588125935,0.289172405722426,-0.00372200885485219
3.3,2.52900302961287,-1.8571820881755,3.47637936739624,-0.00300523132353128,-0.21014142983319,-0.052642306789514,1.30863310881052,-2.53239334845818,0.447003047720067,0.318908116502636,0.0347689233150971,-0.0419159348490396,4.54361870731669,0.00723052862253511,0.00378623257620765,0.00453909573836839,1.30863310881052,-2.53239334845818,0.447003047720067,0.318908116502636,0.0347689233150971,-0.0419159348490396,1.8915101270205,-0.127012631177822,-0.922709014507694,0.583147737762358,0.291245114287427,0.191427906458573
3.4,2.63301266982148,-1.96653369828475,3.45964815845999,0.131770507321461,-0.115613337498022,-0.0344804297706411,1.47603304467611,-2.36233106324415,0.592405518714299,0.424180056308204,0.0787442051518166,0.0983923737539491,4.15962377277363,-0.00108929377275085,-0.000264010347594239,-0.00311712377882112,1.47603304467611,-2.36233106324415,0.592405518714299,0.424180056308204,0.0787442051518166,0.0983923737539491,0.98847143451443,1.05961548553578,-1.61792950652548,-0.088546693588782,-0.0203561991972265,-0.131452486566954
3.5,2.75800888006647,-2.0346583420386,3.55366768354497,0.19624237432526,-0.0961014794950719,0.0300378221489993,1.66404397328363,-2.42960384236451,0.307930229117627,0.0841740919646616,-0.0635680059078698,-0.0705767586053671,4.22633157673673,0.00565195611970437,0.00415954951551988,0.0019490918820957,1.66404397328363,-2.42960384236451,0.307930229117627,0.0841740919646616,-0.0635680059078698,-0.0705767586053671,0.745638179579338,1.67129223148323,-1.55782935415018,0.456800422521274,0.320252580211263,0.0825204780583828
3.6,2.97322583530918,-2.25501450674702,3.4752746287938,0.0816241660089493,-0.146574831880387,-0.026325080322299,1.81965460395549,-2.28733177502437,0.440594425294838,0.385619772610291,0.121772597403541,0.0506788766210771,4.25458126899531,0.00427122878108324,0.00377404185710973,-0.000467726701550726,1.81965460395549,-2.28733177502437,0.440594425294838,0.385619772610291,0.121772597403541,0.0506788766210771,1.25646283762099,0.660938648810819,-1.42010677433088,0.344246352407977,0.290244345849298,-0.0194026409026161
3.7,3.1412263938258,-2.3979741046327,3.55185152674338,0.204469167787147,-0.0745101118555266,0.000945647252802703,1.83605406209468,-2.13729864583425,0.13601148166928,0.337513787090654,0.111711181509683,-0.0146804810667567,4.20780331457003,0.000259718116954332,0.00131465172318142,0.000929901164427965,1.83605406209468,-2.13729864583425,0.13601148166928,0.337513787090654,0.111711181509683,-0.0146804810667567,0.611801576279069,1.70934647714524,-1.59256314969445,0.0215850893052672,0.101475583403119,0.0397355150994507
3.8,3.25490516019885,-2.44115832179739,3.43379469143981,0.218273097844652,-0.0659156988352247,-0.0114231915797692,2.01602545699836,-2.04622457552638,0.250694994551947,0.185046282200007,0.0258165646919479,0.0248791562344663,4.11482149712016,0.00413121833248721,0.00487780793278766,-0.000122561959319535,2.01602545699836,-2.04622457552638,0.250694994551947,0.185046282200007,0.0258165646919479,0.0248791562344663,0.549530230764605,1.77591858515076,-1.79307081751118,0.333537617926315,0.375503656380158,-0.00454775949192768
3.9,3.51197000007006,-2.5541985857343,3.54841447163725,0.197422439716822,-0.0668824188495478,0.0379877714551617,2.12137213470776,-1.83671607657412,0.0968888483651993,0.382593668374861,0.212201158558662,0.0280509487408735,4.08084257760649,-0.000108198893892936,0.00201076621801081,-0.00240415316539515,2.12137213470776,-1.83671607657412,0.0968888483651993,0.382593668374861,0.212201158558662,0.0280509487408735,0.473686795236044,1.62001200660253,-1.82474568399311,-0.0079757505683655,0.155337111667919,-0.100743353265801
4,3.67418358512747,-2.626080635373,3.48693817025653,0.285355816010451,0.00481635443497522,0.0204536790044514,2.15266308027963,-1.68038514259799,-0.0875647303155418,0.199432013943843,0.0967132330935725,-0.0377191669611849,4.08078608885222,0.000833091127815871,0.00238297462247396,0.00124215819447751,2.15266308027963,-1.68038514259799,-0.0875647303155418,0.199432013943843,0.0967132330935725,-0.0377191669611849,-0.0846999031484439,2.29622155647717,-1.97855997265794,0.0682225882893399,0.184604031178124,0.0531770295176186
4.1,3.81792109920306,-2.69276060103029,3.39817465107024,0.215006095665424,-0.0456805368285811,-0.0124313659928065,2.18331601512079,-1.46232890667766,0.00777488672809357,0.232057146338881,0.107045552267022,0.0331609186347998,4.0158954825189,0.00298105781921519,0.00547852725300692,-0.000233616323205981,2.18331601512079,-1.46232890667766,0.00777488672809357,0.232057146338881,0.107045552267022,0.0331609186347998,0.379598389241919,1.70902302747364,-1.97132591183224,0.240905047927575,0.422156456674828,-0.00906548796925121
4.2,3.97173451172078,-2.75916722343779,3.45171880354736,0.216307077995376,-0.0564537869041571,-0.00873444245110262,2.14168354119604,-1.32316050939907,-0.384719066053961,0.311725359302191,0.232108814305068,-0.017282122861124,4.17638379525768,0.000723875820207414,0.00283769726551415,0.00191947003199248,2.14168354119604,-1.32316050939907,-0.384719066053961,0.311725359302191,0.232108814305068,-0.017282122861124,0.475952734315844,1.78861741069522,-1.66487611057885,0.0592260106890263,0.219777959978637,0.081803812989455
4.3,4.09774875516787,-2.77037123480167,3.26298487778311,0.285239606389029,0.0229178165953018,-0.0150279454235446,2.2214298570061,-1.08712110096238,-0.32730335859255,0.239374564413307,0.150195296545467,0.0452480952804638,4.04463174602991,-0.000869870653723024,0.00251648599546246,-0.00103396629351116,2.2214298570061,-1.08712110096238,-0.32730335859255,0.239374564413307,0.150195296545467,0.0452480952804638,-0.143656275971472,2.27863276963871,-2.04962762365913,-0.0696148644075654,0.194863221231846,-0.0428642337609267
4.4,4.2740982213499,-2.75822064765069,3.27329034329381,0.274361553612656,0.0012523678936982,0.0192569646807014,2.2493332940023,-0.856092648460697,-0.399788436657392,0.171816560103406,0.158256933789781,-0.0154520217253611,3.97260034575659,0.000594065590717253,0.00431643818285544,0.00016330566311906,2.2493332940023,-0.856092648460697,-0.399788436657392,0.171816560103406,0.158256933789781,-0.0154520217253611,-0.0510265986111465,2.15202893876852,-2.16196876566535,0.0487532466499982,0.3345845530724,0.0076106693483973
4.5,4.44283060262478,-2.76456306569906,3.24841227839792,0.245376398510087,0.00203687963738444,-0.0191372405070625,2.21631653091829,-0.666368674021973,-0.65339030968608,0.224224047444931,0.227976772047567,-0.000928131056837058,4.06613237185307,2.83775184589032e-05,0.00299595550824419,0.00125282204752242,2.21631653091829,-0.666368674021973,-0.65339030968608,0.224224047444931,0.227976772047567,-0.000928131056837058,0.0217380240340807,1.97544741868956,-1.92134581718593,0.00288722059853241,0.232743760612684,0.053500317712101
4.6,4.57973508501167,-2.7402971281889,3.11070812156995,0.282771201836654,0.0490917814681963,-0.0107153994801237,2.22401205765514,-0.432239338857592,-0.736406724065225,0.205277934939958,0.192796909394742,0.0279585310719353,4.03141991587494,-0.00189132270884123,0.00240266864201894,-0.000674523795368102,2.22401205765514,-0.432239338857592,-0.736406724065225,0.205277934939958,0.192796909394742,0.0279585310719353,-0.355819386588882,2.25361838905686,-2.0766965097001,-0.152099321583504,0.187245307987317,-0.0279673739742037
4.7,4.7433047244567,-2.66799493274986,3.039176136485,0.302463629986998,0.0587303216247438,0.0168630838090586,2.22136469955232,-0.165834591790917,-0.794731288235509,0.130099883417178,0.19438831600566,-0.002138658071247,3.953429843051,-0.00199585620975963,0.00264306007013596,-0.00069472836182131,2.22136469955232,-0.165834591790917,-0.794731288235509,0.130099883417178,0.19438831600566,-0.002138658071247,-0.482689406960986,2.34743375720722,-2.2750815672871,-0.160574065959382,0.206742843512156,-0.0289612152999271
4.8,4.92789928878382,-2.5696893567342,3.02070963251362,0.302251701875999,0.0936764927121112,0.0262022222054123,2.20949914137044,0.102125110559466,-0.964818434813409,0.136732588279162,0.23028367444404,0.0140983618265762,3.92407900046514,-0.00346470844886962,0.000870541707901677,-0.00197769751630109,2.20949914137044,0.102125110559466,-0.964818434813409,0.136732588279162,0.23028367444404,0.0140983618265762,-0.761799960448693,2.31700257503374,-2.35045953861009,-0.279221586514189,0.0704541363755115,-0.0832616229702089
4.9,4.98985810328399,-2.5552378374152,2.83776868123174,0.236674885154229,0.046185351911315,-0.043235760116608,2.0019090502673,0.253306042439355,-1.16597095273969,0.00216502265523133,0.101800683362007,-0.0803985546515694,4.04909038854305,0.00261350729835212,0.00517079966848741,0.0058370651127532,2.0019090502673,0.253306042439355,-1.16597095273969,0.00216502265523133,0.101800683362007,-0.0803985546515694,-0.281051765976837,1.9127278422392,-1.94596706487498,0.210735047597162,0.401838114249702,0.246261288594013
5,5.09042194489513,-2.45653397717869,2.72799671322628,0.209975932221837,0.0278928674518557,-0.0513929682645986,2.01765992152003,0.486785949043931,-1.28563970777049,0.278876692979874,0.306936758199663,0.118358254236163,4.08061836296869,-0.00460168749860465,0.00127000779821405,-0.00328440235914487,2.01765992152003,0.486785949043931,-1.28563970777049,0.278876692979874,0.306936758199663,0.118358254236163,-0.134931578080667,1.7102881056829,-1.83112207377596,-0.371153303038314,0.0991305872985087,-0.13870846141194
5.1,5.26165579249271,-2.2939469604294,2.60191912991517,0.377849188898393,0.162962237317382,0.0626847988662465,2.07318080775259,0.726807927087753,-1.37471088203779,-0.00452093992375302,0.210415677963125,-0.0468138309080832,4.04651798002921,-0.00593091968129184,-0.00154929793491416,-0.000824905109196467,2.07318080775259,0.726807927087753,-1.37471088203779,-0.00452093992375302,0.210415677963125,-0.0468138309080832,-1.40504738610183,2.90338582774264,-2.38750556558846,-0.47891268899979,-0.113446765941678,-0.035257691200388
5.2,5.40125628814159,-2.16979247950558,2.45893737642017,0.25637467999985,0.133331930931991,-0.0147585727262804,1.85037882707669,1.1303763681197,-1.28455157758064,-0.0790961106106308,0.0752522625958399,-0.00447915294868982,3.84317520046189,-0.00122881217198798,0.0035109863324887,0.000815370036727587,1.85037882707669,1.1303763681197,-1.28455157758064,-0.0790961106106308,0.0752522625958399,-0.00447915294868982,-0.959533106063136,1.9634440117536,-2.44086393687435,-0.0997425343289878,0.274145454786113,0.033736201204717
5.3,5.45725742933825,-1.97513851588292,2.53495720718688,0.202529133255167,0.0688115900108508,-0.00270640291278861,1.77815727629043,1.18974512873883,-1.79188950494642,0.087433512338637,0.271943966696411,0.0185433750172195,4.06609772623202,-0.00387597862976854,0.000634400798303809,-0.000858226095396007,1.77815727629043,1.18974512873883,-1.79188950494642,0.087433512338637,0.271943966696411,0.0185433750172195,-0.543290306636055,1.63724642372875,-1.86287079079624,-0.313270509678534,0.0526352751865905,-0.0369426111637878
5.4,5.56547964912864,-1.86211314905363,2.17139928142629,0.287755634147801,0.175720913799602,0.0114113815684276,1.74738018065486,1.3988318819821,-1.76390837811107,-0.0237540722532829,0.175131082541353,-0.00826098714522806,4.13565630249958,-0.00580255093102723,-0.00123374133881593,-0.000179509864217471,1.74738018065486,1.3988318819821,-1.76390837811107,-0.0237540722532829,0.175131082541353,-0.00826098714522806,-1.4132167987111,2.33143099610459,-2.00091170495162,-0.469058376483601,-0.0903273063750566,-0.00860124274229104
5.5,5.63015436353213,-1.72078593027209,2.00443958912022,0.216651678510082,0.121600612904082,-0.0248337859568596,1.48617945854856,1.6937380483347,-1.7277654693975,-0.145278695949481,0.0763421420756216,-0.0160257382388506,4.01659890456214,-0.00147723579042107,0.00286438404207778,0.00189562687127385,1.48617945854856,1.6937380483347,-1.7277654693975,-0.145278695949481,0.0763421420756216,-0.0160257382388506,-0.908483901688333,1.74992087801071,-2.02252923205521,-0.120354475183578,0.224595647331155,0.0787837211361673
5.6,5.6550197373423,-1.5076216859467,2.00044926932648,0.157367393691466,0.0864475097054234,-0.0219275278554238,1.4435222438009,1.79427811535936,-2.04524836779886,0.0209121053102633,0.245146480105328,0.0311880275481261,4.13737054821195,-0.00407811920148752,-0.000191347781717206,-0.000471114576182704,1.4435222438009,1.79427811535936,-2.04524836779886,0.0209121053102633,0.245146480105328,0.0311880275481261,-0.677008885766079,1.31196581148032,-1.66802573751628,-0.330010335417637,-0.0111572691193259,-0.0211111710205987
5.7,5.75921972110184,-1.32627634211063,1.72096870080521,0.250733029641202,0.192614240344122,0.0166292658827947,1.42459881027499,1.95832349112435,-2.02270089663191,-0.0808151180661603,0.148723552483357,0.00101751080243521,4.21162817995357,-0.00672574473246258,-0.00201090156503582,-0.000815860353534787,1.42459881027499,1.95832349112435,-2.02270089663191,-0.0808151180661603,0.148723552483357,0.00101751080243521,-1.59654273842994,2.06366617798582,-1.80103122150422,-0.544152228502595,-0.150039810176895,-0.0359076063653986
5.8,5.86753315528695,-1.10502233221912,1.59231125278426,0.229141412359438,0.186608120063923,0.025089470646381,1.20368138656532,2.3030671552773,-1.97742950467904,-0.194350095317216,0.0894917298260858,0.0111605923522665,4.13185993174944,-0.0056040394797769,-0.00081392059236622,-0.0017107291994431,1.20368138656532,2.3030671552773,-1.97742950467904,-0.194350095317216,0.0894917298260858,0.0111605923522665,-1.53968823772434,1.83898627210058,-1.9019942081442,-0.453881258717454,-0.0580259884978683,-0.0737799885486654
5.9,5.86844330762585,-0.85169465417346,1.57042587730045,0.156637738922686,0.153848803596703,0.0172579619997184,1.03299210498325,2.43727315903009,-2.19650097134883,-0.184622434731279,0.120974840968572,-0.0233555524773484,4.15545867900513,-0.00422215070244852,-0.000904510140743578,0.000284587212089394,1.03299210498325,2.43727315903009,-2.19650097134883,-0.184622434731279,0.120974840968572,-0.0233555524773484,-1.28018082198879,1.27458404597482,-1.69779192177403,-0.342711218518303,-0.0648720542962294,0.010408641117208
6,5.85316997243806,-0.667926650610098,1.31735598583338,0.124296458947416,0.151423905639637,-0.0203471124838059,0.880403212716554,2.4820809182019,-2.29191576382206,-0.163893471748948,0.0953668798335923,-0.000600492192466396,4.25512389982081,-0.00396518308852232,-0.00079822857435063,0.000980592300285052,0.880403212716554,2.4820809182019,-2.29191576382206,-0.163893471748948,0.0953668798335923,-0.000600492192466396,-1.25210225068415,1.08077064160817,-1.46203663248488,-0.321769664065773,-0.0576380663914566,0.0397507125823094
6.1,5.88961876787519,-0.451561795656382,1.123600777089,0.1495277290607,0.172303181935435,0.0160649352288064,0.788086720193823,2.62711724270849,-2.24644494113824,-0.149315749392283,0.117220300462282,0.0380670266617938,4.27844806352419,-0.00669495163056133,-0.00275806286530843,-0.00258454470854289,0.788086720193823,2.62711724270849,-2.24644494113824,-0.149315749392283,0.117220300462282,0.0380670266617938,-1.47101578085356,1.25126134306031,-1.47387806273576,-0.542005038019276,-0.208589812710881,-0.110679882336462
6.2,5.88552433707957,-0.245846002946501,0.972342246727924,0.126534169591683,0.165211124564541,0.00958697711865509,0.567743726142165,2.74895705886099,-2.33818462942182,-0.305561104757184,0.0138233477336492,-0.0606200627914481,4.33555069248414,-0.00316129485083243,-0.00066882062472161,0.00236342485718365,0.567743726142165,2.74895705886099,-2.33818462942182,-0.305561104757184,0.0138233477336492,-0.0606200627914481,-1.42507894523326,1.08065279314481,-1.3253468680847,-0.257836610761654,-0.0469973143126839,0.0980752692286916
6.3,5.83941647828796,-0.0321354397905687,0.807976640411336,0.0343305134623146,0.118185276465162,-0.0390318295498711,0.403435408054114,2.83155990691431,-2.3609622910624,-0.181340147268841,0.0890502230431261,0.0411860852409194,4.30532995926992,-0.0034239397605438,-0.00123071295279856,-0.000152513181921649,0.403435408054114,2.83155990691431,-2.3609622910624,-0.181340147268841,0.0890502230431261,0.0411860852409194,-1.00238180750543,0.334920265794021,-1.26444423338709,-0.277949957611766,-0.0921511109451222,-0.00793272398187207
6.4,5.81577767065283,0.193644253154622,0.651165568064101,0.0796532956415948,0.156493303841585,0.0104668755749037,0.36322184815443,2.76865211537759,-2.38414000908587,-0.203951985338945,0.0615409709684363,-0.00786799847174585,4.35509667807605,-0.00492077752130626,-0.00241607438619377,-0.000166990434782183,0.36322184815443,2.76865211537759,-2.38414000908587,-0.203951985338945,0.0615409709684363,-0.00786799847174585,-1.36040573165447,0.678860439674294,-1.23352560487218,-0.399511133913367,-0.182539127596205,-0.00850825590031081
6.5,5.81812942147996,0.36733910415528,0.441969347249961,0.054885715330255,0.148117230261755,-0.0145991493157593,0.16164736688276,2.88867387607998,-2.44243096996718,-0.285037080478696,0.00598180213448432,-0.0112334806427859,4.45387379533925,-0.00311392136491082,-0.00137321757753466,0.00116784693488615,0.16164736688276,2.88867387607998,-2.44243096996718,-0.285037080478696,0.00598180213448432,-0.0112334806427859,-1.30531867849386,0.507772644108521,-1.01305295976446,-0.253721549402834,-0.102741207652183,0.047887551478964
6.6,5.7720724709323,0.602643582606946,0.314363167731679,0.0124590397191451,0.133137705506155,-0.00850542024782,0.0387522094474599,2.93268894512081,-2.37812500132477,-0.218932739457443,0.0478940965789306,0.0257092143832898,4.38532792956909,-0.0040174449389327,-0.00235056884536297,-0.000870690629459701,0.0387522094474599,2.93268894512081,-2.37812500132477,-0.218932739457443,0.0478940965789306,0.0257092143832898,-1.1631964756287,0.119168788686254,-1.11763685996018,-0.326376707165667,-0.178469370021928,-0.0379691576922289
6.7,5.7476635561004,0.832241573849168,0.201124819247825,0.0413296778140503,0.16722322659741,0.0220247752594761,-0.0330686447505708,2.89992575079052,-2.44313338082155,-0.260455088418451,0.0111490643319452,-0.00697789648329735,4.4641468354654,-0.00465842501913745,-0.00323214730519216,-0.000738606849335908,-0.0330686447505708,2.89992575079052,-2.44313338082155,-0.260455088418451,0.0111490643319452,-0.00697789648329735,-1.49256453983281,0.3361092356644,-1.01376730921027,-0.378626244789244,-0.246081501412698,-0.0322958712734913
6.8,5.68462243343121,0.987237388961155,-0.0205971692867708,-0.022452693844372,0.123173129803356,-0.0229542274904278,-0.30227780705923,2.92673234476818,-2.48259788230828,-0.330010171312339,-0.0579298007598142,-0.0315488621160283,4.50806773321215,-0.00100373945207512,-0.000781055163295534,0.00256463261427777,-0.30227780705923,2.92673234476818,-2.48259788230828,-0.330010171312339,-0.0579298007598142,-0.0315488621160283,-1.11181464715128,-0.176947530101476,-0.864428105990937,-0.0837698169295179,-0.0579775721147867,0.107227043994168
6.9,5.60435486762721,1.21750274947312,-0.130763768885996,-0.0439303777798602,0.117823446700957,-0.00642816523270738,-0.309638419297209,2.85602506756494,-2.39124656450128,-0.164755858250222,0.0567812994662946,0.0658051182460503,4.417198204966,-0.00461706035084416,-0.00346115550118785,-0.00283078335483375,-0.309638419297209,2.85602506756494,-2.39124656450128,-0.164755858250222,0.0567812994662946,0.0658051182460503,-1.03996293412775,-0.381296423635024,-1.04531802854302,-0.374486687797107,-0.264923080198284,-0.120215956252321
7,5.59414661767872,1.40787618031075,-0.259476456363998,0.0299159444459608,0.181473135391633,0.0516545583236848,-0.375154508777089,2.79919756361296,-2.49343093482325,-0.319167559536048,-0.0525189795084221,-0.0415942844293178,4.58709925896561,-0.00402195331866881,-0.00376234346238446,-0.000401245799023083,-0.375154508777089,2.79919756361296,-2.49343093482325,-0.319167559536048,-0.0525189795084221,-0.0415942844293178,-1.6669676620594,0.188597236214669,-0.790489573011632,-0.327850444346615,-0.287562937217996,-0.0176278435991728
7.1,5.52424906762926,1.55759558758509,-0.474493843358604,-0.0726760556191674,0.117977357502602,-0.01634624729978,-0.704525300168418,2.90751228348727,-2.48502095190447,-0.32478139318538,-0.0868315594237845,-0.00682933279603778,4.60548098643751,-0.0011081461750573,-0.00152590944839261,0.00117072970473556,-0.704525300168418,2.90751228348727,-2.48502095190447,-0.32478139318538,-0.0868315594237845,-0.00682933279603778,-1.09209179299413,-0.651063424527966,-0.687211369396604,-0.0919818183194661,-0.116339467336565,0.0488972231808116
7.2,5.37778673932642,1.7906111231319,-0.560438840878855,-0.0834358284962661,0.107859126405199,0.0103123965794826,-0.694522514308207,2.6768660261851,-2.36714763869531,-0.203403454206375,-0.00170182445071423,0.0374457868937193,4.44739826881821,-0.00335634098062244,-0.00327868645312839,-0.00220661495684888,-0.694522514308207,2.6768660261851,-2.36714763869531,-0.203403454206375,-0.00170182445071423,0.0374457868937193,-0.946499875430281,-0.751084386005057,-0.9976554948834,-0.27305958667077,-0.25158353665036,-0.0934103153135251
7.3,5.31668412607452,1.88417734765272,-0.717413663671012,-0.0602894811745489,0.128525982060516,0.0183858428624978,-0.776438444675754,2.55443181307222,-2.57570958686131,-0.320038136484526,-0.0965804919412351,-0.0503051250554181,4.63640118065225,-0.000934267953279173,-0.00193835605193902,0.00159549502364341,-0.776438444675754,2.55443181307222,-2.57570958686131,-0.320038136484526,-0.0965804919412351,-0.0503051250554181,-1.1758858116996,-0.580430364045889,-0.630389072397929,-0.0784244491202439,-0.148592899611389,0.0671273009437955
7.4,5.27923263260864,2.05845235156701,-0.921492212627335,-0.0887062268683886,0.123291843725846,0.0161324225235061,-0.886578497177333,2.60038943805275,-2.42387015836832,-0.193004539480903,-0.0142439213401825,0.0658996654531327,4.62007235335071,-0.00402220523743378,-0.00418593419612361,-0.00376501867396888,-0.886578497177333,2.60038943805275,-2.42387015836832,-0.193004539480903,-0.0142439213401825,0.0658996654531327,-1.11853006580178,-0.836736538625387,-0.676050325428269,-0.326421340533472,-0.321960184958641,-0.15887954039147
7.5,5.15907424015654,2.21861233537498,-1.01357116956148,-0.0673092714251138,0.134691721049398,0.0485223425844058,-1.02600265288007,2.41927813808285,-2.46641670487589,-0.352102076297775,-0.141325348301515,-0.0723394826472899,4.64474071344018,-0.000748185246013153,-0.00217603072847546,0.00130571970775652,-1.02600265288007,2.41927813808285,-2.46641670487589,-0.352102076297775,-0.141325348301515,-0.0723394826472899,-1.21284216643749,-0.6844286104058,-0.625500202138161,-0.0635337348604067,-0.167636914344121,0.0551755052774034
7.6,4.98400439735782,2.26155243309387,-1.23350868596361,-0.206553968439236,0.0220705512792534,-0.064375826053764,-1.25703833574658,2.30056725598274,-2.56148263657285,-0.268763634656198,-0.10172562520958,-0.00630042419483131,4.67634127729415,0.00340028051203535,0.000274742653828506,0.00338514896481666,-1.25703833574658,2.30056725598274,-2.56148263657285,-0.268763634656198,-0.10172562520958,-0.00630042419483131,-0.324991939124714,-1.90115706631961,-0.658352442560551,0.272426957225155,0.0206496249195564,0.143078782685666
7.7,4.86063602967162,2.41150725447411,-1.38123992662056,-0.153566352914671,0.0668429257225593,-0.000812982784200201,-1.02761809623483,1.83273285890217,-2.34665566792042,-0.0556795298649527,0.0131102276430735,0.0741610675084486,4.46111859199709,-0.00240900800434625,-0.00274151009884184,-0.00344892860006759,-1.02761809623483,1.83273285890217,-2.34665566792042,-0.0556795298649527,0.0131102276430735,0.0741610675084486,-0.590040605080464,-1.36429721846535,-1.01245138964879,-0.195870494306216,-0.211582165215704,-0.145169750047253
7.8,4.82743517455069,2.3458628820507,-1.51850717240163,-0.106011705214757,0.0818473307568015,0.00570510041209292,-1.20246133110705,1.79901688970784,-2.73024932342201,-0.329603655532311,-0.145782648806823,-0.106271686147154,4.80696428097989,0.00291483106389364,2.93156305827903e-05,0.00480268646060626,-1.20246133110705,1.79901688970784,-2.73024932342201,-0.329603655532311,-0.145782648806823,-0.106271686147154,-0.775767196653348,-1.02172344368162,-0.282046974523114,0.232300922750058,0.000970247473491479,0.203027773605879
7.9,4.74814116516373,2.50983615088009,-1.76404185504514,-0.182367255892638,0.0569400065957733,-0.0257156880963138,-1.24473443400549,1.871926727773,-2.41233061669351,-0.0602340065207043,0.0182105761551321,0.122513398413801,4.68984463063513,-0.00223122385927216,-0.00291693407017494,-0.00455060825403805,-1.24473443400549,1.871926727773,-2.41233061669351,-0.0602340065207043,0.0182105761551321,0.122513398413801,-0.568505354540975,-1.68702231498097,-0.600801988848159,-0.180953950264539,-0.225095756623797,-0.191517891387727
8,4.63799842042957,2.63909206536502,-1.78947671118876,-0.087828461408201,0.117046665025944,0.0674785647018658,-1.27117312581082,1.5004069249933,-2.50233351333341,-0.286566892063462,-0.130185855857807,-0.0940995725275019,4.70994710127493,0.000753687923747619,-0.00166785932511213,0.00133451964890733,-1.27117312581082,1.5004069249933,-2.50233351333341,-0.286566892063462,-0.130185855857807,-0.0940995725275019,-1.03760414816565,-0.898278802153085,-0.490618067031251,0.0579741518461309,-0.130354449595739,0.0568307785137549
8.1,4.54801624655307,2.61783937342617,-1.97103818768758,-0.194045558029931,0.0515641618174367,-0.026260936678785,-1.47756084733275,1.63907544490002,-2.61818267404832,-0.159032131641622,-0.0726928756452549,0.036517323136284,4.86838173288223,0.00090553160558958,-0.0010575283522895,-0.000453738297917908,-1.47756084733275,1.63907544490002,-2.61818267404832,-0.159032131641622,-0.0726928756452549,0.036517323136284,-0.541557561738655,-1.86396352992679,-0.268673144961856,0.0716977807132222,-0.0826511116407201,-0.0185508391554005
8.2,4.38266249943692,2.77597763566585,-2.15118418514776,-0.146894157671764,0.077087123835993,0.0360448591573656,-1.41121184078651,1.18092732946618,-2.37241137993016,-0.143163638580398,-0.0608079804091263,0.00175141864995341,4.68763921894878,-8.30135448758674e-05,-0.00191247204013937,-0.00175611335816567,-1.41121184078651,1.18092732946618,-2.37241137993016,-0.143163638580398,-0.0608079804091263,0.00175141864995341,-0.664307175732996,-1.3970733556236,-0.563231494009216,-0.00842787310757891,-0.149083312417597,-0.0734715862818714
8.3,4.33127242950999,2.71345105902721,-2.19290668992535,-0.133129506849896,0.0950615223422157,0.038979507158647,-1.47166954669871,1.2162977399224,-2.61693667636443,-0.169530636185389,-0.0857489863547886,-0.0154842999696708,4.89062324752571,-0.000265814133585688,-0.00192652851791739,-0.00106605630937919,-1.47166954669871,1.2162977399224,-2.61693667636443,-0.169530636185389,-0.0857489863547886,-0.0154842999696708,-0.86891071037935,-1.33320327040677,-0.159075369990678,-0.0231201146817903,-0.150361037229058,-0.0443295198249693
8.4,4.16731594916998,2.76328613611334,-2.48546213616665,-0.193065764945881,0.0394981769944687,-0.00831625894685988,-1.68466738821075,1.02815420824054,-2.4984238507213,-0.21142421218913,-0.124595937299247,-0.0360033953229796,4.91075939930284,0.00359064497401233,0.000255987028955862,0.00211587914895667,-1.68466738821075,1.02815420824054,-2.4984238507213,-0.21142421218913,-0.124595937299247,-0.0360033953229796,-0.396283721372934,-1.88121052317521,-0.178476875850093,0.288164559859642,0.0175891613605899,0.0899472359616957
8.5,3.98507221069888,2.768796056167,-2.57422856244483,-0.218586478449649,0.0182424169872494,-0.0165464170503315,-1.59394187383516,0.685054249779375,-2.43350021909624,-0.0395140077467783,-0.0348462804242788,0.0383976960778403,4.82050926978025,0.00172908503615056,-0.000398486002494399,-0.00103717470036892,-1.59394187383516,0.685054249779375,-2.43350021909624,-0.0395140077467783,-0.0348462804242788,0.0383976960778403,-0.206248751674086,-2.08752765859018,-0.399955993343967,0.138545542379237,-0.0322922541419693,-0.0430908412723168
8.6,3.92952065159101,2.70934994819699,-2.69363020096541,-0.138363054182442,0.0699225114794802,0.0333350258942047,-1.53668133677616,0.447183222462737,-2.52340198714554,-0.0945371571021319,-0.0543575695663435,-0.0181640722113554,4.9141842999165,0.000801063647096365,-0.0011609101677255,-0.000713048703090014,-1.53668133677616,0.447183222462737,-2.52340198714554,-0.0945371571021319,-0.0543575695663435,-0.0181640722113554,-0.634545270003923,-1.37746216833145,-0.0993471069492688,0.0633418447752311,-0.0917154284173414,-0.0294222508013413
8.7,3.85522708343087,2.66272301761292,-2.87657978445153,-0.159295506708994,0.0638558147415172,0.0157954655157723,-1.70296242623725,0.530287507217571,-2.50422634019643,-0.122881977106035,-0.0807992574877523,-0.0070916944754913,5.01648579703348,0.00145950461500892,-0.000787942150027477,-0.00040457624479422,-1.70296242623725,0.530287507217571,-2.50422634019643,-0.122881977106035,-0.0807992574877523,-0.0070916944754913,-0.606906910354784,-1.60124249051897,0.0757577097597668,0.116675794642972,-0.062760108267886,-0.016410473188166
8.8,3.63674879786688,2.68599812602472,-3.05278326028299,-0.217327767282899,0.0086022779881212,-0.0204481202859834,-1.82563757117398,0.236903222685857,-2.44383256610703,-0.124116870920101,-0.102345694810027,-0.0345804496580719,5.02635528499685,0.00496383126054702,0.00118214300591654,0.00260455902366804,-1.82563757117398,0.236903222685857,-2.44383256610703,-0.124116870920101,-0.102345694810027,-0.0345804496580719,-0.128743107921013,-2.16539604309829,0.00587871730087031,0.399420407133311,0.0888226041853272,0.110541956499982
8.9,3.48577433545871,2.609255605557,-3.16030879026103,-0.214137377810093,0.00293240692272388,-0.02425452085905,-1.68893499340976,-0.126345570135271,-2.3935026148055,0.0453747777326619,-0.0116379675714863,0.0433318881532903,4.99804423773343,0.00232028155606411,0.000279703053379225,-0.000905460278693435,-1.68893499340976,-0.126345570135271,-2.3935026148055,0.0453747777326619,-0.0116379675714863,0.0433318881532903,-0.0801513928990809,-2.12289521485074,-0.0422634929917578,0.18659797935012,0.0200714174303094,-0.0375942037299487
9,3.43892077564105,2.48108924371902,-3.28209645001582,-0.133309928335319,0.0533930280673246,0.0236846402151753,-1.66409633904132,-0.297170987340426,-2.4295668098566,-0.0416720282820859,-0.0389429593751108,-0.0231399352707102,5.06563133437948,0.00179577605795507,-0.00034745717923333,-2.79283094746069e-05,-1.66409633904132,-0.297170987340426,-2.4295668098566,-0.0416720282820859,-0.0389429593751108,-0.0231399352707102,-0.503843467785258,-1.35891445427916,0.217062208309592,0.143959676228146,-0.0290992426991801,-0.000585755077311522
9.1,3.28406485337236,2.34811941804047,-3.49324779478417,-0.218160074677385,-0.0103604288718644,-0.0523338576889483,-1.90917875289106,-0.291852457194064,-2.4472921874315,-0.0957233672028497,-0.102737694664625,-0.0445730793171837,5.22830033510571,0.00684347148293962,0.0022018590245027,0.00459711563550882,-1.90917875289106,-0.291852457194064,-2.4472921874315,-0.0957233672028497,-0.102737694664625,-0.0445730793171837,-0.0127655181357022,-2.2655945946924,0.398203355650454,0.551245094217034,0.167480244902544,0.194548183442196
9.2,3.14401827410576,2.4197932226564,-3.57356481735601,-0.175407369648356,0.0250838478156233,0.00209218838269906,-1.6637430764035,-0.663872851477978,-2.18184525281754,0.192575224771115,0.0620688801693276,0.120239344205977,5.02683875560518,-0.00131467377317739,-0.00134345745500222,-0.00578606619707436,-1.6637430764035,-0.663872851477978,-2.18184525281754,0.192575224771115,0.0620688801693276,0.120239344205977,-0.244618032425938,-1.75497555935559,0.0862949786116278,-0.106293389542332,-0.104273344246614,-0.243608659635318
9.3,3.07951281553087,2.18253860018405,-3.6442126263296,-0.0911460665917272,0.0574627758109249,0.0384718545362359,-1.81602993211991,-0.741455101742646,-2.44579701197919,-0.177917339010459,-0.113261532509613,-0.145509892874888,5.2638210065068,0.00498712540123811,0.00117969087298537,0.00507187393923756,-1.81602993211991,-0.741455101742646,-2.44579701197919,-0.177917339010459,-0.113261532509613,-0.145509892874888,-0.564803824156642,-0.980674454960629,0.656638457870551,0.401017369547827,0.0872953790155859,0.214532965845905
9.4,2.94756874431685,2.16265845145383,-3.85233343659587,-0.207380668048804,0.0138484516563872,-0.0381758127095665,-1.89240375395434,-0.561900356324684,-2.15356265338088,0.129646195882561,0.0291813399496391,0.128633794813522,5.19764706446434,0.000583405138551713,-0.000712400044799187,-0.00428437391172155,-1.89240375395434,-0.561900356324684,-2.15356265338088,0.129646195882561,0.0291813399496391,0.128633794813522,-0.222457357809727,-2.13342803843995,0.36158481042623,0.0469549122718071,-0.0551426122875705,-0.180283405994526
9.5,2.74866315879975,2.16057498392138,-3.91013467294478,-0.114210641921112,0.0451414238507745,0.0450497990234052,-1.8819581073808,-1.14342281454582,-2.2559865587525,-0.0744569230892923,-0.0852915674550841,-0.108280815928824,5.27742270475824,0.00424315907873013,0.00108792563396492,0.00299731052349119,-1.8819581073808,-1.14342281454582,-2.2559865587525,-0.0744569230892923,-0.0852915674550841,-0.108280815928824,-0.4185456714486,-1.22294644673152,0.665398948399497,0.341247333708371,0.0805393729482715,0.126955267302215
9.6,2.66394642048902,1.8871418681268,-4.04505634425525,-0.173207907948259,0.0141331696171385,-0.0314916735662957,-1.93066192099077,-0.969130163958514,-2.10970935827817,0.112501312153896,0.0136804083454501,0.0741034168409886,5.27416790764481,0.00144765045795514,-2.93313421644207e-05,-0.0020164700152155,-1.93066192099077,-0.969130163958514,-2.10970935827817,0.112501312153896,0.0136804083454501,0.0741034168409886,-0.204013311973857,-1.81240827153574,0.579463089973812,0.116540544013954,-0.00305131668096811,-0.0846383920371212
9.7,2.5184292009357,1.90869945978465,-4.12438991896008,-0.0881211237835601,0.063867540992317,0.0514544482258165,-1.88766067987408,-1.2931285409977,-2.09723879744692,0.00950662963953976,-0.0297707175403469,-0.0329145240975656,5.30112566342768,0.00132223032973864,-0.000477491813330565,-0.000876242128467924,-1.88766067987408,-1.2931285409977,-2.09723879744692,0.00950662963953976,-0.0297707175403469,-0.0329145240975656,-0.62517213794125,-0.966506456826891,0.729580554493632,0.105980700401248,-0.0390915853598518,-0.0365381634744883
9.8,2.39141276690368,1.67393089397185,-4.25993436129079,-0.148549708613522,0.0234955624867522,-0.0125716499662138,-2.0885789359198,-1.19399470132094,-2.058156778829,-0.00511804973357251,-0.0651447711555874,-0.0264248183295292,5.38820106666426,0.00395465475458723,0.00111453278463658,0.00184774497537636,-2.0885789359198,-1.19399470132094,-2.058156778829,-0.00511804973357251,-0.0651447711555874,-0.0264248183295292,-0.270416909042374,-1.59167657468553,0.844777487874103,0.318488569449394,0.0840891940739016,0.07837768144787
9.9,2.18864313428897,1.6664522018692,-4.35729340058442,-0.139622902358315,0.019485154311687,0.00102848436160339,-2.00144688227686,-1.48931568703153,-1.92243701577314,0.12847503245243,0.011879353338317,0.04661776784056,5.35828544813211,0.00119808864154228,-3.79190726676886e-05,-0.00225149224237266,-2.00144688227686,-1.48931568703153,-1.92243701577314,0.12847503245243,0.011879353338317,0.04661776784056,-0.205234875829624,-1.49163379011363,0.800268566657095,0.0963634698077392,-0.00399451381166936,-0.0946259739770713
10,2.08021876923379,1.43348668537887,-4.43249828061675,-0.0923621250722445,0.0394851861318863,0.02126139146538,-2.0250448791346,-1.62552577767003,-1.92378297511311,0.0111043911973515,-0.0435641924537757,-0.0554907180493967,5.42141122424793,0.00302273219081166,0.000651361435005332,0.00162398572562545,-2.0250448791346,-1.62552577767003,-1.92378297511311,0.0111043911973515,-0.0435641924537757,-0.0554907180493967,-0.404838226430778,-1.00887764900699,0.978191254763713,0.243262893007795,0.0481296508671677,0.0688840251745881
10.1,1.95369075195991,1.29595791615998,-4.53997885504582,-0.125427921108551,0.0253334019446488,-0.0103750420993971,-2.09379912050225,-1.57840599586843,-1.79319168548527,0.10771705858745,-0.00351394033523008,0.0404946193793723,5.42214726780449,0.00164435957654897,8.28692897974269e-05,-0.0014231748726987,-2.09379912050225,-1.57840599586843,-1.79319168548527,0.10771705858745,-0.00351394033523008,0.0404946193793723,-0.28659556159991,-1.35371317137444,0.945651891389812,0.132409855053015,0.00553810489109713,-0.0597156797536908
10.2,1.75017981046621,1.18603547592573,-4.63214956770147,-0.111666818481438,0.0122812195364989,-0.000889282710093461,-2.14298131160942,-1.84551069707276,-1.79362267262599,0.032868014368701,-0.0522485925499147,-0.0528764176262438,5.52225309224082,0.00422885758644063,0.00151111226122683,0.00255595683655614,-2.14298131160942,-1.84551069707276,-1.79362267262599,0.032868014368701,-0.0522485925499147,-0.0528764176262438,-0.135886240348869,-1.23062299882284,1.16489037865551,0.340642748902488,0.114655238925101,0.108162824266911
10.3,1.60232327920424,0.968501057288475,-4.73020009610066,-0.13226462943992,-0.00627858739615158,-0.0355456306068176,-2.1087222250663,-1.92586988303592,-1.61105936212892,0.15911871034243,0.014875023333063,0.0422550439565174,5.50055156242103,0.00267936890254758,0.00093326435045232,-0.000300962880515987,-2.1087222250663,-1.92586988303592,-1.61105936212892,0.15911871034243,0.014875023333063,0.0422550439565174,0.0168650182013815,-1.45233485479853,1.09480210751705,0.215952354581363,0.0712401879462246,-0.0124160791912095
10.4,1.52379228876931,0.862563964988685,-4.72157452744726,-0.0320683332482219,0.0646835866283409,0.0467649332903253,-2.0025594670722,-2.04443913862206,-1.54995193377277,0.141481991236977,0.031186868373423,0.0151002304646737,5.44441458982602,-0.000856194033868886,-0.00149582644067057,-0.00292021714747379,-2.0025594670722,-2.04443913862206,-1.54995193377277,0.141481991236977,0.031186868373423,0.0151002304646737,-0.686385570911512,-0.38163106321476,1.05047114462701,-0.0693678629762178,-0.116323083790037,-0.122945894551694
10.5,1.3887205959085,0.634283368586984,-4.83109186017573,-0.0695667856735483,0.0335113707661314,-0.00046163930401278,-2.29735511893609,-1.88745414008391,-1.57480180844862,-0.0361104718793461,-0.101661994828007,-0.0782969605111754,5.58543688538269,0.00460652800868987,0.00159001751646397,0.0037348479676002,-2.29735511893609,-1.88745414008391,-1.57480180844862,-0.0361104718793461,-0.101661994828007,-0.0782969605111754,-0.373734341823313,-0.776322666965507,1.32759698323078,0.371083000801139,0.120887415470862,0.157854830197173
10.6,1.12952028364698,0.617043030506063,-4.91951652946593,-0.125106333898115,-0.0112608617369055,-0.0285226916079126,-2.23562312309542,-2.03014803816818,-1.35505360486487,0.214445330780238,0.0384801792140329,0.0835105793946868,5.54853442408707,0.00119295819324082,0.000164359610369813,-0.00258883645272715,-2.23562312309542,-2.03014803816818,-1.35505360486487,0.214445330780238,0.0384801792140329,0.0835105793946868,0.0844429812375659,-1.38766752058914,1.19964055981569,0.0961759729959139,0.012512145823459,-0.109012068511168
10.7,0.974377813594967,0.380804506554461,-4.95072155743799,-0.0478810214352557,0.0158832065659012,0.00675660553305218,-2.17731089757102,-2.35966649323955,-1.37753139215793,0.0540284565964362,-0.0446797210647674,-0.084167305081838,5.64369057698988,0.00396300949565049,0.00146493294511365,0.00368085037455937,-2.17731089757102,-2.35966649323955,-1.37753139215793,0.0540284565964362,-0.0446797210647674,-0.084167305081838,-0.175412527745103,-0.541442399975534,1.46302283719129,0.319211210458161,0.111320926394543,0.155523915954245
10.8,0.891211938362586,0.114486063333193,-5.02244753483219,-0.0857267815099684,-0.00119522714571005,-0.0426163522722769,-2.21790081906557,-2.18342631278166,-1.14066333031318,0.20010707638812,0.0277487514152064,0.074666280580839,5.57039226235916,0.00161670130790962,0.000482056990699005,-0.00149845091153213,-2.21790081906557,-2.18342631278166,-1.14066333031318,0.20010707638812,0.0277487514152064,0.074666280580839,-0.0273843684541969,-0.95359336016299,1.2898643967402,0.130351746952614,0.0369780767752349,-0.0630375756574032
10.9,0.712450808137819,0.052779081703497,-5.01134474554403,-0.0224942651130599,0.0258225587206184,0.0183759643625486,-2.19734842035058,-2.37216694386836,-1.18209695714923,0.106540833373291,-0.0118263165101044,-0.0436355814368981,5.64025841719444,0.00190269284327578,0.000494383243614752,0.00120744357411701,-2.19734842035058,-2.37216694386836,-1.18209695714923,0.106540833373291,-0.0118263165101044,-0.0436355814368981,-0.286474401731866,-0.25903321840368,1.46390323977666,0.153108798702277,0.0369861197898576,0.051122915568991
11,0.589464409622176,-0.1747709542215,-5.08698029186753,-0.0445170319490662,0.0171456811455409,-0.020999437167757,-2.26660187522314,-2.23158042846109,-0.99116861752659,0.134392643261741,-0.00442633553576046,0.0240826810154439,5.60548842890638,0.00191861997148374,0.000394290315046074,-0.000135456571321459,-2.26660187522314,-2.23158042846109,-0.99116861752659,0.134392643261741,-0.00442633553576046,0.0240826810154439,-0.202453809094006,-0.494772572086422,1.38822372805203,0.154575427170669,0.0298786540758244,-0.00555638437833704
11.1,0.43119882896718,-0.222315378653429,-5.05202535878932,-0.000943047934199887,0.044549190877549,0.0314492232367335,-2.227223603199,-2.2870782351399,-0.951071184554794,0.162263675142657,0.0146128799798533,0.015045303028913,5.60174143695218,-0.000548974261380532,-0.00104193374772015,-0.0021927537486923,-2.227223603199,-2.2870782351399,-0.951071184554794,0.162263675142657,0.0146128799798533,0.015045303028913,-0.498361862622148,-0.0262489095436532,1.38236234914237,-0.0445176717407089,-0.080812338559373,-0.0923792548855312
11.2,0.29939157124861,-0.403160979683634,-5.09210839085553,0.0194333566000825,0.0522032731747918,0.0298400387346623,-2.33484822643144,-2.19313723951658,-0.870208268217445,0.0604753656239881,-0.0445185848942287,-0.0329773762713985,5.62985141498147,0.000903646666703492,-0.000434424999203049,0.000151113794001813,-2.33484822643144,-2.19313723951658,-0.870208268217445,0.0604753656239881,-0.0445185848942287,-0.0329773762713985,-0.593681994228633,0.201176743152649,1.43224076538208,0.0725600695898861,-0.0341323212376494,0.00650326401291961
