time,x,y,z,roll,pitch,yaw,xdot,ydot,zdot,p,q,r,thrust,roll angle,pitch angle,yaw angle,_xdot,_ydot,_zdot,_p,_q,_r,_xddot,_yddot,_zddot,_phiddot,_thetaddtot,_yawddot
0,1.01841953230695,4.01841953230695,0.0184195323069548,0.0184195323069548,0.0184195323069548,0.0184195323069548,0.0184195323069548,0.0184195323069548,0.0184195323069548,0.0184195323069548,0.0184195323069548,0.0184195323069548,9.02632002930371,-0.00901293943106372,0.000450883777169233,-0.00179247037494717,0.0184195323069548,0.0184195323069548,0.0184195323069548,0.0184195323069548,0.0184195323069548,0.0184195323069548,-0.338513777902232,0.326322826997699,8.23651586651529,-0.726850060413389,0.0346834745493514,-0.0756316645087427
0.1,0.620366420226373,2.42036642022637,0.0203664202263731,0.0203436325594499,0.0192906785233702,0.0192760886364373,-0.0845502691089711,0.120199991615796,4.54296650650887,-0.389978596586938,0.0291271218178095,-0.0316903040905527,5.55408536102249,-0.000335245734441908,-0.00093171219968696,0.000573857364141444,-0.0845502691089711,0.120199991615796,4.54296650650887,-0.389978596586938,0.0291271218178095,-0.0316903040905527,-0.218542174664191,0.221793783348085,1.29380581718081,-0.0270388739768663,-0.0716672200877465,0.0242133049985832
0.2,0.629938566896896,2.71973965092444,2.08880191318133,-0.17701321194881,0.0157573261478791,-0.0140456785636678,-0.0587740372087574,0.062701654292755,1.12765862274982,-0.0497238448381655,-0.0325325191897294,0.0108172869796888,6.6838743705913,0.00030733101361725,0.000407721244317821,0.000150861176982527,-0.0587740372087574,0.062701654292755,1.12765862274982,-0.0497238448381655,-0.0325325191897294,0.0108172869796888,-0.240380949444385,-2.3507858495272,3.34723106493899,0.0247902039163241,0.0314060333272723,0.0063699230094694
0.3,0.643990715032034,2.7032154441059,0.79524102978448,-0.0385205979509012,-0.00549717531764301,0.010683976859347,-0.0914819113552068,-0.396528231114717,2.47847345318346,-0.0183975358631128,0.0207519962268478,0.00647637412341996,6.47879867190013,-0.0049171080531134,-0.000666150435347587,-0.000806704385402547,-0.0914819113552068,-0.396528231114717,2.47847345318346,-0.0183975358631128,0.0207519962268478,0.00647637412341996,0.0765042432848735,-0.49822204895867,3.1377894180725,-0.396540654158028,-0.0512333567138628,-0.0340365584055648
0.4,0.603096622085664,2.47415668809592,1.51547101747419,-0.0469498898200765,-0.00290490685865715,-0.010888477027175,-0.0878977710084188,-0.284067883464974,2.36262179113736,-0.265541324594102,-0.0395013520618875,-0.0319806395483507,6.09366003891573,0.000167395224483835,5.29556552955569e-05,0.00205330403485439,-0.0878977710084188,-0.284067883464974,2.36262179113736,-0.265541324594102,-0.0395013520618875,-0.0319806395483507,0.0291339692019612,-0.572334290099121,2.36383897345982,0.0134983733050662,0.00405813711569124,0.0866412822305983
0.5,0.65218574891932,2.56756544488339,1.61929362130324,-0.116466162632442,0.0159510974507717,0.0165104489582762,-0.0144845232815239,-0.248598863562398,2.13500724158676,-0.0220922635483036,0.027588915453707,0.07046776487356,6.14589596093522,-0.00364400868567358,-0.00285409436878853,-0.00407163428664608,-0.0144845232815239,-0.248598863562398,2.13500724158676,-0.0220922635483036,0.027588915453707,0.07046776487356,-0.17112298509136,-1.4313638992153,2.3969678037814,-0.293872569315281,-0.219374339538184,-0.171799581924077
0.6,0.640795172382583,2.52815153496978,1.62757807450874,-0.0501795956859458,0.0124893694709704,0.0311124554163411,-0.088323938426706,-0.464091607663989,2.29340701827069,-0.216761921053922,-0.123218949510602,-0.0931693136893995,6.02287829342006,-0.0015822559637003,0.00018568568591863,0.00301703113630875,-0.088323938426706,-0.464091607663989,2.29340701827069,-0.216761921053922,-0.123218949510602,-0.0931693136893995,-0.131382878464457,-0.608579068426633,2.21965593049616,-0.127610037414283,0.0140147644004691,0.127305284011371
0.7,0.64548069392928,2.45545984353311,1.88262872333244,-0.109289053291949,-0.0208425508741014,-0.00598256856933349,-0.0428357547210425,-0.433259543833818,2.29298045274958,-0.114063118698877,0.0272133913319499,0.0900299494633331,5.79920942922268,-0.00246117153484092,-0.00267041537615911,-0.00390465836905521,-0.0428357547210425,-0.433259543833818,2.29298045274958,-0.114063118698877,0.0272133913319499,0.0900299494633331,0.232708433719487,-1.2664732230793,1.71671732871244,-0.19852501199005,-0.205000847123975,-0.164777266630486
0.8,0.626149722563537,2.41151470113044,1.97203712316243,-0.102592659895835,0.0110004609730675,0.0416019137688799,-0.0708873864924564,-0.581281008624999,2.14045422250954,-0.182257208103158,-0.12496726461251,-0.0882597236285854,5.8308524862403,-0.000770445949963731,-0.00110286742311682,0.00230389486911668,-0.0708873864924564,-0.581281008624999,2.14045422250954,-0.182257208103158,-0.12496726461251,-0.0882597236285854,-0.0778254722442933,-1.19858150047365,1.78968570469783,-0.0621082257034797,-0.0851980738904615,0.0971914256911472
0.9,0.626110509711964,2.33377075150748,2.06584223515283,-0.131126008240266,-0.0456718251308976,-0.0233686879992944,-0.0537993738703976,-0.674267101259111,2.26277267108644,-0.109758180038221,-0.0511750874461369,0.0569573176771055,5.60771790619572,-0.0016062465559959,-0.00106678723182889,-0.00151663684450784,-0.0537993738703976,-0.674267101259111,2.26277267108644,-0.109758180038221,-0.0511750874461369,0.0569573176771055,0.473251646691296,-1.47788637113555,1.29755982269679,-0.129619170318185,-0.0815334388961692,-0.0640550160130502
1,0.578420463263895,2.20960039816096,2.20626057806007,-0.152217862179125,-0.0625235757276536,-0.00441363361648625,-0.10246674356872,-0.853200351555627,2.07535196738267,-0.182947208276753,-0.0974604756787393,-0.0633782159523251,5.59693290215942,0.00192841886906065,-0.000269264650828657,0.00325088927109156,-0.10246674356872,-0.853200351555627,2.07535196738267,-0.182947208276753,-0.0974604756787393,-0.0633782159523251,0.683839193064068,-1.70036871154841,1.23281403664463,0.155534937257489,-0.0208073540266177,0.13708345391704
1.1,0.57189781070273,2.10979775852534,2.27617219753125,-0.178317001283938,-0.0747371407422284,-0.0436900358769897,-0.0257997218643733,-0.975689025714012,2.14367427823424,-0.0241264388128229,-0.0492650807086839,0.0557072685134137,5.43782156592686,-0.000640038526023604,-0.00148120397797993,-0.000545907030357181,-0.0257997218643733,-0.975689025714012,2.14367427823424,-0.0241264388128229,-0.0492650807086839,0.0557072685134137,0.714165565500463,-1.96211538587304,0.863316461578886,-0.0517810290331012,-0.113201696268747,-0.0231682486465884
1.2,0.636725663455707,2.0456915563423,2.47488638910699,-0.0788524443753665,-0.0195809043247454,0.045425621506993,0.0882132040399187,-1.05149018186399,2.06741198767189,-0.0962638614048571,-0.0764219473567049,0.00542406409873638,5.38174837055731,-0.00332096708384923,-0.00333064564737225,-0.00229054225472325,0.0882132040399187,-1.05149018186399,2.06741198767189,-0.0962638614048571,-0.0764219473567049,0.00542406409873638,0.248374785589152,-0.837433946959806,0.917994987244724,-0.267818571874984,-0.256208889111501,-0.0968030831256206
1.3,0.640685372092055,1.91118778110656,2.54090677222073,-0.149824255303285,-0.0710772297945043,-0.0104709295115365,0.0854642284527842,-1.26638485234724,1.97848178982236,-0.248454774471833,-0.189200514933278,-0.0661132932864633,5.28193712143231,0.00461638467348047,0.00120162061659806,0.00364321460516265,0.0854642284527842,-1.26638485234724,1.97848178982236,-0.248454774471833,-0.189200514933278,-0.0661132932864633,0.725263376262904,-1.5844908204943,0.609156438689242,0.372312768367571,0.0923486866730902,0.153524787113066
1.4,0.669653539877405,1.78457915172553,2.61978649989783,-0.201632473186394,-0.107345594213452,-0.0236739382176953,0.143976551802117,-1.29788744612617,1.9430151994906,0.105259455107826,0.0149204285381304,0.0856011580017779,5.19245156781148,-0.0018086804664896,-0.00275989731342669,-0.00292773835119988,0.143976551802117,-1.29788744612617,1.9430151994906,0.105259455107826,0.0149204285381304,0.0856011580017779,1.04055568265269,-2.10499574338333,0.305950273103809,-0.146205034350372,-0.211303028649846,-0.12385136663626
1.5,0.677469733557727,1.67013085981284,2.72362838061394,-0.0717326881880747,-0.0393293521657409,0.0298406191056988,0.177071696888395,-1.46359089371374,1.87710516918207,-0.171498753318537,-0.16781881153838,-0.0735414495208635,5.16502131251367,8.27837634056929e-05,-0.00168469312533865,0.00208283959120265,0.177071696888395,-1.46359089371374,1.87710516918207,-0.171498753318537,-0.16781881153838,-0.0735414495208635,0.427033968063488,-0.727949424551804,0.485509324957974,0.00681713180163587,-0.12998704213166,0.0875898156218825
1.6,0.703713669457539,1.52417125434806,2.83005221407622,-0.189311983525425,-0.120150758452629,-0.0374282100754887,0.288370735850843,-1.67021580490916,1.82597274894882,-0.0959038501875606,-0.125282564704443,0.0397295994669176,4.99909684967664,0.0045505855184837,0.000702354425025398,-0.000128371895208706,0.288370735850843,-1.67021580490916,1.82597274894882,-0.0959038501875606,-0.125282564704443,0.0397295994669176,1.1057628126853,-1.92421692996054,-0.0612280230624425,0.366644109602394,0.0548524241408291,-0.00582190257113077
1.7,0.734842874362652,1.31638583774226,2.85810674570694,-0.188316041855785,-0.130143840218719,-0.0144315511947933,0.260871466923073,-1.72318016063108,1.66077180340033,0.088505371908915,-0.056188469234527,-0.0262567664460234,5.05307227766313,0.000697050557275694,-0.0012627250143282,0.00189686258422966,0.260871466923073,-1.72318016063108,1.66077180340033,0.088505371908915,-0.056188469234527,-0.0262567664460234,1.26091928310951,-1.91031584477043,0.0335224237999423,0.0561448737079709,-0.0969801418392141,0.079545809771504
1.8,0.739733730315872,1.19401563072195,2.92825594418531,-0.107487334821082,-0.106603735327606,-0.0383850442880343,0.372285535343587,-1.91953519255285,1.70032898725868,-0.0645952526699377,-0.134725100857246,0.0219301602732348,4.89471144385549,0.00207384625997281,-0.000580641861276738,0.000742792799554998,0.372285535343587,-1.91953519255285,1.70032898725868,-0.0645952526699377,-0.134725100857246,0.0219301602732348,0.994536734212402,-1.089182238178,-0.13232573338102,0.16694722242841,-0.0440678567985143,0.0308438152683123
1.9,0.846495689682334,1.05048117424357,3.08913370064123,-0.129635313258365,-0.10244871729172,0.0239195342816421,0.550717774395274,-2.03510206913492,1.54157287429255,0.0368617027258944,-0.0752376606590588,0.0346043577356637,4.813637182985,0.00139441167321675,-0.00135753710466052,-0.00279135551977441,0.550717774395274,-2.03510206913492,1.54157287429255,0.0368617027258944,-0.0752376606590588,0.0346043577356637,1.00580274383256,-1.2208352527089,-0.3135620444345,0.112327488091819,-0.104198419219587,-0.118362224312185
2,0.919080543795422,0.851658188864734,3.07461424226379,-0.10664809648935,-0.10257659664611,0.0126522071192535,0.606568426456278,-2.15499774317914,1.41528482313871,-0.00120585976331282,-0.126242569880829,-0.0620210671935764,4.84076422584985,0.00261600904459876,-0.00017097562326869,0.00231830492997265,0.606568426456278,-2.15499774317914,1.41528482313871,-0.00120585976331282,-0.126242569880829,-0.0620210671935764,0.998684800804015,-1.01800666706903,-0.234077890066317,0.211194883953809,-0.0135311512660721,0.097207647589837
2.1,0.960619941497596,0.65565260186836,3.09908858457527,-0.135265727347892,-0.147524592598135,-0.0459016606597636,0.688104266458699,-2.31740664168303,1.41239674548477,0.0420723541447201,-0.0916349267737048,0.038649141665694,4.75932793124238,0.00448880884553422,0.000574960959886212,0.000333784054355882,0.688104266458699,-2.31740664168303,1.41239674548477,0.0420723541447201,-0.0916349267737048,0.038649141665694,1.32600728708887,-1.34588734413307,-0.480739506268186,0.36153840363901,0.0449290089369581,0.01340815681719
2.2,1.03293915403664,0.44651271017302,3.17651053866855,-0.116089898664213,-0.134760613529979,-0.00346590916362991,0.754280266921625,-2.38245306917316,1.30108265373196,0.140773075596559,-0.0619750910803053,-0.00195055681923525,4.717471636058,0.00221458915572608,-0.000584354890425129,0.000244688946224112,0.754280266921625,-2.38245306917316,1.30108265373196,0.140773075596559,-0.0619750910803053,-0.00195055681923525,1.25528647434577,-1.0972003506345,-0.523528021582194,0.178576294430748,-0.0449231376313088,0.0096175222949733
2.3,1.13233577911796,0.307556873413926,3.25134264425845,-0.0368947210296628,-0.0979039863617323,0.0133909944690991,0.93192741170477,-2.47353731325054,1.24758560389097,0.0828297908672702,-0.0824570471459599,0.0224685134902579,4.59306431413809,0.00120754040675946,-0.000884329004496844,-0.00170501001923668,0.93192741170477,-2.47353731325054,1.24758560389097,0.0828297908672702,-0.0824570471459599,0.0224685134902579,0.901768335319166,-0.326796853652637,-0.674083140642438,0.0973368399558278,-0.0679691371261247,-0.0726261301172716
2.4,1.23324863450348,0.0908522904534728,3.27954314540597,-0.0725251435476779,-0.128056281066133,0.00746456103719583,1.04667517944643,-2.66206943593593,1.11561556467309,0.0332705702573361,-0.111936069494005,-0.0368483106853558,4.62515281851396,0.00614726243366284,0.00168449463251747,0.00137457709199677,1.04667517944643,-2.66206943593593,1.11561556467309,0.0332705702573361,-0.111936069494005,-0.0368483106853558,1.18319000986255,-0.661478289072492,-0.659553986166708,0.496002862940255,0.129290524299838,0.0573090916849595
2.5,1.35600222919157,-0.151605424492566,3.28160066007958,-0.0786619964983602,-0.137632239524533,-0.0112482173136992,1.13323515605574,-2.65220895023603,1.08924340805538,0.263605139274496,0.00237439176814622,0.0399470620297012,4.57882122442758,0.00181395958411298,-0.000431761039155819,-0.00140195795588327,1.13323515605574,-2.65220895023603,1.08924340805538,0.263605139274496,0.00237439176814622,0.0399470620297012,1.24435282178877,-0.733658640676801,-0.767005679812657,0.146027298000843,-0.0329466102463621,-0.0598794178321158
2.6,1.45110350153652,-0.318692834007675,3.34303794067155,0.0258895968367406,-0.091499903983162,0.0224532149655087,1.23543663132565,-2.71120687611762,0.988160400797382,0.096803678698049,-0.0805117420044676,-0.0233727782722073,4.49438581162125,0.00250834031391877,9.36894551246424e-05,1.24889791717792e-05,1.23543663132565,-2.71120687611762,0.988160400797382,0.096803678698049,-0.0805117420044676,-0.0233727782722073,0.815618178563902,0.251064672796621,-0.861829862386438,0.202604127502364,0.00693088200605426,-8.51822108009093e-05
2.7,1.57157175130792,-0.508284477412603,3.37017534428235,-0.0272880135201581,-0.12487522804463,0.00301962246734291,1.40830909788348,-2.84833010847128,0.982180724617201,0.139327533334408,-0.0566588640876343,0.012131808296921,4.45810602291415,0.00585138824814954,0.00207989862742673,-0.000778751702115237,1.40830909788348,-2.84833010847128,0.982180724617201,0.139327533334408,-0.0566588640876343,0.012131808296921,1.11083863416361,-0.239922305912759,-0.966510187592874,0.471865633749277,0.160008020693881,-0.0334571882795836
2.8,1.72367594655288,-0.777964473298199,3.39543702291986,-0.00950400977830512,-0.123402092482417,0.0079827535763679,1.44443373461762,-2.79521610311123,0.812324539220626,0.29305942661446,0.0223071323145966,-0.0118343409144707,4.50701027552555,0.00229572089030057,0.000360764316676334,0.000104992044032369,1.44443373461762,-2.79521610311123,0.812324539220626,0.29305942661446,0.0223071323145966,-0.0118343409144707,1.11012639066312,-0.0768087257512834,-0.86492949657894,0.185307506435974,0.0276381213088482,0.00387626767309488
2.9,1.7858769401517,-0.967799113751338,3.35405687586698,0.0370589782675373,-0.124705074708604,-0.0348820968812055,1.5185706356386,-2.88896074117807,0.808144664936689,0.13124496213368,-0.0728694713304986,-0.0205082168397008,4.48230117140155,0.00628308692214045,0.00280443836103519,0.00254142002659092,1.5185706356386,-2.88896074117807,0.808144664936689,0.13124496213368,-0.0728694713304986,-0.0205082168397008,1.12517617138007,0.293080706568093,-0.921120574145075,0.506684240980714,0.215734401519275,0.10681887693115
3,1.94641122506157,-1.15988182571973,3.42902426086406,0.0132807428067963,-0.135054812006164,-0.00785273118074431,1.68425071956023,-2.86641817373497,0.815142318769479,0.343485499586679,0.0609713104024059,0.0633702694407609,4.39323629294937,0.00322536578535932,0.00148762070792857,-0.00264109983850533,1.68425071956023,-2.86641817373497,0.815142318769479,0.343485499586679,0.0609713104024059,0.0633702694407609,1.18382680031947,0.107394585498549,-1.10430525388116,0.259763195945776,0.114578851644081,-0.111807732755048
3.1,2.12741734309843,-1.33917051746451,3.48895254111937,0.131157721546637,-0.0624883424847138,0.0439125653930478,1.7977471703277,-2.80195003488744,0.642578198234638,0.245924524144704,0.0341779360604648,-0.039844331652775,4.3176665157011,0.00122891184236905,-8.77735973856111e-05,-0.000246520337055861,1.7977471703277,-2.80195003488744,0.642578198234638,0.245924524144704,0.0341779360604648,-0.039844331652775,0.484533015171105,1.15172671090638,-1.26554390825139,0.0997564467987028,-0.00691100161379644,-0.0106017206260791
3.2,2.27234451517352,-1.50630121894465,3.45407069527753,0.101515061963558,-0.0810974327376725,-0.00349838016856666,1.96526938113561,-2.85135088185962,0.738333968531363,0.163979530920847,-0.0406131866227117,0.00395330478198927,4.27550946338693,0.0064976328664333,0.00420547385575747,0.000128770931763046,1.96526938113561,-2.85135088185962,0.738333968531363,0.163979530920847,-0.0406131866227117,0.00395330478198927,0.692166950696576,0.864150881265906,-1.3309627402154,0.524032612128695,0.323494711770804,0.00534730788077941
3.3,2.41786031427496,-1.81499283359162,3.47029577961179,0.0184661161943781,-0.169610576022459,-0.0507733455382211,1.90383019866148,-2.82098604143816,0.499249212907459,0.353403738873812,0.0919917969144022,-0.0368705585079867,4.59836859573194,0.00725857725322336,0.00425559502274391,0.00484074040043558,1.90383019866148,-2.82098604143816,0.499249212907459,0.353403738873812,0.0919917969144022,-0.0368705585079867,1.55874933476027,0.0908264942952652,-0.746776179075487,0.585461528969867,0.327352015913723,0.2042377513775
3.4,2.558663432269,-1.94020197402455,3.44580864251808,0.156719715497576,-0.0728289285073039,-0.0303659664092277,2.0305067788121,-2.63711338824035,0.633165348071631,0.448042239384363,0.139053330712169,0.105787360231695,4.21809271928524,-0.00101511302887015,0.000132266068460179,-0.00330266105809186,2.0305067788121,-2.63711338824035,0.633165348071631,0.448042239384363,0.139053330712169,0.105787360231695,0.646029837278777,1.29769507024405,-1.49929258679151,-0.0823228644226149,0.0100867964169877,-0.139211317348898
3.5,2.707434071706,-2.02438021523147,3.54185819114346,0.218877726856921,-0.0494800131383167,0.0336475090504524,2.19613304969305,-2.67144758115324,0.452172828852936,0.107525450211697,-0.00322113838179114,-0.0739224256609264,4.22091634222811,0.00588914006490808,0.00426883078380735,0.002296784595338,2.19613304969305,-2.67144758115324,0.452172828852936,0.107525450211697,-0.00322113838179114,-0.0739224256609264,0.345674682957368,1.84568471244423,-1.57966002961206,0.475950258684908,0.328874603266039,0.0972198654083612
3.6,2.95084402715104,-2.24864252027931,3.50919373158388,0.105593913494103,-0.0961615587704523,-0.026097649318957,2.30078853850893,-2.49940587780464,0.544011617492484,0.419447447701755,0.169275806770572,0.0595216548038193,4.27214082085854,0.00397510098052573,0.00381249883175436,-0.000242863121243095,2.30078853850893,-2.49940587780464,0.544011617492484,0.419447447701755,0.169275806770572,0.0595216548038193,0.839018158549863,0.878953815586023,-1.35256318423401,0.320585083974074,0.293276108224411,-0.00989456491069702
3.7,3.13368188485673,-2.39324320816888,3.57492555377641,0.233960074248776,-0.0258204298282614,0.00682506267503123,2.28753860006737,-2.34600389526934,0.218279065340498,0.346492105349072,0.159026129219969,-0.00814140572612872,4.23494114170682,0.000192479614452427,0.00131200620089543,0.000707186971220246,2.28753860006737,-2.34600389526934,0.218279065340498,0.346492105349072,0.159026129219969,-0.00814140572612872,0.199307754281828,1.96499170257616,-1.57361791058876,0.0162593521866976,0.101606573993019,0.0303042288138111
3.8,3.27082308324518,-2.45254667406986,3.45640019963254,0.239006237802157,-0.0151999263645676,-0.00646191073328371,2.41285229262717,-2.20462610429861,0.417767706689237,0.203948595757319,0.0707367683541295,0.0215401019122766,4.08534587146488,0.00413560148068411,0.00467601243467607,0.000177282912946273,2.41285229262717,-2.20462610429861,0.417767706689237,0.203948595757319,0.0707367683541295,0.0215401019122766,0.133155607650777,1.93348686628165,-1.87248768945534,0.334082033522163,0.360441755829544,0.00800305213470402
3.9,3.53354445860947,-2.55736581033774,3.61569301107688,0.223284487017362,-0.01391643033977,0.0388705462984804,2.47596207424769,-1.985132164804,0.190248895779221,0.40376319757946,0.247991224411493,0.0364369245481855,4.0750474684607,-0.000575978598042311,0.0016302852438359,-0.00257473455945939,2.47596207424769,-1.985132164804,0.190248895779221,0.40376319757946,0.247991224411493,0.0364369245481855,0.0403852524811472,1.80764101782885,-1.86299739128793,-0.0456961013687124,0.126594262825382,-0.108084228258766
4,3.70531409764952,-2.63395322085484,3.53028271089302,0.313378472091963,0.0559652460803152,0.0265628015098778,2.46613900234725,-1.80713881287961,0.0329994598270282,0.199262738767383,0.125626066825483,-0.0397384016854849,4.0573050787075,0.000681448347485139,0.00200572814254149,0.00120130840353564,2.46613900234725,-1.80713881287961,0.0329994598270282,0.199262738767383,0.125626066825483,-0.0397384016854849,-0.498080503654882,2.48917519214211,-2.10267746350746,0.0558453438266042,0.156447642774736,0.0512218801819402
4.1,3.85726766100321,-2.70235420967325,3.46203542030058,0.234179108180046,0.00472937179454552,-0.0106801951359466,2.43075953939748,-1.54858938191629,0.141609116155252,0.245380673581755,0.133030650495804,0.0339121517563113,3.95282393839763,0.00267315653750845,0.00484565146953672,-0.000222369342384937,2.43075953939748,-1.54858938191629,0.141609116155252,0.245380673581755,0.133030650495804,0.0339121517563113,-0.0167739707516914,1.8347465125377,-2.12022157533045,0.21606983664407,0.374246705907989,-0.0088797728490237
4.2,4.00117580036594,-2.75865354041816,3.53180838864957,0.241700741406473,-0.00536235295840473,-0.00526847910040509,2.36303717629475,-1.42250611531042,-0.348960038979458,0.316621300894653,0.246448581816212,-0.0154409649597527,4.15866945662612,0.000195687139270663,0.00205619412203468,0.00171963841199658,2.36303717629475,-1.42250611531042,-0.348960038979458,0.316621300894653,0.246448581816212,-0.0154409649597527,0.0537916545813968,1.9905348650721,-1.73454310848421,0.0163909284285815,0.160619128769103,0.0730208713578486
4.3,4.13583879209597,-2.78240206241972,3.30488565635317,0.30740739635702,0.0701269437828717,-0.0107051532655123,2.39567509036465,-1.15560778694387,-0.244840768316164,0.233388072623528,0.155983384809162,0.0421876463599085,4.01103092232117,-0.00104819821159292,0.00187572817720658,-0.00106693145279512,2.39567509036465,-1.15560778694387,-0.244840768316164,0.233388072623528,0.155983384809162,0.0421876463599085,-0.509735358581457,2.43298048610925,-2.18279526578119,-0.0842018165008839,0.14661980705554,-0.0446898453820866
4.4,4.30822699923015,-2.76515325125625,3.34199299183491,0.292269708631774,0.0453880509034375,0.0214581216462046,2.37203873089538,-0.897335470381443,-0.32660466879824,0.178977083843852,0.166659917705664,-0.0150227518094652,3.91029032424379,0.000159818576874327,0.00335912346195349,4.47082234436266e-05,2.37203873089538,-0.897335470381443,-0.32660466879824,0.178977083843852,0.166659917705664,-0.0150227518094652,-0.388061161845423,2.24550644141485,-2.32878412049686,0.0131988824130146,0.262099170515754,0.00211188772388203
4.5,4.46311831661031,-2.76199665323836,3.31908033607203,0.268405493283026,0.0479402473216876,-0.0162639330927135,2.30805115532225,-0.709408726817691,-0.639677671931789,0.219745384093241,0.220445825812549,-0.00258729735587918,4.02530923755347,-0.000488962929354079,0.00197793423915649,0.0011828759179064,2.30805115532225,-0.709408726817691,-0.639677671931789,0.219745384093241,0.220445825812549,-0.00258729735587918,-0.337216399038829,2.1407459540254,-2.05655239959177,-0.0393247973061136,0.155610287447789,0.0500036208125386
4.6,4.59575702184459,-2.7411752482042,3.15709057751164,0.300906870867899,0.0881276905462768,-0.00805753814888118,2.27744695358612,-0.454145252160098,-0.707016845332347,0.195015419271073,0.179230140260927,0.0271885999344397,3.98665204204195,-0.00212998908179812,0.00154484793078014,-0.000763466377226972,2.27744695358612,-0.454145252160098,-0.707016845332347,0.195015419271073,0.179230140260927,0.0271885999344397,-0.651165327242749,2.36850292555535,-2.2245036005874,-0.171884066045299,0.12243580344107,-0.0323181327075678
4.7,4.75086772174599,-2.66478441094142,3.09763343854056,0.317876674368293,0.0944910878191546,0.0201840313824341,2.23633664896896,-0.172236407504071,-0.787945507629362,0.129948666308359,0.183876674898693,-0.00349854663394737,3.90335764489187,-0.00243342448481437,0.00150773746545947,-0.000769681984018575,2.23633664896896,-0.172236407504071,-0.787945507629362,0.129948666308359,0.183876674898693,-0.00349854663394737,-0.74876963825046,2.42537320162602,-2.42747248718898,-0.196598882140559,0.120681872486599,-0.0327603427498721
4.8,4.91965681086302,-2.55968551959321,3.06914903534773,0.321425178485135,0.130176474153141,0.0284066851256761,2.1967238701168,0.102710773973834,-0.981873181005836,0.127038456082619,0.20447324139056,0.0128302437944171,3.885168777678,-0.00388817208131199,-0.00021603758700184,-0.00199024438902276,2.1967238701168,0.102710773973834,-0.981873181005836,0.127038456082619,0.20447324139056,0.0128302437944171,-1.02634051032624,2.42662581242693,-2.4999891896453,-0.314126213992523,-0.0118780204560466,-0.0844554189627321
4.9,4.96979542319743,-2.54185546594397,2.87447592561038,0.251562804178028,0.0749232878060027,-0.0406302438340927,1.9537612879025,0.272209906030368,-1.18117094287356,-0.00914767585328319,0.0739604837096152,-0.080372157991342,3.99533372363628,0.00212925157168037,0.00420182037878487,0.0057343174591758,1.9537612879025,0.272209906030368,-1.18117094287356,-0.00914767585328319,0.0739604837096152,-0.080372157991342,-0.498030591808041,2.01090910623509,-2.09255376766476,0.170832341639874,0.328566020286344,0.241247917725988
5,5.05417294491671,-2.43543617513507,2.76837181574804,0.222690065268069,0.0545068689169073,-0.0497290017039064,1.95514405102794,0.502214589353136,-1.3472854973281,0.263492119080356,0.279808143075914,0.116238546535766,4.04776414273245,-0.00485890456828391,0.000125651561449651,-0.00320691656718287,1.95514405102794,0.502214589353136,-1.3472854973281,0.263492119080356,0.279808143075914,0.116238546535766,-0.340745574749532,1.80710222635459,-1.92610171187153,-0.392301127561483,0.0121447914204846,-0.136094359693194
5.1,5.21707202325571,-2.27566726664358,2.61586932535377,0.389605399552279,0.187825780455303,0.0663587045553878,1.99085945911425,0.753892947076369,-1.42951809504234,-0.0122380203524194,0.172648405501349,-0.044975029884077,4.04068452207838,-0.00634804872349599,-0.00257563147900764,-0.00104093284365616,1.99085945911425,0.753892947076369,-1.42951809504234,-0.0122380203524194,0.172648405501349,-0.044975029884077,-1.59636174484976,2.9701755786066,-2.46573612676639,-0.513599233781407,-0.191087115878288,-0.045061415279759
5.2,5.34448397466401,-2.14584543636134,2.47078884624667,0.269439423628079,0.151931217869606,-0.0108819431952921,1.72663293616535,1.18603082497901,-1.32465865152611,-0.0952948230450054,0.0376981223982737,-0.00933217003697659,3.80605303209949,-0.00179046556974287,0.00246606453313878,0.000902823808674382,1.72663293616535,1.18603082497901,-1.32465865152611,-0.0952948230450054,0.0376981223982737,-0.00933217003697659,-1.08839075996613,2.03823934901477,-2.5570595864599,-0.145860825911074,0.195018440417446,0.0367670576776474
5.3,5.37257356626711,-1.93289350291791,2.55176667802794,0.211474754315891,0.0852760043869433,-0.00297137344699448,1.65851146140751,1.23170215712662,-1.87690781848023,0.0640504208817627,0.229520353556096,0.0202329465091964,4.05019508100023,-0.00407187333645871,-0.000314004150040238,-0.00087581142926491,1.65851146140751,1.23170215712662,-1.87690781848023,0.0640504208817627,0.229520353556096,0.0202329465091964,-0.66950682531226,1.70228518881835,-1.9188463122669,-0.32979095403787,-0.0192942640134875,-0.0382922528221636
5.4,5.47570053611334,-1.82549386234841,2.16337701127963,0.292615671993858,0.187409632584668,0.0150916801843218,1.61496088092798,1.44886776981058,-1.83790270045361,-0.033899031144679,0.133198373191988,-0.00878760230727792,4.14420000992789,-0.00622509819320114,-0.00214392853656824,-0.000299319036254078,1.61496088092798,1.44886776981058,-1.83790270045361,-0.033899031144679,0.133198373191988,-0.00878760230727792,-1.51451948920253,2.36826668639666,-2.01287754950105,-0.503956257351422,-0.159226249079367,-0.0142383426678188
5.5,5.5279704015024,-1.67842377029521,1.99296892078983,0.225898596797207,0.131210748460463,-0.022221249153053,1.33408093767509,1.75496687018807,-1.79313297982332,-0.166279264203157,0.0321768853352213,-0.019045633344872,4.01793635523746,-0.00198776130645865,0.00194163354004701,0.00193275251408802,1.33408093767509,1.75496687018807,-1.79313297982332,-0.166279264203157,0.0321768853352213,-0.019045633344872,-0.984412570373022,1.82221554833257,-2.04561254150322,-0.162288230828217,0.154676318142575,0.0798103243790284
5.6,5.53371733788158,-1.45571908743019,1.98629711609485,0.161047040984964,0.0924714629683528,-0.0217627057305596,1.29189185505067,1.85833003780092,-2.11890667626934,-0.0053134988782613,0.197064968972313,0.0315062019407313,4.13899091067632,-0.00425702947461733,-0.00092177905996576,-0.000475706382209802,1.29189185505067,1.85833003780092,-2.11890667626934,-0.0053134988782613,0.197064968972313,0.0315062019407313,-0.725431447170401,1.34349341581244,-1.67404537305119,-0.345064001309633,-0.0664735241941721,-0.0217782325195127
5.7,5.62825933984264,-1.27089631976795,1.69936264609953,0.250990070666613,0.194037203225865,0.0192017315578339,1.2711754393551,2.01950624495925,-2.09631726580319,-0.0944660140357404,0.105169621226761,0.000503972537819582,4.23677023762955,-0.00705887048380871,-0.00279009403472938,-0.000908259070472584,1.2711754393551,2.01950624495925,-2.09631726580319,-0.0944660140357404,0.105169621226761,0.000503972537819582,-1.62280573019403,2.07373855480182,-1.75599489978854,-0.571729207159998,-0.209071527542582,-0.0402320042536118
5.8,5.72546523283668,-1.04611667556231,1.56179673939419,0.233275255817709,0.187428387158866,0.0277269129655599,1.04246744965076,2.36960293685797,-2.04069153249775,-0.215671953933074,0.0410026746735927,0.00852675677235071,4.16869929494873,-0.00597615415960067,-0.00160532932465444,-0.00171805727776848,1.04246744965076,2.36960293685797,-2.04069153249775,-0.215671953933074,0.0410026746735927,0.00852675677235071,-1.56430453148988,1.88467388594058,-1.84048490036954,-0.484562994538217,-0.118045947882654,-0.0744635676908456
5.9,5.7123156642593,-0.786076757381052,1.53717221209328,0.156486450298969,0.149740646451157,0.0183588089404786,0.869230467529158,2.51171480349749,-2.24723063963827,-0.208804171639116,0.0689763420252833,-0.0242644747891907,4.18584106324088,-0.00444666964530473,-0.00142121019182197,0.000263527339258332,0.869230467529158,2.51171480349749,-2.24723063963827,-0.208804171639116,0.0689763420252833,-0.0242644747891907,-1.2573850469372,1.28184780893985,-1.6331478755386,-0.3614185800699,-0.103894233445838,0.00921422793467199
6,5.68493341685275,-0.595002930286826,1.28702796152765,0.12162206190809,0.142668470366549,-0.0187722905761252,0.72683378251909,2.54781858250937,-2.34092068508436,-0.183655521956469,0.0522411585308668,-0.00186193164607404,4.28865163578615,-0.00417259234479615,-0.00128693954329863,0.000961221432525387,0.72683378251909,2.54781858250937,-2.34092068508436,-0.183655521956469,0.0522411585308668,-0.00186193164607404,-1.19080797570543,1.06315961748586,-1.38255676938322,-0.338983932206112,-0.0946208559535808,0.0386949885219674
6.1,5.714087975134,-0.377067179514863,1.08613616343806,0.147448227853831,0.164515531891102,0.0173003206167694,0.646042099636477,2.68647218972281,-2.28593787687256,-0.168676899970729,0.0731122424409719,0.0367976521752365,4.31998123745453,-0.00686833847103837,-0.00326502731684796,-0.00257548119073168,0.646042099636477,2.68647218972281,-2.28593787687256,-0.168676899970729,0.0731122424409719,0.0367976521752365,-1.42140029640399,1.24493287381307,-1.3791806504398,-0.556412267400611,-0.247060544002058,-0.110482573004598
6.2,5.70383112087325,-0.169165001862678,0.932531717063443,0.123411240516447,0.154436531694604,0.011178667599061,0.42847690320607,2.81011565592281,-2.36719673516693,-0.32414171068935,-0.0330399526516414,-0.0612791233298746,4.3827499595532,-0.00333475425581889,-0.000965157786719546,0.00234328928612316,0.42847690320607,2.81011565592281,-2.36719673516693,-0.32414171068935,-0.0330399526516414,-0.0612791233298746,-1.35006198592184,1.06399227732101,-1.21469652078391,-0.272224466496329,-0.0693161234584652,0.0970904758844293
6.3,5.64990454189812,0.0489404211580875,0.770953739541934,0.0305721336200922,0.103378432403231,-0.0374615985578958,0.276164411139809,2.88841482360482,-2.3756399039406,-0.201614168310915,0.0494708363575685,0.0397847080681628,4.33905840044497,-0.00353131183209399,-0.00144770913768449,-0.000149482538806665,0.276164411139809,2.88841482360482,-2.3756399039406,-0.201614168310915,0.0494708363575685,0.0397847080681628,-0.884551511167541,0.298605686135481,-1.18224742599864,-0.286892146702731,-0.108479203179017,-0.00788677004569322
6.4,5.62148163973892,0.277227038458403,0.616640769471651,0.0739172886669173,0.142233578850447,0.0113365178251893,0.257978716566105,2.81359855251953,-2.39847272881105,-0.220799373609281,0.023880854725368,-0.00871942776127383,4.39040955253145,-0.00494141998174501,-0.00258688214866396,-0.000140396301847852,0.257978716566105,2.81359855251953,-2.39847272881105,-0.220799373609281,0.023880854725368,-0.00871942776127383,-1.24859304909435,0.634349822816982,-1.14158608187848,-0.401412273509711,-0.195371106131923,-0.00742786321608488
6.5,5.62263701035921,0.450933751067087,0.40458834304723,0.0495014154289448,0.132381605848989,-0.013225073694088,0.0659137991784207,2.92922806434987,-2.45162822959954,-0.299046817653201,-0.0303715083491073,-0.0115476886795693,4.49466462341775,-0.00317217461409569,-0.0014313758328171,0.00115845535835962,0.0659137991784207,2.92922806434987,-2.45162822959954,-0.299046817653201,-0.0303715083491073,-0.0115476886795693,-1.17910957971529,0.460436434487703,-0.910239374183599,-0.258596039441994,-0.106969654480297,0.0474835848617659
6.6,5.57461529493793,0.687089848541203,0.277425328115735,0.00749353599381308,0.115678352762943,-0.00682117310490923,-0.0405255886773159,2.96678590621867,-2.37302847487329,-0.234632484120846,0.0155017066510163,0.024582171075501,4.41676599994703,-0.00402139929815019,-0.00233161289151328,-0.000857605942818637,-0.0405255886773159,2.96678590621867,-2.37302847487329,-0.234632484120846,0.0155017066510163,0.024582171075501,-1.01906712056111,0.073146651514136,-1.0357513504394,-0.326825951733899,-0.17681536365344,-0.0373975859107653
6.7,5.55021811759992,0.916971862356308,0.169399440541962,0.0345878519062076,0.149456943562704,0.0232209772648076,-0.0929068063773075,2.92732029299495,-2.44007012172085,-0.273581087147431,-0.0182444722063058,-0.00757143557580454,4.49572034499569,-0.00459747321401248,-0.00313016036305771,-0.000713357233223628,-0.0929068063773075,2.92732029299495,-2.44007012172085,-0.273581087147431,-0.0182444722063058,-0.00757143557580454,-1.34489390171491,0.279781097880743,-0.924112953000629,-0.37376860109696,-0.23809691096546,-0.0311888944431465
6.8,5.48923072803076,1.07191939666185,-0.053512632736433,-0.0288316953852175,0.104800007535954,-0.0213590710721367,-0.346375608775483,2.94691437931703,-2.47300515251115,-0.340686568673004,-0.0836427434345785,-0.0318523468527772,4.53837483950289,-0.00095001233675257,-0.000600702235537955,0.00254692992305998,-0.346375608775483,2.94691437931703,-2.47300515251115,-0.340686568673004,-0.0836427434345785,-0.0318523468527772,-0.954480455699331,-0.241331607554076,-0.786801517742443,-0.079450929187701,-0.044009719628742,0.106536279495376
6.9,5.41243315088158,1.30080991559994,-0.162041837680383,-0.0497341628924021,0.0992673705117365,-0.00475607568823004,-0.33343394319474,2.86562525602808,-2.37281375739278,-0.175470859357058,0.0346839683860964,0.0645429438883566,4.4357707749745,-0.00454538657966724,-0.00320745876593277,-0.00281725622217131,-0.33343394319474,2.86562525602808,-2.37281375739278,-0.175470859357058,0.0346839683860964,0.0645429438883566,-0.880209517576642,-0.436855437176039,-0.993048258913479,-0.368714437589531,-0.245346031441353,-0.119583924754694
7,5.40639387191173,1.48909949274514,-0.285140871612162,0.0228786188045628,0.163285224196642,0.0525974901133041,-0.381417495160346,2.80429505745068,-2.48336261378128,-0.328169891330856,-0.0709132254843686,-0.0421104030621604,4.60878779143785,-0.00389371067335053,-0.00345821681903255,-0.000375776316150553,-0.381417495160346,2.80429505745068,-2.48336261378128,-0.328169891330856,-0.0709132254843686,-0.0421104030621604,-1.50703681568136,0.131819487492012,-0.717411628973586,-0.317384740871114,-0.264163079372806,-0.016484795329382
7.1,5.34192629831081,1.63774686727174,-0.502584112214155,-0.0789850619952073,0.0999432156553518,-0.0145259737116353,-0.695324507496208,2.90816658696761,-2.46785830983701,-0.331717603892515,-0.102038993264068,-0.0070791044833652,4.62598411063893,-0.000992728283066107,-0.00116644574945514,0.00112906815038837,-0.695324507496208,2.90816658696761,-2.46785830983701,-0.331717603892515,-0.102038993264068,-0.0070791044833652,-0.930761416986266,-0.716563545295812,-0.632901556715314,-0.0825722652146591,-0.0887015340779072,0.0472031680819695
7.2,5.20340207004199,1.86825180094591,-0.586698126947315,-0.0894134136551799,0.0901979083240069,0.0120779428231511,-0.665429494340773,2.66573224811944,-2.34349101065449,-0.210046327815939,-0.0135198049354988,0.0356968285351897,4.45645439172601,-0.0032229314626897,-0.00284521947146743,-0.00219108698496831,-0.665429494340773,2.66573224811944,-2.34349101065449,-0.210046327815939,-0.0135198049354988,0.0356968285351897,-0.789958404322296,-0.805471731906341,-0.968782663531195,-0.262183249143915,-0.218275823126263,-0.0927013699579201
7.3,5.14943932423466,1.95825149108219,-0.737073575005393,-0.0668792326329868,0.111626753081088,0.0190731258130793,-0.732278042107666,2.54051986290896,-2.56184358931528,-0.325271317424045,-0.10369108473509,-0.0507830650674467,4.64538082332503,-0.000754474348202007,-0.00150026985367444,0.00159364618316127,-0.732278042107666,2.54051986290896,-2.56184358931528,-0.325271317424045,-0.10369108473509,-0.0507830650674467,-1.02060186527988,-0.640477289133005,-0.59770318272605,-0.0636988195961929,-0.114971606205157,0.0670973748933094
7.4,5.11974921847333,2.1307488502887,-0.943608974991154,-0.094468940618513,0.107626805596587,0.017754402348491,-0.826814998441342,2.57944080051169,-2.4069148795941,-0.195868463930781,-0.0196325829295412,0.0650413394664511,4.62661860922749,-0.00390259951591198,-0.00369546869976448,-0.00380136149030455,-0.826814998441342,2.57944080051169,-2.4069148795941,-0.195868463930781,-0.0196325829295412,0.0650413394664511,-0.973890838654309,-0.890274152404852,-0.651323917238608,-0.316619431067989,-0.284299107454023,-0.160380410607306
7.5,5.00972060975732,2.28675368474397,-1.03355404169688,-0.0730167109658706,0.119693552974972,0.0494825232358533,-0.953072325246852,2.3937077616745,-2.45049800370765,-0.356606310393948,-0.142750658168991,-0.0739808980317071,4.64717679648396,-0.00054282996226186,-0.00167140905017331,0.0013300534648089,-0.953072325246852,2.3937077616745,-2.45049800370765,-0.356606310393948,-0.142750658168991,-0.0739808980317071,-1.07197036832227,-0.731958345818155,-0.606732905074313,-0.0466747361110542,-0.128933086062248,0.0562253593885609
7.6,4.8440768516234,2.32646680420041,-1.2516528141255,-0.212299012763821,0.00817277101913816,-0.0631720767171267,-1.17049399467827,2.27197839840303,-2.54750427875181,-0.269225408734353,-0.100645420303135,-0.00662397172352078,4.68012150857378,0.00360608568594233,0.000787689305111756,0.0033392376559014,-1.17049399467827,2.27197839840303,-2.54750427875181,-0.269225408734353,-0.100645420303135,-0.00662397172352078,-0.19914161273276,-1.96362170240817,-0.660208648937965,0.289216157835058,0.0600334267366526,0.141144784820176
7.7,4.73137611579252,2.4732703546486,-1.39941388987478,-0.158076821457531,0.0541781239343616,0.000532272457616899,-0.927508886659468,1.79016940048415,-2.33510436272567,-0.0551490451688031,0.0164153468633546,0.0722745389367899,4.46239679589657,-0.00224462589800138,-0.00217768491036136,-0.00343337803385085,-0.927508886659468,1.79016940048415,-2.33510436272567,-0.0551490451688031,0.0164153468633546,0.0722745389367899,-0.476518429072356,-1.40518858608616,-1.00941388995031,-0.182429461900487,-0.168280568892129,-0.144526622155734
7.8,4.70833561507609,2.40041022567409,-1.53171252969266,-0.110625377587799,0.0704880269064488,0.00532915216611225,-1.09665097041639,1.76045031932355,-2.72151311550707,-0.33007850849344,-0.138085657790565,-0.106814393179255,4.80445503985516,0.00314407170702816,0.00049445357140773,0.00483586623915739,-1.09665097041639,1.76045031932355,-2.72151311550707,-0.33007850849344,-0.138085657790565,-0.106814393179255,-0.666952746481749,-1.06439188289908,-0.283542270416694,0.251131286107324,0.0366485096888152,0.204412502569529
7.9,4.63832432684931,2.56298516306883,-1.77891755909272,-0.186398836195052,0.047384412661382,-0.0243383094704568,-1.12864807807504,1.82923435014856,-2.40678984109728,-0.0570613390163435,0.0235303717869846,0.122411471627983,4.69153556334954,-0.0020997339844398,-0.00234421525061872,-0.00462654814242921,-1.12864807807504,1.82923435014856,-2.40678984109728,-0.0570613390163435,0.0235303717869846,0.122411471627983,-0.478934217936123,-1.72773951846324,-0.599812057296319,-0.170200799517184,-0.181064983005252,-0.194755184359059
8,4.53983925782817,2.6876207744939,-1.80516737209249,-0.0914428430991445,0.107369700838162,0.0678189071433468,-1.15031626390192,1.45299538080306,-2.49595544603242,-0.286984798105989,-0.118181869010335,-0.0966658105306991,4.70579454956657,0.00097638976576961,-0.00116506512970027,0.00141885377782366,-1.15031626390192,1.45299538080306,-2.49595544603242,-0.286984798105989,-0.118181869010335,-0.0966658105306991,-0.943815856073168,-0.925510662885587,-0.491703427469615,0.0762921091546445,-0.0917734270869384,0.0603538799622112
8.1,4.45945647207741,2.66155329001926,-1.98374304318056,-0.197974587582188,0.0447639498982742,-0.0260492569517208,-1.34793910679404,1.59405329323759,-2.61409122792156,-0.154617124034642,-0.0615015806500558,0.0375218156848559,4.86586575301749,0.00106847192927963,-0.000583966176025619,-0.000525542699173039,-1.34793910679404,1.59405329323759,-2.61409122792156,-0.154617124034642,-0.0615015806500558,0.0375218156848559,-0.476688644352434,-1.90230416673136,-0.277917074472345,0.0850524448263869,-0.0462211151943278,-0.0216276799372601
8.2,4.30624979893646,2.81738021169497,-2.16670041589697,-0.149234229939802,0.0710157505385813,0.0371975966738578,-1.28033090574284,1.12772345793942,-2.37321825466997,-0.140747324002784,-0.0489650379329439,-0.000696022607930415,4.68941442913936,0.000100004183571329,-0.00140030367828327,-0.00170945533396599,-1.28033090574284,1.12772345793942,-2.37321825466997,-0.140747324002784,-0.0489650379329439,-0.000696022607930415,-0.605774591317819,-1.41796191839681,-0.5587918683357,0.00657806572385015,-0.109709875799793,-0.0715553761175122
8.3,4.26351489324929,2.74825979355821,-2.20635422982178,-0.135976402134793,0.0898393473947681,0.038485732772053,-1.33797746941882,1.16661832519073,-2.61303761013299,-0.16554468526648,-0.0702633947010822,-0.0153367318111713,4.88550728673408,-0.000106094827945487,-0.00150053007555922,-0.00106832272234733,-1.33797746941882,1.16661832519073,-2.61303761013299,-0.16554468526648,-0.0702633947010822,-0.0153367318111713,-0.816942994236789,-1.35697460359673,-0.168218532641999,-0.00997947010617643,-0.117569844613626,-0.044480163695269
8.4,4.10952915806416,2.79603922083991,-2.49749577343368,-0.19497475430898,0.0366908784974492,-0.00766882615171084,-1.54699036433014,0.975363074295822,-2.500562678561,-0.207585315143244,-0.110971202674584,-0.0368833209169154,4.90969685679018,0.00377935013510186,0.000672111034397589,0.00211919775071999,-1.54699036433014,0.975363074295822,-2.500562678561,-0.207585315143244,-0.110971202674584,-0.0368833209169154,-0.367955302893476,-1.89966079807003,-0.18314222346409,0.303599377655466,0.0496396892800669,0.0900306425286688
8.5,3.93784654107191,2.79688500228247,-2.58856170224531,-0.220260592319993,0.0154395064931006,-0.0161677291325709,-1.45906322981636,0.631979336903313,-2.43839490633699,-0.0336602253324064,-0.0200069227897845,0.037640840583625,4.82818323873161,0.00188522276751231,1.62244282590991e-05,-0.00102077871605447,-1.45906322981636,0.631979336903313,-2.43839490633699,-0.0336602253324064,-0.0200069227897845,0.037640840583625,-0.17957137380316,-2.10713312568939,-0.388049158512429,0.151300185862972,-0.000300969013729283,-0.0424587631102967
8.6,3.88998307352084,2.73351750629229,-2.70691175406362,-0.139093340759883,0.0685993959980602,0.0332113395445585,-1.39973276617619,0.391649360208523,-2.52140612093028,-0.0896889383722116,-0.0377524395083234,-0.0186266243345203,4.91481346898986,0.000944288886890178,-0.000813909073552016,-0.000690063623047996,-1.39973276617619,0.391649360208523,-2.52140612093028,-0.0896889383722116,-0.0377524395083234,-0.0186266243345203,-0.621649359463617,-1.38423661463309,-0.0982026993741147,0.0750896883776653,-0.0649279678133236,-0.0285069563816189
8.7,3.8255661388254,2.68217581253166,-2.88648900012385,-0.159991448185768,0.0642115130044665,0.0158035252607696,-1.5687821536178,0.478174937952753,-2.50578446776091,-0.117802900852329,-0.0655475192352321,-0.0073614538279023,5.01531250890391,0.00159842153359803,-0.000464358973781158,-0.000398186512708242,-1.5687821536178,0.478174937952753,-2.50578446776091,-0.117802900852329,-0.0655475192352321,-0.0073614538279023,-0.610086995398468,-1.60781840179668,0.0721127342669785,0.128043746837168,-0.0377461922388269,-0.0161902203530844
8.8,3.61489382397724,2.70344612336116,-3.06487343919132,-0.217675327749346,0.00935980982385481,-0.0203420218282135,-1.69587257815052,0.184382702012223,-2.449438899735,-0.118572132192658,-0.0867870460252568,-0.0351831959560562,5.03231449970282,0.00511183492934152,0.0014685700374745,0.00262984868406771,-1.69587257815052,0.184382702012223,-2.449438899735,-0.118572132192658,-0.0867870460252568,-0.0351831959560562,-0.136171230716297,-2.17124064628126,0.0166946806918968,0.411499477020768,0.110999557488196,0.111563940754578
8.9,3.4707718705499,2.62291695004041,-3.17333106027295,-0.213906293670192,0.00468091633242353,-0.0241427098760592,-1.56096892687271,-0.178854588821717,-2.39643289496447,0.0519988916135027,0.00356396243283616,0.0431808589115237,5.00860052167632,0.00242723413195642,0.000550094666580979,-0.000900162105682113,-1.56096892687271,-0.178854588821717,-2.39643289496447,0.0519988916135027,0.00356396243283616,0.0431808589115237,-0.0971405207095246,-2.1247133515123,-0.0212067323859166,0.195329770280447,0.0410523182944839,-0.0374104730506807
9,3.43184030301657,2.49098175839804,-3.29318598021097,-0.132353385915385,0.0560014117521224,0.0235611090666608,-1.5404963962544,-0.348611968051764,-2.42785955306621,-0.036647897477436,-0.0231082939168777,-0.0237250560437272,5.07029713785142,0.00190188602905855,-0.000130303007880638,6.51796551054403e-06,-1.5404963962544,-0.348611968051764,-2.42785955306621,-0.036647897477436,-0.0231082939168777,-0.0237250560437272,-0.530943350137458,-1.35111039865091,0.226147274428534,0.152637979442832,-0.0122210946100254,0.000837003257626104
9.1,3.28358866593697,2.35495102843813,-3.50211131052396,-0.217468710067168,-0.00658305706949904,-0.0525592669114049,-1.79093840826182,-0.340022898605701,-2.44720579930422,-0.0899459153125627,-0.0882461709373733,-0.0444564467905062,5.23238759729176,0.00694873102900608,0.00236891824026282,0.00460644861438476,-1.79093840826182,-0.340022898605701,-2.44720579930422,-0.0899459153125627,-0.0882461709373733,-0.0444564467905062,-0.0514428918059236,-2.25828169018249,0.408074050908022,0.559834214621618,0.180530381576311,0.19491977244682
9.2,3.14927831436722,2.42497841812867,-3.5836883044351,-0.174118459919415,0.0292198016135559,0.00229761793061845,-1.55248191791516,-0.710092721442307,-2.18722369051162,0.198756235328593,0.0752238811945618,0.119846297625412,5.04123740509966,-0.0012600403510686,-0.00114737115411552,-0.00577473747453247,-1.55248191791516,-0.710092721442307,-2.18722369051162,0.198756235328593,0.0752238811945618,0.119846297625412,-0.286098065370472,-1.74734983269965,0.115785347138004,-0.101816158328494,-0.0889745670862548,-0.243145711155008
9.3,3.08958956196609,2.18491947170141,-3.65556065693193,-0.0893375926209348,0.0618507387108915,0.0378464678398845,-1.70944782980047,-0.788067282580387,-2.43746456750906,-0.174131644208081,-0.0979385467732762,-0.145871041203934,5.26379885868438,0.0050805224883245,0.0012684134891837,0.00511963929138869,-1.70944782980047,-0.788067282580387,-2.43746456750906,-0.174131644208081,-0.0979385467732762,-0.145871041203934,-0.612126265258973,-0.963110630524153,0.655564153331611,0.408639732053874,0.0943179266976025,0.216541926122828
9.4,2.96308816511908,2.16198418251059,-3.85810279562836,-0.206336024582951,0.0199550856164857,-0.0384593783368946,-1.79162700523151,-0.603929820740176,-2.156318877426,0.136319222962463,0.0403966597883595,0.129186327244529,5.20375263216299,0.000631706009275313,-0.000597712630930088,-0.00429476653948218,-1.79162700523151,-0.603929820740176,-2.156318877426,0.136319222962463,0.0403966597883595,0.129186327244529,-0.285097855513407,-2.12284572480576,0.374714579625124,0.0509147795447236,-0.0460847616741916,-0.180719693705465
9.5,2.76859255408327,2.15917173626393,-3.9210818052409,-0.111553327023064,0.0503439792697309,0.044955633553424,-1.79153347434195,-1.18516176926707,-2.25750946077212,-0.0703691757222981,-0.0722175062383558,-0.109014828265546,5.28645207552806,0.0042813344367533,0.00113984426203616,0.00303815153260457,-1.79153347434195,-1.18516176926707,-2.25750946077212,-0.0703691757222981,-0.0722175062383558,-0.109014828265546,-0.475321099960953,-1.19957109560743,0.683874462081908,0.344375239704262,0.0847445857599101,0.128686628814711
9.6,2.68598116273591,1.88241998259646,-4.05424234767801,-0.171404112337198,0.0208492755794752,-0.0320283669903022,-1.84407884538895,-1.00637722704985,-2.10349644470546,0.117117789896394,0.0242002551396952,0.0745613785370797,5.27684717038678,0.00149530174833939,6.63717050003566e-06,-0.00201075679104056,-1.84407884538895,-1.00637722704985,-2.10349644470546,0.117117789896394,0.0242002551396952,0.0745613785370797,-0.274330090890303,-1.79223632559923,0.586782973252378,0.120438716121808,-4.8567684877829e-05,-0.0843811231081801
9.7,2.54506011159069,1.90376741637788,-4.13119280398435,-0.0857377823204432,0.0702352818002949,0.0513467049531669,-1.81119856216414,-1.32799506002042,-2.10011856784993,0.0140402137833127,-0.019472149365408,-0.0332084723786284,5.30913686609064,0.00133436264664889,-0.000464478225312741,-0.000856257214606952,-1.81119856216414,-1.32799506002042,-2.10011856784993,0.0140402137833127,-0.019472149365408,-0.0332084723786284,-0.694781177261505,-0.946178348890658,0.743187324185266,0.106987496709465,-0.0378685539679224,-0.0356736905754346
9.8,2.4192492884822,1.66716392564625,-4.26968315028726,-0.145991483382941,0.0303941584268322,-0.013099430331028,-2.01863082783864,-1.22819573296977,-2.05189598772462,-0.00159286914034594,-0.0558434583904401,-0.0263619164025366,5.38941948972967,0.0039803022354458,0.00108615108309557,0.00187099364970106,-2.01863082783864,-1.22819573296977,-2.05189598772462,-0.00159286914034594,-0.0558434583904401,-0.0263619164025366,-0.344590703176765,-1.56365509830367,0.849249960759201,0.320588866927879,0.0821337964198936,0.0793854619636145
9.9,2.21882561867089,1.65797162683624,-4.36362495065926,-0.137298684757286,0.0265611641069568,0.000716157070740776,-1.93972198463904,-1.51762623158369,-1.92493439014095,0.13262757061608,0.0195003432548378,0.0468008088051637,5.36616517766571,0.00119577516098227,-6.77225616318121e-05,-0.00224404344190528,-1.93972198463904,-1.51762623158369,-1.92493439014095,0.13262757061608,0.0195003432548378,0.0468008088051637,-0.281295308852063,-1.469111448746,0.817582008921395,0.0962101147861548,-0.00606181400464085,-0.0942793575796789
10,2.11157026953539,1.42516980452615,-4.44220447822747,-0.0894086711569839,0.0463061518215027,0.0210274468708597,-1.97115463254665,-1.65352080376459,-1.9191680756375,0.0139168660619365,-0.0359874517917836,-0.055636591211669,5.42560873623087,0.00301855720235843,0.000586486348336898,0.00164267986981673,-1.97115463254665,-1.65352080376459,-1.9191680756375,0.0139168660619365,-0.0359874517917836,-0.055636591211669,-0.479809632595479,-0.979205745025993,0.986289152298369,0.242931333928517,0.0433590369498127,0.0697070737818513
10.1,1.9859274864718,1.28576034018777,-4.546488893145,-0.123005570665245,0.0326452862229502,-0.0108452759709679,-2.04662225502299,-1.60211149602163,-1.78996281924227,0.110699020188101,0.00234689092180423,0.0406372287298605,5.42489303637092,0.00164087037772665,3.98712871763864e-06,-0.00140697610717852,-2.04662225502299,-1.60211149602163,-1.78996281924227,0.110699020188101,0.00234689092180423,0.0406372287298605,-0.365872279103184,-1.32733136543657,0.952071675378077,0.132158901719794,-0.000316951315665764,-0.058993876468142
10.2,1.78319351819681,1.17613109556535,-4.63948298001411,-0.108853004690279,0.0192195454219239,-0.00115021434281039,-2.10440803806432,-1.86695329147398,-1.79294340466407,0.0356547043796544,-0.0471256005729255,-0.0527574739968473,5.52744639835628,0.00419364008348165,0.00141566580585682,0.00256299613204451,-2.10440803806432,-1.86695329147398,-1.79294340466407,0.0356547043796544,-0.0471256005729255,-0.0527574739968473,-0.212580725657737,-1.2007395585141,1.17743321683938,0.33780360038425,0.107523689811174,0.108499039860002
10.3,1.63479502926674,0.957741625840568,-4.7382499073417,-0.12951047798396,0.000726793551821044,-0.0358755563133108,-2.07722227511048,-1.94375177531987,-1.60672069793273,0.160688828588727,0.0188965334830809,0.0422032327241972,5.50346326996026,0.00265783401490089,0.000821315140310206,-0.000282562240970983,-2.07722227511048,-1.94375177531987,-1.60672069793273,0.160688828588727,0.0188965334830809,0.0422032327241972,-0.0589149258718179,-1.42033141919989,1.10474321944176,0.214245698028091,0.0628226290512572,-0.0115983726239072
10.4,1.55611481331345,0.852003631319483,-4.7281373427967,-0.0295475509988582,0.0714263072651479,0.04649748191723,-1.97773297847932,-2.05846809911482,-1.54731260593447,0.143291030936419,0.0342789057260882,0.0153192541911386,5.4484733727256,-0.00088232287385146,-0.00161502391235227,-0.00291753424449531,-1.97773297847932,-2.05846809911482,-1.54731260593447,0.143291030936419,0.0342789057260882,0.0153192541911386,-0.761523839066636,-0.357714046076376,1.05441763174504,-0.0714754155244411,-0.125299598340568,-0.122792980717864
10.5,1.42039964530508,0.624160669225782,-4.83827427641188,-0.0668739031935933,0.040087597862198,-0.000706101716473248,-2.27904922004987,-1.90235258493629,-1.56943592129148,-0.0345284187032309,-0.0993344214845619,-0.0784002720602765,5.58589630917365,0.00456478847707957,0.001455315256972,0.00375067203871575,-2.27904922004987,-1.90235258493629,-1.56943592129148,-0.0345284187032309,-0.0993344214845619,-0.0784002720602765,-0.447256635442895,-0.746229025567456,1.32786577629719,0.367704764893385,0.110707611465194,0.158560078868164
10.6,1.16002218754409,0.605636571546555,-4.92549434357808,-0.122609768888129,-0.00478697306723619,-0.0291143979051019,-2.22416588511169,-2.04019393759086,-1.35351614117867,0.215367288444098,0.0396261280070316,0.0837297089251122,5.55077284262662,0.00115807755076401,1.89327872236944e-05,-0.00257178547015664,-2.22416588511169,-2.04019393759086,-1.35351614117867,0.215367288444098,0.0396261280070316,0.0837297089251122,0.0131968022817481,-1.35871007286239,1.20807829814604,0.0934029604815349,0.00149027048127881,-0.10825250796974
10.7,1.00340074830198,0.370526380064256,-4.95826806826019,-0.0452802990012836,0.0218382762801255,0.00666175206639315,-2.17242135343099,-2.36655342938805,-1.37452359841464,0.0548834288553067,-0.044339594879695,-0.0838952866851021,5.64618767390353,0.00389783813675285,0.00131950017929818,0.00367133152149494,-2.17242135343099,-2.36655342938805,-1.37452359841464,0.0548834288553067,-0.044339594879695,-0.0838952866851021,-0.242923087928624,-0.512777081956476,1.46811105785591,0.313930980459691,0.100302155378966,0.155157456801256
10.8,0.918509496893954,0.104661234693061,-5.02918249249276,-0.0834059727785237,0.00459308568504355,-0.0429322536134102,-2.21858045940986,-2.18853049128761,-1.13585542023956,0.199659079143524,0.0273870679957747,0.0743653110472663,5.57003311184428,0.00158443904742143,0.000324129471489252,-0.00147054726161049,-2.21858045940986,-2.18853049128761,-1.13585542023956,0.199659079143524,0.0273870679957747,0.0743653110472663,-0.090774192032297,-0.925027577319477,1.29122333328295,0.127787638182554,0.0249644720090382,-0.0618258750192154
10.9,0.7378977248447,0.0434068553582945,-5.01736790452971,-0.0204487702184052,0.031191807001686,0.0180351724144755,-2.20275837037391,-2.37424830969407,-1.17998071212231,0.107149304070785,-0.0131772746104421,-0.04309001751629,5.64211549922764,0.00184316480829711,0.000342291443508292,0.00119655935531385,-2.20275837037391,-2.37424830969407,-1.17998071212231,0.107149304070785,-0.0131772746104421,-0.04309001751629,-0.347626612218897,-0.237040281485897,1.4663840334537,0.14829000347274,0.0254316484157819,0.0506929820711876
11,0.613079331203529,-0.183320956637691,-5.0940366308578,-0.0422007670194827,0.0221178086442875,-0.0211397853509986,-2.27735684116657,-2.23367420593891,-0.986629039849718,0.133736673667905,-0.00619016670465684,0.0237907804174163,5.60546886489193,0.00187081225069576,0.000234748081907253,-0.000116570150603721,-2.27735684116657,-2.23367420593891,-0.986629039849718,0.133736673667905,-0.00619016670465684,0.0237907804174163,-0.257662796431956,-0.467627711135058,1.38821677715718,0.15073335642938,0.0177227371138932,-0.00473309884373113
11.1,0.452333018509221,-0.231123322855373,-5.0579117826142,0.000921320040255164,0.0491960578902517,0.0310007151189674,-2.24159918530583,-2.28544800128754,-0.947480669075802,0.161867290830387,0.011966038904382,0.0154230216651861,5.60231310357558,-0.000591331897643506,-0.00119868319036693,-0.00219022363426599,-2.24159918530583,-2.28544800128754,-0.947480669075802,0.161867290830387,0.011966038904382,0.0154230216651861,-0.551056106220526,-0.0067606003706183,1.38106518183404,-0.0479373019456624,-0.0927538719726544,-0.0922496078038055
11.2,0.318551209658159,-0.410414227677406,-5.09838579515423,0.0213824709399303,0.056340389021594,0.0297398299233725,-2.35344667190271,-2.19164454737573,-0.866542168492612,0.06013095099096,-0.0476218896660036,-0.0329377195461459,5.63109189238836,0.000847156946309517,-0.000586604621609299,0.000153257041936193,-2.35344667190271,-2.19164454737573,-0.866542168492612,0.06013095099096,-0.0476218896660036,-0.0329377195461459,-0.640914991363651,0.221835168963727,1.43174366963345,0.0679900774632709,-0.0457346099134375,0.00661215680420034
