time,x,y,z,roll,pitch,yaw,xdot,ydot,zdot,p,q,r,thrust,roll angle,pitch angle,yaw angle,_xdot,_ydot,_zdot,_p,_q,_r,_xddot,_yddot,_zddot,_phiddot,_thetaddtot,_yawddot
0,5.01841953230695,2.01841953230695,0.0184195323069548,0.0184195323069548,0.0184195323069548,0.0184195323069548,0.0184195323069548,0.0184195323069548,0.0184195323069548,0.0184195323069548,0.0184195323069548,0.0184195323069548,9.14162381373256,-0.00528729949705269,0.0084866182742855,-0.00171622280859396,0.0184195323069548,0.0184195323069548,0.0184195323069548,0.0184195323069548,0.0184195323069548,0.0184195323069548,-0.342838011869864,0.330491331634827,8.46704520387638,-0.426395221316064,0.652816891653245,-0.0724144674486979
0.1,3.02036642022637,1.22036642022637,0.0203664202263731,0.0194531223491682,0.0197206115897184,0.0188152414098901,-0.0869007026600223,0.122471629297185,4.66975854567043,-0.224727946876795,0.369078868034253,-0.029920631024303,5.43355949234641,-0.000661417048304283,-0.00131370201640637,0.000557400202273388,-0.0869007026600223,0.122471629297185,4.66975854567043,-0.224727946876795,0.369078868034253,-0.029920631024303,-0.218190919014596,0.207317685275805,1.05295020368328,-0.0533430121915739,-0.101051052143086,0.0235189099830534
0.2,3.29276825093006,1.38896846455446,2.1544601906203,-0.101201726625064,0.172272505707986,-0.0142376180969757,-0.0569885034346217,0.0591715437458666,1.00663308377481,-0.045587916207017,-0.0193785593876488,0.0111757118617787,6.7200696252342,0.000468519435027536,0.000466554891659105,0.000150837887360585,-0.0569885034346217,0.0591715437458666,1.00663308377481,-0.045587916207017,-0.0193785593876488,0.0111757118617787,-2.31124232850542,-1.32507355898876,3.36344609561883,0.0378222820455271,0.0359094626967748,0.00638470685419079
0.3,3.30500425523745,1.37139251359887,0.755151626595788,-0.026709423685603,0.0210299011391754,0.0107745615171197,-0.505533267856267,-0.199805506857927,2.51967655485474,0.00237710254644321,0.0527101202834828,0.00661464200489461,6.45932248595219,-0.00325427762189773,0.00282873295423341,-0.000838465888796912,-0.505533267856267,-0.199805506857927,2.51967655485474,0.00237710254644321,0.0527101202834828,0.00661464200489461,-0.267827901613129,-0.347914404521892,3.10118165360374,-0.262440710104232,0.217595555087518,-0.0353548320917122
0.4,3.07057508838748,1.23150382032583,1.55688118672624,-0.0273333099123564,0.033031250624049,-0.010996944685572,-0.350888711015989,-0.157827940142486,2.3400544574647,-0.177420145533867,0.138017756750331,-0.0325894434547495,6.06455160001632,0.000335808575680826,0.000252564901774178,0.00204360618285822,-0.350888711015989,-0.157827940142486,2.3400544574647,-0.177420145533867,0.138017756750331,-0.0325894434547495,-0.404038035493782,-0.327063938701119,2.30795885794789,0.027058498228367,0.019414428614915,0.0862546925679783
0.5,3.17897612643002,1.30110364329908,1.61246819657235,-0.0647063542721713,0.120790789245796,0.0163091592513006,-0.30899770145714,-0.100898679346988,2.09981421336901,0.0075074420389341,0.0786611483765028,0.0705849883901161,6.16353596415088,-0.0034344000589722,-0.00279234765521342,-0.00411178055049228,-0.30899770145714,-0.100898679346988,2.09981421336901,0.0075074420389341,0.0786611483765028,0.0705849883901161,-1.46907373832777,-0.821150893215574,2.40164345563087,-0.27684091889911,-0.214698371154146,-0.173432446663451
0.6,3.13680543222959,1.27927368423778,1.61515239472327,-0.0195188614020821,0.0695992604868595,0.0308920071797755,-0.538029183978651,-0.248563641602503,2.30865785107767,-0.186992213730138,-0.0759872199265561,-0.0940638604518095,5.98170803712357,-0.000731888003575785,0.00195336171963127,0.0029707291754011,-0.538029183978651,-0.248563641602503,2.30865785107767,-0.186992213730138,-0.0759872199265561,-0.0940638604518095,-0.824205432086886,-0.259078355163465,2.12217867688709,-0.0592668405253704,0.150097138902809,0.125414916660463
0.7,3.05140805498908,1.24511986911272,1.90598759276526,-0.0767680295167407,0.0375067669362268,-0.0060109035428037,-0.523691849291067,-0.196041444703561,2.24151316781007,-0.0523128744036493,0.145219265097051,0.089054329049449,5.80410260685501,-0.00249755319667038,-0.00293892360366087,-0.00394389772547125,-0.523691849291067,-0.196041444703561,2.24151316781007,-0.0523128744036493,0.145219265097051,0.089054329049449,-0.439345585656352,-0.887639189786146,1.755876551681,-0.201174381494943,-0.225808649794809,-0.166322979061758
0.8,2.99662449427587,1.22266989481762,1.96052971977146,-0.053168089946249,0.104487452937313,0.040478732814846,-0.604799128960498,-0.316148306791708,2.13050131360686,-0.160983173526492,-0.0835799942506378,-0.0892445220756074,5.83067580988168,-0.000768658591604749,-0.00153363969658802,0.00232959234019035,-0.604799128960498,-0.316148306791708,2.13050131360686,-0.160983173526492,-0.0835799942506378,-0.0892445220756074,-1.18845684080749,-0.668361300164515,1.77136369818935,-0.062228115935323,-0.118197172375955,0.0984128978312914
0.9,2.94440843245678,1.17264694301305,2.05306128886041,-0.0981333609339634,0.0203322816728927,-0.0249219234924936,-0.683698182208904,-0.362777367441965,2.25373466663821,-0.0823323872100335,-0.0200692969796827,0.0574759468837783,5.60871966257831,-0.0012706240666119,-0.000309051435911758,-0.00154201253209321,-0.683698182208904,-0.362777367441965,2.25373466663821,-0.0823323872100335,-0.0200692969796827,0.0574759468837783,-0.254280025902913,-1.09304198830792,1.35116238990334,-0.102200984341402,-0.0234171434482736,-0.0649344990112851
1,2.81983001668415,1.08388042653955,2.21223199558921,-0.114187979824891,0.000893769521379786,-0.00426416779754573,-0.795793535037053,-0.508602974760251,2.06291001581381,-0.142915927420217,-0.0166804124926156,-0.0640341747479155,5.60171203191671,0.00142649083976797,-0.00123871075359975,0.00323593097549392,-0.795793535037053,-0.508602974760251,2.06291001581381,-0.142915927420217,-0.0166804124926156,-0.0640341747479155,-0.0153912478081102,-1.27646404548824,1.32045881373039,0.115000518290835,-0.095344301957099,0.13667489863327
1.1,2.74969462165752,1.01921980202661,2.25350958094323,-0.133931459688042,0.0139511804688797,-0.0438631902873052,-0.784510503532533,-0.59475722556432,2.1427274659667,-0.0169655148594801,-0.0401809724235867,0.0553808525215212,5.46880269546707,-0.000889013412691466,-0.00222407641480896,-0.000539245843215439,-0.784510503532533,-0.59475722556432,2.1427274659667,-0.0169655148594801,-0.0401809724235867,0.0553808525215212,-0.215117881647852,-1.45247825336952,1.02859967469393,-0.0714085918867488,-0.170569351411003,-0.022597854672826
1.2,2.74238499435001,0.99366487159606,2.44688476079437,-0.0456110297459973,0.040239504247844,0.0453280225586769,-0.730000826764246,-0.638395271753006,2.09354107295767,-0.082662100239201,-0.0600646619508884,0.00540120532313346,5.38665949060638,-0.00348529081391155,-0.00349717655073011,-0.00232787055986493,-0.730000826764246,-0.638395271753006,2.09354107295767,-0.082662100239201,-0.0600646619508884,0.00540120532313346,-0.410242567997449,-0.510325106449038,0.94340277270827,-0.281066435267752,-0.269002996688509,-0.0980755357399679
1.3,2.6723603745724,0.897574392835373,2.52562370879112,-0.113851129090665,-0.00708497614135283,-0.0108782089731304,-0.809881277089507,-0.808561109736182,1.99844448902932,-0.231554507525521,-0.151680250879803,-0.0670869658103172,5.31043884946314,0.00382231201188215,-0.000276749612274464,0.00369731759520858,-0.809881277089507,-0.808561109736182,1.99844448902932,-0.231554507525521,-0.151680250879803,-0.0670869658103172,0.0616311921742817,-1.20733017972769,0.741852848140917,0.308233120162488,-0.0213307612688818,0.156145838590374
1.4,2.61849152895488,0.812186154639401,2.62399974500428,-0.164420639404794,-0.0320628233335193,-0.0253010081450621,-0.805860266835263,-0.816819288658607,1.99873352787553,0.0947905071614532,-0.00402632519771893,0.086820595155151,5.19209516466042,-0.00222384372239798,-0.003897991175288,-0.00291048309282071,-0.805860266835263,-0.816819288658607,1.99873352787553,0.0947905071614532,-0.00402632519771893,0.086820595155151,0.285295397647589,-1.70745666864645,0.428877236119991,-0.179160883517461,-0.299093878712762,-0.122688661590517
1.5,2.54422571828589,0.740051238695518,2.72199911119173,-0.0437784388081057,0.0111787377391834,0.03138209093231,-0.830962292224136,-0.945961675423089,1.91262061737814,-0.169786439212809,-0.177420903624509,-0.0732463108936962,5.20677514104796,-0.000578017136116911,-0.00259399007836625,0.00200270692130856,-0.830962292224136,-0.945961675423089,1.91262061737814,-0.169786439212809,-0.177420903624509,-0.0732463108936962,-0.101939295933099,-0.459167992420886,0.592922791812923,-0.0466826885318026,-0.199804878408805,0.084609600978841
1.6,2.48316348921596,0.644249532449411,2.80920256787713,-0.158668496119489,-0.0653134725232896,-0.0381741938416804,-0.792174689735457,-1.11585989788245,1.91562570813773,-0.106159591265776,-0.130131881240841,0.0378884319759341,5.01672281864005,0.00365135997857161,-0.00112786800701684,-1.87627458329414e-05,-0.792174689735457,-1.11585989788245,1.91562570813773,-0.106159591265776,-0.130131881240841,0.0378884319759341,0.585652724480475,-1.60884372600585,0.0762866693139763,0.294529563208503,-0.0861377449662132,-0.00073545407640657
1.7,2.42105231859716,0.479110190538308,2.89358599935539,-0.161248632137714,-0.0747984961068265,-0.0159812014681463,-0.858220193875397,-1.15490847405824,1.75836779066442,0.0642446840534887,-0.10298906713404,-0.0238638473955063,5.04847705175619,3.14744863637667e-05,-0.00268333524861977,0.00184241593705351,-0.858220193875397,-1.15490847405824,1.75836779066442,0.0642446840534887,-0.10298906713404,-0.0238638473955063,0.718744124436096,-1.63276811848811,0.128106324812242,0.00254051234123583,-0.206256497203588,0.0777480999564387
1.8,2.33506519167045,0.405461647014393,2.93703699351396,-0.0887321685431962,-0.0701279370717812,-0.0367838155008487,-0.800420421067887,-1.31467006424236,1.79456429600571,-0.081882522486063,-0.171322980754741,0.020718373489988,4.93466037726224,0.00120248788843565,-0.00203086879085131,0.000702099831035955,-0.800420421067887,-1.31467006424236,1.79456429600571,-0.081882522486063,-0.171322980754741,0.020718373489988,0.65619831839227,-0.899317905159252,-0.00366922707137718,0.096950482027443,-0.155763410317368,0.0295941949066657
1.9,2.34608893245238,0.31481313379764,3.10027656361079,-0.10831404587872,-0.0646048275561669,0.0228390618690095,-0.669503986411117,-1.40776756236142,1.69234331453384,0.00791210850051736,-0.11872004140414,0.0336289494355879,4.81953087916583,0.000504814818816336,-0.00353196726841156,-0.00272143360156915,-0.669503986411117,-1.40776756236142,1.69234331453384,0.00791210850051736,-0.11872004140414,0.0336289494355879,0.64228503422991,-1.02760561613143,-0.247416237573061,0.0406793834842677,-0.27149107900061,-0.114928662541342
2,2.32235201242608,0.160932888333605,3.12996748524328,-0.0916933897619571,-0.0700200156762673,0.0122725324887918,-0.643962361945524,-1.5082267178335,1.54146902708697,-0.0343365932714813,-0.206075154759906,-0.0605034991856445,4.85295759164514,0.00170774657833448,-0.00168006268742035,0.00223339108916414,-0.643962361945524,-1.5082267178335,1.54146902708697,-0.0343365932714813,-0.206075154759906,-0.0605034991856445,0.687056177743664,-0.880356282679871,-0.168541802746066,0.137782544453027,-0.129495942801185,0.094089075732665
2.1,2.2708015403042,0.01507447653297,3.15084449910342,-0.125186511329849,-0.133592559342221,-0.0461356088998016,-0.60282406262231,-1.64707755564861,1.55168804501943,0.00312430615366721,-0.151078956991634,0.0366878340349896,4.74899941101366,0.00347795145339148,-0.00121018810741433,0.000426020970305608,-0.60282406262231,-1.64707755564861,1.55168804501943,0.00312430615366721,-0.151078956991634,0.0366878340349896,1.19916176909136,-1.242544687391,-0.470295755506044,0.280274163975816,-0.0925152653726945,0.0177419708563263
2.2,2.24370817223508,-0.141805278839065,3.24516854241662,-0.109211569239196,-0.117225543422615,-0.00502725994505408,-0.570634260034461,-1.7025031343974,1.46623003792616,0.0948144129345446,-0.139433679129842,7.09176878042131e-05,4.6978949818452,0.00128230812921491,-0.00283386800507929,0.000226608289074992,-0.570634260034461,-1.7025031343974,1.46623003792616,0.0948144129345446,-0.139433679129842,7.09176878042131e-05,1.08719665914736,-1.02956898787683,-0.534286541439174,0.103382438319563,-0.217924526246954,0.00926726004475307
2.3,2.23677066535144,-0.228532294601502,3.32444465651802,-0.0365692014094761,-0.0915558665046192,0.0149865827349123,-0.404682519578123,-1.77736586590347,1.3909416416431,0.036626271050644,-0.186347175656097,0.0221856070197723,4.60405627738429,0.000289530506006248,-0.00252394658312295,-0.00176936238349689,-0.404682519578123,-1.77736586590347,1.3909416416431,0.036626271050644,-0.186347175656097,0.0221856070197723,0.846267228627354,-0.324012481472956,-0.646584451696643,0.0233145999804799,-0.194089218705995,-0.0749865249879831
2.4,2.24689476537693,-0.394419590397822,3.35981655170992,-0.0745975360510936,-0.138768203266963,0.00744170811659091,-0.314741785859345,-1.9521026724676,1.25318053558663,-0.015893904568881,-0.198905852946952,-0.0382669518869213,4.59483561400647,0.00498725048285806,-0.000177224896205314,0.00148807656887789,-0.314741785859345,-1.9521026724676,1.25318053558663,-0.015893904568881,-0.198905852946952,-0.0382669518869213,1.27267174570623,-0.675439143443726,-0.733979623747315,0.402357136973926,-0.0138565046367901,0.0623969944715435
2.5,2.27109209614692,-0.587087310211962,3.38442030231456,-0.0856124926634005,-0.146460296913928,-0.0133875353689639,-0.244047853232343,-1.94120604805772,1.22897115719796,0.198333833692432,-0.0995268359388459,0.0424945069358564,4.52553414479119,0.00100313298114227,-0.00268108407398779,-0.00133922418263626,-0.244047853232343,-1.94120604805772,1.22897115719796,0.198333833692432,-0.0995268359388459,0.0424945069358564,1.30557147591881,-0.791487067237676,-0.88862855126262,0.0806740607872277,-0.205970295186875,-0.0569772957453959
2.6,2.26256681258285,-0.704242968670135,3.44329766844975,0.00967375088865174,-0.112836884337778,0.0249758744767557,-0.133406441258394,-1.99651066183026,1.10215065463703,0.0447270583843803,-0.206786560690053,-0.021573115574669,4.48354601698641,0.00153812042566811,-0.00132297709209031,-0.000104769621758531,-0.133406441258394,-1.99651066183026,1.10215065463703,0.0447270583843803,-0.206786560690053,-0.021573115574669,1.00714457684938,0.111930672047769,-0.900349565122285,0.124295995798943,-0.102010647107618,-0.00486010447289704
2.7,2.29456975581549,-0.843112751884968,3.46748558504384,-0.0423978262490327,-0.162921212040162,0.00358185925506848,0.0339017206170313,-2.13363066813747,1.05896197122818,0.0752384561081583,-0.155882457704528,0.0097641392185741,4.40865074087653,0.00480249125904266,8.92962998537245e-05,-0.000609336741220988,0.0339017206170313,-2.13363066813747,1.05896197122818,0.0752384561081583,-0.155882457704528,0.0097641392185741,1.43022306442359,-0.36860194475996,-1.11727890632428,0.387300493854571,0.00686669300999376,-0.0261994492193598
2.8,2.35267328429007,-1.06636878481389,3.50096457384745,-0.032638886980645,-0.157226956548896,0.00609910424995256,0.079221289345929,-2.09380375116852,0.908681889932673,0.22188761170749,-0.107002168414827,-0.0077726297806096,4.42891774709073,0.00167258401911003,-0.00148436228752756,8.85207060745287e-05,0.079221289345929,-2.09380375116852,0.908681889932673,0.22188761170749,-0.107002168414827,-0.0077726297806096,1.3879581541886,-0.280598533000778,-1.06608289909607,0.135033327821689,-0.114282656647781,0.00322974265630478
2.9,2.31945454002536,-1.21242623918133,3.46142544523913,0.00631962178565673,-0.177900677731432,-0.0328406488877576,0.184382348636642,-2.19473475415252,0.840352535248764,0.0738229389499458,-0.202596428837343,-0.0202334318249949,4.43049542320701,0.00537593291216547,0.001660302857621,0.00249641218035265,0.184382348636642,-2.19473475415252,0.840352535248764,0.0738229389499458,-0.202596428837343,-0.0202334318249949,1.56903625588957,0.00448124735921777,-1.08903308535349,0.433577559145585,0.127697575727115,0.104899298729092
3,2.4027402202713,-1.35870066544247,3.51724537410545,-0.0151096506611786,-0.196339875440769,-0.0099023832952288,0.371105923722065,-2.18967638271929,0.848363001002309,0.270520056018152,-0.046803254665139,0.062793722482532,4.29436851064102,0.00257799709802175,-0.00043219453611292,-0.00262306349053582,0.371105923722065,-2.18967638271929,0.848363001002309,0.270520056018152,-0.046803254665139,0.062793722482532,1.67393966925035,-0.146350774814356,-1.38723851369625,0.207588082818731,-0.0331095695389584,-0.111122851751924
3.1,2.49737481159424,-1.49698363540723,3.58203245032117,0.0922412865091483,-0.121410498056306,0.0447341234089571,0.514262791277546,-2.15151185277013,0.639184659595342,0.184236674618341,-0.112263851553204,-0.0388112886269622,4.26031377291631,0.000697302710224589,-0.00120781666149988,-0.000320744083947367,0.514262791277546,-2.15151185277013,0.639184659595342,0.184236674618341,-0.112263851553204,-0.0388112886269622,0.991441573410823,0.830006399631166,-1.38805089317885,0.0570338310882671,-0.0931417062739501,-0.0138470611457746
3.2,2.5618033036397,-1.62954465424344,3.53051801818189,0.0627221851968632,-0.163730038812813,-0.0024675552439566,0.736330845376011,-2.24267358509306,0.614675862483408,0.10158675116234,-0.15874471035798,0.0028442251391267,4.24565915005676,0.00593233166506495,0.00330549025220608,-0.000179875240361019,0.736330845376011,-2.24267358509306,0.614675862483408,0.10158675116234,-0.15874471035798,0.0028442251391267,1.38266800989765,0.528834700829671,-1.44871723313661,0.478525909056007,0.254247074150593,-0.00781841683281268
3.3,2.64835808745574,-1.91280211652378,3.50709261483236,-0.0234925546263182,-0.248869022271022,-0.0534786852421771,0.721166456549117,-2.2342646045306,0.444052755812095,0.287010732487865,-0.0214436261948778,-0.043778736758716,4.4853608519532,0.00713724916571551,0.00324336633760619,0.00431960860128453,0.721166456549117,-2.2342646045306,0.444052755812095,0.287010732487865,-0.0214436261948778,-0.043778736758716,2.19452868731704,-0.328499998914269,-1.11805088140794,0.57576229411178,0.24946584309248,0.182076807744078
3.4,2.71584489516369,-2.00408495675103,3.49998055631767,0.109153540819526,-0.157138245678264,-0.0364855437726976,0.930625478345962,-2.08131925926426,0.59152620343746,0.398357265040554,0.0169061136826182,0.0935957992396711,4.10245963221943,-0.00122586886941187,-0.000585024955371346,-0.00294279974398398,0.930625478345962,-2.08131925926426,0.59152620343746,0.398357265040554,0.0169061136826182,0.0935957992396711,1.30812036269305,0.846665201272275,-1.75440074919176,-0.0995737538917524,-0.0449942158065601,-0.124183920748008
3.5,2.81752936957588,-2.05635909744685,3.59133805185763,0.174171615704684,-0.142978831996754,0.0281620911325333,1.13060406493834,-2.17136683137539,0.214703742757322,0.0587945618883464,-0.119504694874512,-0.0666123799166274,4.22252012734897,0.00544158919339934,0.00404384495167775,0.00168011200643096,1.13060406493834,-2.17136683137539,0.214703742757322,0.0587945618883464,-0.119504694874512,-0.0666123799166274,1.14346736927172,1.49625231532124,-1.57759960353147,0.440024396108657,0.311255038568748,0.0711123603092565
3.6,3.00121245747804,-2.26915354510345,3.47520214165798,0.0580322249805534,-0.19439396339999,-0.0250649056567475,1.33375839809791,-2.05711941598028,0.371916788287412,0.353840332092973,0.0752176416328315,0.0445036787497569,4.22434832531924,0.00447229092922117,0.00360720296842504,-0.000758000514765695,1.33375839809791,-2.05711941598028,0.371916788287412,0.353840332092973,0.0752176416328315,0.0445036787497569,1.64107308425335,0.44903352260383,-1.53438986405069,0.360498384869071,0.277447117867413,-0.0317136001931738
3.7,3.15262994396713,-2.4087854616896,3.55861879102333,0.177090034547213,-0.121933846966501,-0.00259656199995528,1.384281582447,-1.914562082255,0.084800220656672,0.32468674101528,0.0607514757250306,-0.0217350636616254,4.17018139351629,0.000291952108257603,0.00138929900119954,0.00114478174458329,1.384281582447,-1.914562082255,0.084800220656672,0.32468674101528,0.0607514757250306,-0.0217350636616254,1.00240051999999,1.46668940451076,-1.66103277663252,0.0242974490631292,0.107118434347891,0.0487784796147387
3.8,3.24479858566816,-2.43563319837435,3.44206774317092,0.197291334685921,-0.117512798513228,-0.0156653976018299,1.60590985384456,-1.86418725513239,0.114660125745071,0.164658951931765,-0.015306692402633,0.0289330171969561,4.12806337944166,0.00411219909963265,0.00504360766242975,-0.000423605385708416,1.60590985384456,-1.86418725513239,0.114660125745071,0.164658951931765,-0.015306692402633,0.0289330171969561,0.974425676066234,1.60324845345888,-1.76986828111295,0.331925817339061,0.388112344693202,-0.017218781094092
3.9,3.49060081032057,-2.55252123199196,3.51482621076989,0.171932962731559,-0.117332033027602,0.0386677970192787,1.7555950231393,-1.66952960343974,0.0162356069845635,0.361067323284525,0.175920830354718,0.0204863555580992,4.07245331689633,0.00025807677705035,0.00226343169272514,-0.00236191914207425,1.7555950231393,-1.66952960343974,0.0162356069845635,0.361067323284525,0.175920830354718,0.0204863555580992,0.884837296071807,1.42876289599942,-1.84035737189582,0.021696901612652,0.174594447296756,-0.0989021176882992
4,3.64267592487096,-2.62002312125917,3.47070132518017,0.258280412894731,-0.0457135524805519,0.0160258755122246,1.82649435181136,-1.53384787567205,-0.192862803927422,0.194933705103957,0.0636399661118812,-0.0378260701177107,4.08929361553622,0.000981275231188985,0.00280799500531492,0.00129242655177342,1.82649435181136,-1.53384787567205,-0.192862803927422,0.194933705103957,0.0636399661118812,-0.0378260701177107,0.32782287755888,2.09448388817024,-1.91095205107569,0.0803364554728656,0.216912427558302,0.0554311689765661
4.1,3.77778693700783,-2.68316564765634,3.36449443959057,0.194754497467556,-0.0970583473339929,-0.0140179702458202,1.91608704086328,-1.35340913987249,-0.121570087371508,0.218324323901288,0.0833837784422651,0.0332310960677499,4.06247654521303,0.00323315871532192,0.00603039517286924,-0.0003175757147198,1.91608704086328,-1.35340913987249,-0.121570087371508,0.218324323901288,0.0833837784422651,0.0332310960677499,0.794437206135139,1.56140444302939,-1.87616433164763,0.26121750920998,0.464296095642858,-0.0124238737547459
4.2,3.93719228127697,-2.757287227709,3.3982166279068,0.191329480796885,-0.105717666416181,-0.0106212149598632,1.91019530837597,-1.20969797053349,-0.427043702158511,0.304031681087443,0.215103349812239,-0.0202163559614264,4.18345087454599,0.00121494727711545,0.00352205561597469,0.00206697863751125,1.91019530837597,-1.20969797053349,-0.427043702158511,0.304031681087443,0.215103349812239,-0.0202163559614264,0.883622097153041,1.5817901323049,-1.64163438344461,0.0990193706521256,0.271988883290486,0.088263342137273
4.3,4.05690538306598,-2.75779056363616,3.24253398120604,0.262495641932463,-0.0246763744144929,-0.0185040123493576,2.03438282097395,-1.00149574797881,-0.409723333272806,0.24312387140582,0.140674728948641,0.0475538408333769,4.06548780832236,-0.000687835485877583,0.00319635466197031,-0.00101846611265273,2.03438282097395,-1.00149574797881,-0.409723333272806,0.24312387140582,0.140674728948641,0.0475538408333769,0.232756959321218,2.10597299693625,-1.95993844530287,-0.0548566722155174,0.246678899827656,-0.0418967219425399
4.4,4.2361670976686,-2.74837260421798,3.23005070553257,0.255816313068484,-0.0438164444191487,0.0177604077890085,2.11068048304565,-0.799506852212303,-0.488829641988912,0.164260534774809,0.151399025959957,-0.0159363563283217,4.02773766587117,0.000976166026520255,0.00516542290876797,0.000242667302050117,2.11068048304565,-0.799506852212303,-0.488829641988912,0.164260534774809,0.151399025959957,-0.0159363563283217,0.305113288795376,2.04406016365099,-2.02415343403911,0.0799729280297526,0.399302163969062,0.0113344031853641
4.5,4.41610095337658,-2.76399632782864,3.19528707020727,0.222440132704563,-0.0426386534923957,-0.0208890210331395,2.11463706690178,-0.611444671308035,-0.682762121766678,0.225761243993584,0.231132206547881,0.00010829188295851,4.10346006688965,0.000541350319191426,0.00397002320959661,0.00129632315684354,2.11463706690178,-0.611444671308035,-0.682762121766678,0.225761243993584,0.231132206547881,0.00010829188295851,0.378950030263367,1.80300907201527,-1.81255708097732,0.0445852662573566,0.307090029692592,0.0557559299502007
4.6,4.55892449803453,-2.73700636533815,3.08109039244541,0.263563493663803,0.00864181175953913,-0.0123999979884192,2.15968695004276,-0.396801459301421,-0.776203840182381,0.214485256344487,0.204297539254066,0.0283386574585031,4.06979155682275,-0.00165548561340885,0.00328442501439297,-0.000614508424155693,2.15968695004276,-0.396801459301421,-0.776203840182381,0.214485256344487,0.204297539254066,0.0283386574585031,-0.0416115658949991,2.12122470377605,-1.95178853061227,-0.132719313420647,0.254493833225098,-0.0249580492985467
4.7,4.73026552514735,-2.66676904397369,3.00000841490369,0.286617583978524,0.0223888282444718,0.0143283774614099,2.19647073021995,-0.15009017958588,-0.826338323594861,0.129335502801553,0.205485073096575,-0.00129455703916653,4.00604964160052,-0.00159262799931597,0.00368036745940306,-0.000633052204594434,2.19647073021995,-0.15009017958588,-0.826338323594861,0.129335502801553,0.205485073096575,-0.00129455703916653,-0.204485757238611,2.26239829513329,-2.12667555981558,-0.127511542553784,0.285871998139077,-0.0258363405612243
4.8,4.9300453494152,-2.57647789148175,2.98304723152884,0.282657883197366,0.0576858321161208,0.0248450616940586,2.21438881435112,0.11166515874615,-0.965313835717231,0.144059711592691,0.251682448788156,0.0151389186375825,3.96693166215554,-0.00304966330186784,0.00195292007283442,-0.00199747295044352,2.21438881435112,0.11166515874615,-0.965313835717231,0.144059711592691,0.251682448788156,0.0151389186375825,-0.494102833797319,2.2012308205451,-2.2036452545806,-0.245200471943379,0.153065747196457,-0.0835447419345725
4.9,5.004586927925,-2.5646976432366,2.81410187792818,0.220652313224265,0.0156744065995287,-0.0447714761701806,2.04041145086363,0.245107779739979,-1.16757027055311,0.0120510513554378,0.128890911696433,-0.0811141630109212,4.1063716432454,0.00308186426859414,0.00613658869473716,0.00591038589931177,2.04041145086363,0.245107779739979,-1.16757027055311,0.0120510513554378,0.128890911696433,-0.0811141630109212,-0.0450283280403038,1.80131200835605,-1.7973599988502,0.249145693885152,0.47546651088355,0.24993068304531
5,5.12017003911502,-2.47241607123643,2.70035967691871,0.196443980120729,0.000906928311170896,-0.0523670103382367,2.07694712261933,0.476775344852042,-1.24400578654386,0.292497216874973,0.333352316505088,0.119771450694326,4.12283254592678,-0.00435844034530547,0.00238239278247499,-0.00337950306684556,2.07694712261933,0.476775344852042,-1.24400578654386,0.292497216874973,0.333352316505088,0.119771450694326,0.076917300816656,1.60759086184143,-1.72292833240787,-0.351350175429553,0.184235895779596,-0.1421596205988
5.1,5.30155042907331,-2.30857045967047,2.59700682977285,0.365007556163387,0.13775203451257,0.059546046923381,2.15295770120541,0.705354371340021,-1.33248337909592,0.00163010984260592,0.246077711565081,-0.0491453412281933,4.06161251273072,-0.00550181598997587,-0.000515535027047575,-0.000620733612927595,2.15295770120541,0.705354371340021,-1.33248337909592,0.00163010984260592,0.246077711565081,-0.0491453412281933,-1.21268336622333,2.83248908309115,-2.29380485473284,-0.443485073295451,-0.0346656234455173,-0.0260382298798649
5.2,5.45389527484335,-2.18958248386535,2.45883393911516,0.242240598685505,0.11368478221499,-0.0177280788533275,1.9666958883609,1.08242490063604,-1.26202516654588,-0.0635301761359799,0.112450242795192,-2.85326411299733e-05,3.8933140895068,-0.000718128180111045,0.00450187624114617,0.000688114963936925,1.9666958883609,1.08242490063604,-1.26202516654588,-0.0635301761359799,0.112450242795192,-2.85326411299733e-05,-0.824279043141304,1.88275193065529,-2.29951482094129,-0.0579899247290865,0.349676235882389,0.028951992202128
5.3,5.53601541684798,-2.01255890766127,2.52674123299027,0.192768162631989,0.0519709051782692,-0.00176820080281808,1.89424937075991,1.15284263372994,-1.71726413963187,0.107385177573385,0.311456805148773,0.0157672775953451,4.09422143548443,-0.00366361514964917,0.00160260296342292,-0.00084360317871623,1.89424937075991,1.15284263372994,-1.71726413963187,0.107385177573385,0.311456805148773,0.0157672775953451,-0.414715966257968,1.56944910552458,-1.78407719800273,-0.29562889424603,0.126597526282457,-0.0357818988283671
5.4,5.65046392147972,-1.89412873783283,2.18970137788393,0.280836727363539,0.162465923467035,0.00804364193226642,1.87765145683246,1.35205359159137,-1.69823838746663,-0.0140528527129381,0.216976464989662,-0.00804307843616688,4.13931560510959,-0.00534902138077408,-0.000316391890058056,-7.10159401118096e-05,1.87765145683246,1.35205359159137,-1.69823838746663,-0.0140528527129381,0.216976464989662,-0.00804307843616688,-1.30504048326787,2.28407961024152,-1.96044049733197,-0.431894334173701,-0.0203973844785534,-0.00349023355858251
5.5,5.72793194531572,-1.75890816054198,2.02675918252603,0.206478708812638,0.111532122953529,-0.0266677843712344,1.63533904319969,1.63451230776831,-1.67223610752046,-0.124148125964391,0.120079228654937,-0.0135257921430614,4.03220845383603,-0.00100160587040479,0.00374029378124968,0.00183343203462568,1.63533904319969,1.63451230776831,-1.67223610752046,-0.124148125964391,0.120079228654937,-0.0135257921430614,-0.834114771848985,1.67616121479736,-1.96592222181986,-0.0814677865733516,0.291374486312357,0.0766587290815697
5.6,5.77178204669394,-1.55596165101974,2.02311764898366,0.15301695478206,0.0797867315865442,-0.0215778947126534,1.5926857334055,1.73304753644455,-1.97211777226328,0.0443673216623496,0.290591689259764,0.0299976062220619,4.14766856649744,-0.00387263266321481,0.000576247063788798,-0.000465911221336752,1.5926857334055,1.73304753644455,-1.97211777226328,0.0443673216623496,0.290591689259764,0.0299976062220619,-0.625998066879273,1.27818387028989,-1.63766920860164,-0.313017830143328,0.0474336519006988,-0.0204491854549413
5.7,5.88556705045482,-1.37723372341992,1.75567867030826,0.248483098421035,0.18952728921721,0.0143823323961816,1.57748954541872,1.89678405034097,-1.95224473104559,-0.0671766241371099,0.192933371724286,0.00120788841673486,4.19814413213904,-0.00633506748416387,-0.00122530110406898,-0.000721968530641442,1.57748954541872,1.89678405034097,-1.95224473104559,-0.0671766241371099,0.192933371724286,0.00120788841673486,-1.56277194476052,2.0426679036974,-1.8173215815518,-0.512138906481617,-0.0901368363138136,-0.0315372556476324
5.8,6.00550128842296,-1.16063422766474,1.63452940700459,0.224110764623207,0.185466963525564,0.0230432594250514,1.36410177624352,2.23503378782647,-1.91692586513258,-0.171611619119836,0.137543373151533,0.0134871778280149,4.11099976160194,-0.0052303497504068,-6.06979481556805e-05,-0.00169947571794182,1.36410177624352,2.23503378782647,-1.91692586513258,-0.171611619119836,0.137543373151533,0.0134871778280149,-1.5199751766523,1.79270652603219,-1.93109430609509,-0.423274007384551,-0.000587651233735172,-0.0729418723140989
5.9,6.02067658870323,-0.914797830526163,1.61432188967099,0.15658462534785,0.157154586435863,0.0167123313473006,1.19382436512219,2.36314456398932,-2.14135279194269,-0.161356346963216,0.170695452486062,-0.0227032987851116,4.13612318126683,-0.00397581605257506,-0.000358860054479658,0.000308440551288062,1.19382436512219,2.36314456398932,-2.14135279194269,-0.161356346963216,0.170695452486062,-0.0227032987851116,-1.30021696015061,1.26846836109941,-1.73965404980197,-0.322424918657785,-0.0233050310833231,0.0117165529561037
6,6.01657654180989,-0.737489896744504,1.36258976322573,0.125799333154567,0.158468368793752,-0.0212893335550749,1.03388633247888,2.41422603023582,-2.24111083053885,-0.144179215601834,0.138923982066043,0.000384965959208535,4.2294377893517,-0.00369769216743025,-0.000284781663543201,0.000999881848619072,1.03388633247888,2.41422603023582,-2.24111083053885,-0.144179215601834,0.138923982066043,0.000384965959208535,-1.30141932133233,1.08926751973809,-1.52312000349399,-0.299883171113592,-0.0184626207906791,0.040807341558439
6.1,6.0610511426714,-0.523664043560315,1.17493965543563,0.15076860464,0.179497846062583,0.015374139842773,0.933140388016741,2.56248130796145,-2.20584583662286,-0.128203134197941,0.161716377849871,0.0390039484542127,4.24541398893186,-0.00648770343352338,-0.00224544815965598,-0.00257275963246401,0.933140388016741,2.56248130796145,-2.20584583662286,-0.128203134197941,0.161716377849871,0.0390039484542127,-1.51814650090479,1.25211460702008,-1.55036320639033,-0.525032586127667,-0.169421539058061,-0.109989269174962
6.2,6.06417943080581,-0.321332583477496,1.02499170040273,0.129644394054806,0.175422034589167,0.00849580005150512,0.708665271696826,2.68278313726969,-2.30611883094375,-0.286122796322714,0.0603616771339911,-0.0598112553841525,4.29528611195351,-0.00295936616688949,-0.000347506833994682,0.00238680661018873,0.708665271696826,2.68278313726969,-2.30611883094375,-0.286122796322714,0.0603616771339911,-0.0598112553841525,-1.49605834764087,1.09793187685403,-1.4222538099675,-0.241308547018102,-0.0225222553886135,0.0992076287637426
6.3,6.02573938535119,-0.112314577635589,0.859541291968489,0.0378105700137008,0.13206572308592,-0.0398609116182816,0.533682921590479,2.769818666222,-2.34412927691696,-0.160349172096498,0.129097994827057,0.0423727310804918,4.27585805967219,-0.00327617280100148,-0.000986284879060737,-0.000154799420298633,0.533682921590479,2.769818666222,-2.34412927691696,-0.160349172096498,0.129097994827057,0.0423727310804918,-1.11152732640605,0.367855184913102,-1.33881129053073,-0.26590781323671,-0.0734939649070285,-0.00793500461651426
6.4,6.00738340042902,0.110635132337712,0.700347263089282,0.0850713760237377,0.1702173231797,0.0101566149771659,0.474169122826651,2.71655209307377,-2.36913342987608,-0.185779001168093,0.0999556839972841,-0.00728046877164152,4.32211074447708,-0.00485843300005926,-0.00221271570864556,-0.000181769389760841,0.474169122826651,2.71655209307377,-2.36913342987608,-0.185779001168093,0.0999556839972841,-0.00728046877164152,-1.46639023399596,0.719632947050762,-1.32151407768988,-0.394397613662224,-0.167010241457652,-0.00907715067871239
6.5,6.0119472969439,0.283324704987299,0.493341581462346,0.060278977422135,0.163457315112985,-0.0154787450980679,0.262780276262252,2.84079021040109,-2.4340052482678,-0.269445058634176,0.0433997910599439,-0.0109227771053266,4.41495022008379,-0.00302730636450654,-0.00128998195600446,0.00117820555599913,0.262780276262252,2.84079021040109,-2.4340052482678,-0.269445058634176,0.0433997910599439,-0.0109227771053266,-1.42587835935615,0.554071397179607,-1.11362043293769,-0.246707619614377,-0.0964117782294347,0.0483445012168571
6.6,5.96823554582311,0.517193499512294,0.364873235704478,0.0176372443628825,0.150387391903711,-0.00958904477588561,0.124390358933636,2.89126218415527,-2.38468891746829,-0.202067382736644,0.0811433938730144,0.0266090154175111,4.3547882036,-0.00398421234922375,-0.00234026837111627,-0.000880173978809156,0.124390358933636,2.89126218415527,-2.38468891746829,-0.202067382736644,0.0811433938730144,0.0266090154175111,-1.3031430331625,0.166108305540108,-1.2000669306431,-0.323713331259914,-0.177720738337357,-0.0383786085807297
6.7,5.94449734486758,0.746018469845245,0.246320534983033,0.0481828397735171,0.184759391140203,0.0213339525400318,0.0335340963839705,2.86527080588154,-2.44909915573205,-0.246050015609148,0.0417201688860398,-0.00654922140299731,4.43198775602902,-0.00468991066815952,-0.00330066540310862,-0.000763240859455805,0.0335340963839705,2.86527080588154,-2.44909915573205,-0.246050015609148,0.0417201688860398,-0.00654922140299731,-1.63524849708707,0.392131842117824,-1.10699725097502,-0.381250768024249,-0.251360934654557,-0.0333686272056343
6.8,5.87990086070317,0.900635817423117,0.025333175791793,-0.0158402957202205,0.141504269542556,-0.0240470881476227,-0.25107985135283,2.89916498371648,-2.49659275994606,-0.317905914365264,-0.0307659141350769,-0.0314686540020854,4.47669223637931,-0.00103509313238809,-0.000940383307334318,0.00257835473455863,-0.25107985135283,2.89916498371648,-2.49659275994606,-0.317905914365264,-0.0307659141350769,-0.0314686540020854,-1.26560481407968,-0.111419362654084,-0.947216932744025,-0.0864258139401242,-0.070217358745628,0.107755521622106
6.9,5.79674172743158,1.13177699441556,-0.0873392161097626,-0.037749615412826,0.136533227507882,-0.00764641417263197,-0.277991480420833,2.83887053479442,-2.41563122060273,-0.152808637451366,0.0799373199327775,0.0667423350958458,4.397881495588,-0.00466769284481622,-0.00368613576884641,-0.00284328392588641,-0.277991480420833,2.83887053479442,-2.41563122060273,-0.152808637451366,0.0799373199327775,0.0667423350958458,-1.1988366568304,-0.32280053960861,-1.10230012696754,-0.378697473434487,-0.282203893509059,-0.120802007845122
7,5.78310915313146,1.32371715935099,-0.222361752960979,0.0373140142514441,0.199736825666257,0.0511146954328067,-0.361662012484586,2.78718754877467,-2.51007871391583,-0.308973727402363,-0.0325928542997073,-0.0412981545672729,4.56360406156434,-0.00413149439966511,-0.00404381376246604,-0.000433381065805507,-0.361662012484586,2.78718754877467,-2.51007871391583,-0.308973727402363,-0.0325928542997073,-0.0412981545672729,-1.82471461057916,0.247587992819637,-0.870478486034242,-0.336940159538372,-0.309147463730829,-0.019051919912385
7.1,5.70803999454097,1.47424562284072,-0.435399311327388,-0.0659451581955196,0.136351655151323,-0.0177503231710527,-0.706671260664453,2.90053030263361,-2.51002390456275,-0.31661270301645,-0.0702980968121698,-0.00697097941384128,4.58346481193958,-0.00121196610286333,-0.00187116969255279,0.0012104643058592,-0.706671260664453,2.90053030263361,-2.51002390456275,-0.31661270301645,-0.0702980968121698,-0.00697097941384128,-1.2538742705735,-0.581912736497539,-0.747893423168703,-0.100584812546854,-0.142832477160634,0.0505075025650208
7.2,5.55404209590836,1.70954450159923,-0.524245706213107,-0.0769568429018139,0.125865481301475,0.00885974876325129,-0.716425284668537,2.68164908601213,-2.39983007776129,-0.195800297153903,0.0112123115966086,0.0389002489290375,4.43774706759622,-0.00347416520496487,-0.00369075125366836,-0.00222474785829293,-0.716425284668537,2.68164908601213,-2.39983007776129,-0.195800297153903,0.0112123115966086,0.0389002489290375,-1.10478443623901,-0.692171166694596,-1.03077756465436,-0.282796435756696,-0.283213684715363,-0.0942339565701126
7.3,5.48636956533247,1.80627879416187,-0.688568179863263,-0.053231812622597,0.145738027326424,0.0180438464956892,-0.814034458950866,2.56267485492318,-2.59847512151159,-0.313675238164091,-0.08798887421547,-0.0501432902633473,4.62664196136271,-0.00110471269305268,-0.00236679301072682,0.0015930269552342,-0.814034458950866,2.56267485492318,-2.59847512151159,-0.313675238164091,-0.08798887421547,-0.0501432902633473,-1.33278157631723,-0.516467757645373,-0.667778296294115,-0.0925138202412969,-0.181450887540143,0.0669684701935796
7.4,5.44138113029396,1.98215808726141,-0.890648854213803,-0.082359653031502,0.139515710557846,0.0148247976655298,-0.940134720360968,2.61607676406494,-2.45024111193226,-0.189190080332376,-0.00782411827530594,0.0663998726708122,4.61309920142989,-0.00413628237149798,-0.00466750140408016,-0.00373044827661426,-0.940134720360968,2.61607676406494,-2.45024111193226,-0.189190080332376,-0.00782411827530594,0.0663998726708122,-1.26728664240756,-0.777879804704084,-0.704417945878395,-0.335887302792166,-0.358932999888472,-0.157461629884451
7.5,5.31140059652291,2.14628027191461,-0.985685159835127,-0.0610312592640827,0.15013635166164,0.0478091972404575,-1.09372931119457,2.44034953876733,-2.49228187951712,-0.346834806868983,-0.138806161854863,-0.0710085060267197,4.64269355028582,-0.00094527448023091,-0.00267502089037212,0.00127999160929351,-1.09372931119457,2.44034953876733,-2.49228187951712,-0.346834806868983,-0.138806161854863,-0.0710085060267197,-1.35760668476162,-0.631950580665483,-0.646160402945206,-0.0798330329982144,-0.205910231694193,0.0540576315381143
7.6,5.12696040381411,2.1923878734568,-1.20817621814999,-0.200257853415842,0.0364920209030704,-0.0653045986681379,-1.33894193766247,2.32522149174085,-2.58481125539771,-0.267363183171961,-0.101872301545311,-0.00627957351891098,4.67349529792631,0.00319414917727909,-0.000236244193418832,0.00343108966459798,-1.33894193766247,2.32522149174085,-2.58481125539771,-0.267363183171961,-0.101872301545311,-0.00627957351891098,-0.454823445672769,-1.83354983238992,-0.655904531611728,0.255510726014724,-0.0186019288365076,0.145004189438335
7.7,4.99304564128083,2.34541372518698,-1.35629331669249,-0.148391135008905,0.080029957107715,-0.00192050919652719,-1.12282676903952,1.87122555847667,-2.3679731636612,-0.0556522636009777,0.0106393174289544,0.0757738710720416,4.46195917602107,-0.00256495104439402,-0.00329869377132456,-0.00346327156605161,-1.12282676903952,1.87122555847667,-2.3679731636612,-0.0556522636009777,0.0106393174289544,0.0757738710720416,-0.70811094258486,-1.31801830905563,-1.01240229472271,-0.208723454678412,-0.254401453179655,-0.145771844040437
7.8,4.95021738417493,2.28669921553928,-1.49932243391639,-0.100829113356663,0.0937378219615436,0.00630158930991521,-1.30430504334334,1.83440985645257,-2.74719296327517,-0.328211536994702,-0.152414124849387,-0.105977714259149,4.81117107106616,0.00268296757531723,-0.000443110058002141,0.00477011787745289,-1.30430504334334,1.83440985645257,-2.74719296327517,-0.328211536994702,-0.152414124849387,-0.105977714259149,-0.889961393874959,-0.974196593374664,-0.278558450311678,0.213160690836643,-0.0352915503289758,0.201658997917138
7.9,4.86159063572467,2.45211848399755,-1.74315177331263,-0.177608473287506,0.0672003185771475,-0.0268513850198684,-1.35779025546982,1.91212293726143,-2.42613624664744,-0.0629129978157259,0.0133288396040929,0.122358357899808,4.6902718305891,-0.00236689173493994,-0.00349390897774903,-0.00447376696940477,-1.35779025546982,1.91212293726143,-2.42613624664744,-0.0629129978157259,0.0133288396040929,0.122358357899808,-0.664264683526848,-1.64007550121541,-0.597861043177724,-0.192130736628534,-0.269492350841348,-0.188251786901877
8,4.73967210979131,2.58605642110825,-1.76834020434168,-0.083604030083057,0.127190725240357,0.0672957438100584,-1.38971541045394,1.54597353506329,-2.51680740752814,-0.285778114019599,-0.141580435551901,-0.0917864108494806,4.71713893138708,0.000534053834361024,-0.00217666490582723,0.00125443844551777,-1.38971541045394,1.54597353506329,-2.51680740752814,-0.285778114019599,-0.141580435551901,-0.0917864108494806,-1.13686341970007,-0.866234194573273,-0.484616432707428,0.0398144951391664,-0.169428888612124,0.0534783704362231
8.1,4.64005129016517,2.56974294532906,-1.95337470802479,-0.189535601494952,0.058936643958819,-0.0262691971618829,-1.60560339157947,1.68277613659041,-2.62873010000153,-0.162757723883449,-0.0834163099819419,0.0353410772945234,4.87326314256072,0.000731936009960519,-0.00154277133100652,-0.000382982348656624,-1.60560339157947,1.68277613659041,-2.62873010000153,-0.162757723883449,-0.0834163099819419,0.0353410772945234,-0.611851419443787,-1.8208303849032,-0.254635581177402,0.0573997849319442,-0.120020461297281,-0.0155259225705367
8.2,4.46237418211425,2.73024843734165,-2.13051685769907,-0.143822668737643,0.0837149687022735,0.035076322694545,-1.54078149497313,1.23285881599061,-2.37853882410887,-0.145516060458947,-0.0724119429158938,0.00391149591035435,4.68910819814988,-0.00026576071291546,-0.00243395465989887,-0.00179686110226061,-1.54078149497313,1.23285881599061,-2.37853882410887,-0.145516060458947,-0.0724119429158938,0.00391149591035435,-0.72846827209184,-1.37054472376967,-0.561114450241684,-0.0234889402673725,-0.189216176711489,-0.0751450157452074
8.3,4.40237779306484,2.67430891009586,-2.1750649012374,-0.129771656759257,0.100752459336366,0.0395978198565008,-1.60469892220553,1.26567322065813,-2.62642572223916,-0.17299730251411,-0.100950220418234,-0.0157606998759752,4.89884987849174,-0.000432925449058781,-0.00236403041837943,-0.00106252804543869,-1.60469892220553,1.26567322065813,-2.62642572223916,-0.17299730251411,-0.100950220418234,-0.0157606998759752,-0.926227836834436,-1.30558847248719,-0.143953172947299,-0.0369340750169033,-0.184077920465069,-0.0441311757744293
8.4,4.22827675205597,2.72648103966134,-2.46889918250198,-0.190458078035153,0.0428279338289148,-0.00877689085472509,-1.82233527352809,1.08065016065997,-2.50137073956668,-0.215098464839151,-0.138076820505972,-0.0353477855316836,4.91473340745668,0.00339152118075429,-0.000174477247213305,0.00211505446355821,-1.82233527352809,1.08065016065997,-2.50137073956668,-0.215098464839151,-0.138076820505972,-0.0353477855316836,-0.429553099518181,-1.85710511715272,-0.167123739048478,0.271819863629952,-0.0156098753319728,0.0899647495715184
8.5,4.03525151331212,2.73663194952874,-2.55551713425418,-0.216340384067765,0.0215121070167736,-0.0167981621846775,-1.72894483732831,0.738701346085795,-2.4333919201021,-0.0453700476239975,-0.0496999314521391,0.0389611358193225,4.81611027131956,0.00156714139620698,-0.000823917336985555,-0.00104929693543085,-1.72894483732831,0.738701346085795,-2.4333919201021,-0.0453700476239975,-0.0496999314521391,0.0389611358193225,-0.237065659776415,-2.06393036299855,-0.404487578463014,0.125261289581485,-0.0651582604021554,-0.043545536301563
8.6,3.97195415101437,2.68150587173776,-2.67632474413447,-0.137118895266871,0.0716453944294007,0.0335807032533013,-1.67381256725794,0.503073059316461,-2.52931197333936,-0.0992199749865221,-0.0708797170466773,-0.0178496732004424,4.91662912576806,0.000650038909004378,-0.00151971338950893,-0.00073350886680487,-1.67381256725794,0.503073059316461,-2.52931197333936,-0.0992199749865221,-0.0708797170466773,-0.0178496732004424,-0.651777590971914,-1.36675795334665,-0.0940272483773459,0.0509050677426457,-0.119455613485512,-0.0302329937013156
8.7,3.88774388837184,2.63954768848451,-2.86257446762843,-0.158018743100121,0.0639549852186105,0.0159287972581623,-1.83805337266341,0.583508354281737,-2.50599436213059,-0.127911060489834,-0.0960637636200575,-0.00700156559849877,5.02031176405745,0.00130762469139817,-0.00112812711474741,-0.000407946148953789,-1.83805337266341,0.583508354281737,-2.50599436213059,-0.127911060489834,-0.0960637636200575,-0.00700156559849877,-0.608468170795918,-1.58990549337326,0.0852558249195585,0.104208369761927,-0.0890972277933037,-0.0165042894259527
8.8,3.66116646543725,2.66510753485861,-3.03660546674466,-0.21644200242523,0.00825784281378319,-0.0204451590569876,-1.95688446794852,0.291195053706662,-2.44148032366835,-0.129878954163344,-0.118162149142765,-0.0341405899266891,5.02304641822229,0.00480435725466048,0.000883432321664817,0.0025823408735964,-1.95688446794852,0.291195053706662,-2.44148032366835,-0.129878954163344,-0.118162149142765,-0.0341405899266891,-0.125112093711097,-2.15535149604646,0.00136015906871201,0.386368681099791,0.0656539459144085,0.109649586263497
8.9,3.50302825349345,2.59252992571256,-3.1434259027073,-0.213951038619268,0.00148372091842687,-0.0242619683118512,-1.81823582329078,-0.0720507348682129,-2.39331338978283,0.0385400461238933,-0.0269792894144114,0.0433268421899708,4.98989182080478,0.00220395901190442,-1.54298887431817e-06,-0.000907793047546291,-1.81823582329078,-0.0720507348682129,-2.39331338978283,0.0385400461238933,-0.0269792894144114,0.0433268421899708,-0.0658697728273538,-2.11795797484005,-0.0577696539111301,0.177071012200717,-0.00179408943248711,-0.0376518916646068
9,3.44818214186034,2.46830609757791,-3.26718848386725,-0.133853941583651,0.051121651616028,0.023911228238707,-1.78893896096523,-0.243961434732157,-2.43364293382111,-0.0468503339833177,-0.0549108053350611,-0.0227069283430653,5.06310339888975,0.00167885822583577,-0.000577691053962628,-5.94281672383182e-05,-1.78893896096523,-0.243961434732157,-2.43364293382111,-0.0468503339833177,-0.0549108053350611,-0.0227069283430653,-0.480357520384751,-1.36326334329252,0.212516341759706,0.13437196403831,-0.0470268182221008,-0.00188285494544787
9.1,3.28666960237339,2.33850335189044,-3.48062292435894,-0.218429103975931,-0.0138004570893669,-0.0520118810243649,-2.02948599825969,-0.24105849821098,-2.44963489276768,-0.101759821158354,-0.117500017693939,-0.0448357898085816,5.22595024836454,0.00672201986217118,0.00202345885188044,0.00459028453589036,-2.02948599825969,-0.24105849821098,-2.44963489276768,-0.101759821158354,-0.117500017693939,-0.0448357898085816,0.0228708156635627,-2.26914599882321,0.392581896527036,0.541318259252121,0.153514433204371,0.194283973257452
9.2,3.14048376554455,2.41221912351233,-3.55974167721045,-0.176335289862414,0.021215359149735,0.00197488728810725,-1.77691917184293,-0.614953067611984,-2.17865658175329,0.185843688629499,0.048666827022573,0.120482084017977,5.01411184394165,-0.0013773427099637,-0.00155347614126503,-0.00579415703768046,-1.77691917184293,-0.614953067611984,-2.17865658175329,0.185843688629499,0.048666827022573,0.120482084017977,-0.205962953786125,-1.75959003875249,0.0604960610606895,-0.111441948490458,-0.120690207608622,-0.243932642261453
9.3,3.07103427607165,2.17806883559624,-3.62934679703736,-0.0927263094243095,0.0533310198300664,0.0391822081363233,-1.92485079574026,-0.691887594726639,-2.45608853054288,-0.181935611027972,-0.129004186594503,-0.145276342008569,5.26545898582272,0.00488171941404668,0.00108214999106342,0.00502640956538284,-1.92485079574026,-0.691887594726639,-2.45608853054288,-0.181935611027972,-0.129004186594503,-0.145276342008569,-0.520321223561666,-0.996241175525061,0.660768962689636,0.392399286144124,0.0795615473536435,0.21262317289867
9.4,2.93340751636615,2.16147238939702,-3.84306849596066,-0.20810384390412,0.00792086091694877,-0.0378218592337855,-1.99584675817473,-0.516563771494285,-2.15268944048138,0.122510159941461,0.0177216766006638,0.127938560753679,5.19280855568034,0.000520857578269637,-0.000840953987447103,-0.00427035739467609,-1.99584675817473,-0.516563771494285,-2.15268944048138,0.122510159941461,0.0177216766006638,0.127938560753679,-0.161565552917626,-2.14114271245258,0.351222723708466,0.0418323209082619,-0.0653104253399707,-0.179691768023723
9.5,2.72979125199231,2.16036258670968,-3.89572253215875,-0.116648366543059,0.0401499596656348,0.0452129157691575,-1.97469227175565,-1.09844260494125,-2.25619947450315,-0.0791424681203453,-0.0988679463514889,-0.107653664580293,5.2692820246272,0.00419738110075869,0.00102738193021056,0.00295829923669931,-1.97469227175565,-1.09844260494125,-2.25619947450315,-0.0791424681203453,-0.0988679463514889,-0.107653664580293,-0.36426958441923,-1.24425597043253,0.648511699575009,0.337489115792797,0.0756387316818874,0.125303278841775
9.6,2.64290905980525,1.89057073347008,-4.03256308387683,-0.174896981898264,0.00751250111469068,-0.0308956544247584,-2.02012530128454,-0.928165169682761,-2.1181349132924,0.107514379103254,0.00284128502509652,0.0735042368233822,5.27263293429868,0.00138747518494384,-7.49265959249263e-05,-0.00201835824434928,-2.02012530128454,-0.928165169682761,-2.1181349132924,0.107514379103254,0.00284128502509652,0.0735042368233822,-0.134657659097604,-1.83166128429311,0.574099214369653,0.111625067226081,-0.0068325829870338,-0.0847321057442043
9.7,2.49241753484494,1.912644052034,-4.11452115281921,-0.090312615199337,0.0576396745883459,0.0516133254640521,-1.96650595445349,-1.25510573496677,-2.09598811921204,0.00436385713373602,-0.0404820537805116,-0.0327107443784978,5.29378246029784,0.00130212354360561,-0.000500458025972667,-0.000894313723355209,-1.96650595445349,-1.25510573496677,-2.09598811921204,0.00436385713373602,-0.0404820537805116,-0.0327107443784978,-0.55736808533905,-0.984957856384786,0.716905043098826,0.104323095610714,-0.0411107984694687,-0.0373201215262034
9.8,2.36421162916912,1.67974924187315,-4.24703831366373,-0.151052470119752,0.0166825122820719,-0.0119851974108388,-2.1615503539972,-1.1557336672537,-2.06666615418406,-0.0091030097174794,-0.0749046376245931,-0.0266144871794708,5.38786337073723,0.00391789693307247,0.00113563613042269,0.00182762474842242,-2.1615503539972,-1.1557336672537,-2.06666615418406,-0.0091030097174794,-0.0749046376245931,-0.0266144871794708,-0.19713197493915,-1.61927105770099,0.841543880258691,0.315489212846405,0.0854532192631014,0.0775034268803648
9.9,2.15868489693721,1.67451806413813,-4.34814937755647,-0.141857836126069,0.0124456267580828,0.00137577067549904,-2.06580962055464,-1.45760682096116,-1.92179610601191,0.123687630668656,0.00387291859584143,0.0463404275422043,5.35082702957336,0.00119330468882017,-1.58540322984278e-05,-0.00225622615832633,-2.06580962055464,-1.45760682096116,-1.92179610601191,0.123687630668656,0.00387291859584143,0.0463404275422043,-0.129765809914749,-1.51320690549821,0.783335890897682,0.0959457410036391,-0.00255336652388052,-0.094856794174033
10,2.04904512571645,1.44139384882473,-4.41994713379415,-0.0953319312328527,0.0327075729991832,0.021545353766487,-2.08153432744291,-1.59382007687766,-1.93066513964045,0.00779674563650233,-0.0515839113291704,-0.0554416361076569,5.41780842926754,0.00301961248455386,0.000710561408844984,0.0016074222121123,-2.08153432744291,-1.59382007687766,-1.93066513964045,0.00779674563650233,-0.0515839113291704,-0.0554416361076569,-0.330432215922046,-1.03877616077135,0.970647074432208,0.243007879260912,0.0524368750766819,0.068151662148289
10.1,1.92147150078545,1.30610477295679,-4.5309346910855,-0.127842513587945,0.0180162697242767,-0.00987181331980943,-2.14371546150115,-1.55109547702374,-1.79868211759211,0.104197064707413,-0.00975184778126986,0.0402472119398426,5.42002242458467,0.00163971982705163,0.000155345028043921,-0.00143610209921642,-2.14371546150115,-1.55109547702374,-1.79868211759211,0.104197064707413,-0.00975184778126986,0.0402472119398426,-0.207326573707023,-1.38006735119088,0.939837307141662,0.132011209969447,0.0108729219070421,-0.060298994307389
10.2,1.71697143247701,1.1960223217107,-4.62236702824687,-0.114520160257429,0.00533924111804713,-0.000597457113375992,-2.18406223166429,-1.82055592088533,-1.7964325487274,0.0294820950770899,-0.0578102118936214,-0.0530688685254377,5.51737099785327,0.00425951002815942,0.00160228541095078,0.00255088282636025,-2.18406223166429,-1.82055592088533,-1.7964325487274,0.0294820950770899,-0.0578102118936214,-0.0530688685254377,-0.0592842939588673,-1.26090482719013,1.15230520014234,0.34312039452309,0.121434113124243,0.107909580735209
10.3,1.56957421888391,0.979571819627941,-4.7197971801298,-0.135118288845984,-0.0133383776695747,-0.035182222867682,-2.14271240844314,-1.90452998319263,-1.61794958025787,0.157066750962169,0.0104911841407052,0.0422096172489735,5.49812231516032,0.00269544837311747,0.00104128660295008,-0.000316477587357928,-2.14271240844314,-1.90452998319263,-1.61794958025787,0.157066750962169,0.0104911841407052,0.0422096172489735,0.0931370999560544,-1.48547222237458,1.08504904656334,0.21722852442281,0.0793314496262473,-0.0131123092860328
10.4,1.49102611415516,0.873620699256664,-4.71295421290036,-0.0346721508820397,0.057896924157589,0.0470494141505399,-2.02960454347744,-2.02735380317814,-1.55498742765,0.139146538291885,0.0277110491603708,0.0148103839316912,5.44096605033243,-0.000833201474069024,-0.00138028727977809,-0.00292039369568121,-2.02960454347744,-2.02735380317814,-1.55498742765,0.139146538291885,0.0277110491603708,0.0148103839316912,-0.610861989838213,-0.406404231673849,1.04716949638941,-0.0675032223909459,-0.107648819232565,-0.12299369845777
10.5,1.35655675331188,0.644954442171127,-4.82193177561946,-0.0723912845545888,0.0268613710456256,-0.000189811468943582,-2.31818565851918,-1.86904597549428,-1.58266016759524,-0.0381417875472513,-0.104371283379276,-0.078267308376411,5.58573439093139,0.00464291987398678,0.00172165931385828,0.00372114122043559,-2.31818565851918,-1.86904597549428,-1.58266016759524,-0.0381417875472513,-0.104371283379276,-0.078267308376411,-0.299412398264336,-0.80795399655956,1.32819003695591,0.37404034429948,0.130812891580394,0.15723795012415
10.6,1.0982918852723,0.629333846803656,-4.91171272329816,-0.127728238696735,-0.0178358802454304,-0.0279133519462096,-2.24928304550625,-2.01706929179953,-1.35887974205052,0.212955831357242,0.0369732922889026,0.0832132126935063,5.54675655106646,0.00122612875421325,0.000307948546148249,-0.00260317192883552,-2.24928304550625,-2.01706929179953,-1.35887974205052,0.212955831357242,0.0369732922889026,0.0832132126935063,0.156724517595025,-1.41803174808543,1.19139338148588,0.0988239391191738,0.0233734213499439,-0.10965823387759
10.7,0.94459554622152,0.392000424529975,-4.94140740520539,-0.0506918376729812,0.00982052533470121,0.00686491619975842,-2.18406633893644,-2.35007518619103,-1.38305247937239,0.0527592674998205,-0.0453613287775793,-0.0844981451713335,5.64182231052382,0.00402868039866119,0.0016101690562733,0.00369241321343366,-2.18406633893644,-2.35007518619103,-1.38305247937239,0.0527592674998205,-0.0453613287775793,-0.0844981451713335,-0.106739645896785,-0.572489986131922,1.45860673720891,0.324544112905794,0.122308113353186,0.155975213101372
10.8,0.863135225698031,0.125327049275439,-5.01419584168547,-0.088214814807092,-0.00711291774259883,-0.0422873433433182,-2.21907483784544,-2.17573535828135,-1.14802679274558,0.200218404138109,0.0278503152209757,0.0748978966228282,5.57153390443276,0.00164558421112095,0.000638626129437096,-0.00152385266858723,-2.21907483784544,-2.17573535828135,-1.14802679274558,0.200218404138109,0.0278503152209757,0.0748978966228282,0.0373787802125119,-0.984169255711468,1.28945827037865,0.132656240092958,0.0488716818494543,-0.0641452775879988
10.9,0.686126012208528,0.0632217075889692,-5.00394092598521,-0.0247037308668552,0.0203482782999578,0.018719584673224,-2.19355849173474,-2.36775680510424,-1.18651399468165,0.105441282950948,-0.0108052402173561,-0.0442350408756451,5.6391024041246,0.00196404410982575,0.000646805103989292,0.00122065984900406,-2.19355849173474,-2.36775680510424,-1.18651399468165,0.105441282950948,-0.0108052402173561,-0.0442350408756451,-0.22415130357366,-0.282830726616197,1.46242949279362,0.158088106868931,0.0485520672841024,0.0516496331250575
11,0.564948767488769,-0.165054108209223,-5.07859130422664,-0.0470819066971725,0.0120156941744132,-0.0208476511206669,-2.25750697613253,-2.22701203743774,-0.998186555463155,0.134765309451878,-0.00291135042519607,0.024321687851372,5.60642788618,0.00196566292789865,0.000554251297146549,-0.00015245709614304,-2.25750697613253,-2.22701203743774,-0.998186555463155,0.134765309451878,-0.00291135042519607,0.024321687851372,-0.14554954615123,-0.524807505983925,1.38962173392589,0.158368559636915,0.0420542722461314,-0.00630178563808573
11.1,0.409043444901253,-0.212151313102199,-5.04500688608354,-0.00299505616617757,0.0397656765808587,0.0319002494292889,-2.21422754101925,-2.28681650571948,-0.95689956705019,0.162277927414918,0.0170039165683703,0.0146093361240536,5.60208828641873,-0.000505277427974349,-0.000884312961758547,-0.00219267639656203,-2.21422754101925,-2.28681650571948,-0.95689956705019,0.162277927414918,0.0170039165683703,0.0146093361240536,-0.444125334930508,-0.0477466862137448,1.38526889432087,-0.0409767163965911,-0.0688155327384383,-0.0924005508493059
11.2,0.27923709913512,-0.3946579883815,-5.0847349828116,0.0172355685490923,0.0479125209260783,0.0299396867606659,-2.31761444775036,-2.19257479456828,-0.876075852929261,0.060528724170622,-0.0416511919089854,-0.0330544826282707,5.62960704470422,0.000961720351053603,-0.000280766984205921,0.00015079085183011,-2.31761444775036,-2.19257479456828,-0.876075852929261,0.060528724170622,-0.0416511919089854,-0.0330544826282707,-0.544738137388613,0.177822188236061,1.43462278345428,0.0772705260433713,-0.0224269792567608,0.00646957048564021
