time,x,y,z,roll,pitch,yaw,xdot,ydot,zdot,p,q,r,thrust,roll angle,pitch angle,yaw angle,_xdot,_ydot,_zdot,_p,_q,_r,_xddot,_yddot,_zddot,_phiddot,_thetaddtot,_yawddot
0,2.01841953230695,1.01841953230695,0.0184195323069548,0.0184195323069548,0.0184195323069548,0.0184195323069548,0.0184195323069548,0.0184195323069548,0.0184195323069548,0.0184195323069548,0.0184195323069548,0.0184195323069548,8.85041521962739,-0.00340781762067888,0.00255684868328766,-0.0017567426481238,0.0184195323069548,0.0184195323069548,0.0184195323069548,0.0184195323069548,0.0184195323069548,0.0184195323069548,-0.331916825713368,0.319963451904669,7.88482559534008,-0.274824117656743,0.196680784784828,-0.0741241657710615
0.1,1.22036642022637,0.620366420226373,0.0203664202263731,0.0201102526608433,0.0199373048175414,0.0196892085326745,-0.0809666125471198,0.116736031240198,4.34953541162569,-0.141381166644127,0.118228514862024,-0.0308613723325859,5.57026202729299,-0.000667965004239445,-0.0012878318766062,0.000520467966786143,-0.0809666125471198,0.116736031240198,4.34953541162569,-0.141381166644127,0.118228514862024,-0.0308613723325859,-0.226419924241937,0.219608477578725,1.3260577560145,-0.053871073154087,-0.0990610413892264,0.0219605878105958
0.2,1.29743670310643,0.720229737101883,2.00463759441704,-0.0627728340858897,0.0569459753183356,-0.0132143663245154,-0.0597588173647813,0.0623852662333641,1.12788098379432,-0.0410471105966581,-0.0421159910702788,0.00969592476981137,6.79106190469283,0.000691500773273491,0.000466018299313722,0.000165479322846382,-0.0597588173647813,0.0623852662333641,1.12788098379432,-0.0410471105966581,-0.0421159910702788,0.00969592476981137,-0.782698124536748,-0.841759521428439,3.72339985840261,0.0557808620693354,0.0358608595776063,0.00698650369829685
0.3,1.30888966281084,0.70738817120758,0.789027011577152,-0.0196406643469561,-0.00450369721800024,0.0101437011593587,-0.199603550306266,-0.102463504851551,2.54901844630185,0.0199157149629938,0.0300182200534131,0.00678012025640872,6.46836483858384,-0.00255404505137145,0.000389969217685745,-0.00080427014744252,-0.199603550306266,-0.102463504851551,2.54901844630185,0.0199157149629938,0.0300182200534131,0.00678012025640872,0.060825844565051,-0.253465681213543,3.12410337461361,-0.205969135212165,0.0300015467462091,-0.0339315241746523
0.4,1.22114210405366,0.615141497716565,1.50076311498587,-0.0139256461184646,0.00619230063774872,-0.010673460266495,-0.144423893079037,-0.0941558016527862,2.35582624976473,-0.137923025373147,0.0121286300914394,-0.0319371295279805,6.11055644566695,0.000399363646976827,-8.86034927512403e-05,0.00201407743327104,-0.144423893079037,-0.0941558016527862,2.35582624976473,-0.137923025373147,0.0121286300914394,-0.0319371295279805,-0.0774810636019253,-0.169364064575875,2.40969364596107,0.0322024099687671,-0.00682070613416407,0.0849867136806367
0.5,1.28791311476993,0.668213853014693,1.59933110847265,-0.0401140268363111,0.0451616955958469,0.016858517621767,-0.0836634923972262,-0.0239668429684778,2.1560169884301,0.0208279309956677,0.0318236940240936,0.0696388040153928,6.18594506197779,-0.00324488730121375,-0.00275734004364804,-0.00407881639378404,-0.0836634923972262,-0.0239668429684778,2.1560169884301,0.0208279309956677,0.0318236940240936,0.0696388040153928,-0.549652978493346,-0.505490971022271,2.53933300711735,-0.261651550879417,-0.212034679879389,-0.172092199152241
0.6,1.26716891752494,0.656300668344848,1.61868628621459,-0.00502554154392139,0.022728529562041,0.0313168046056179,-0.202880349700117,-0.13462215666478,2.33569159670929,-0.165950942157846,-0.107577821835283,-0.0934319986705604,6.0136145328025,-0.000464507028860436,0.000727547620100666,0.00295459129878768,-0.202880349700117,-0.13462215666478,2.33569159670929,-0.165950942157846,-0.107577821835283,-0.0934319986705604,-0.271307645341344,-0.0689720037903149,2.213970809213,-0.0375209288315953,0.0558704474294967,0.124677441521365
0.7,1.24808735271377,0.645271977526118,1.87121109815526,-0.0578397882750152,-0.00512106961828221,-0.00608777179090615,-0.160420713169671,-0.0725739764230546,2.29771801147606,-0.0291828502392446,0.059560403780325,0.0885662350899041,5.82069470499193,-0.00251217789116233,-0.00278444339716897,-0.00388755930408286,-0.160420713169671,-0.0725739764230546,2.29771801147606,-0.0291828502392446,0.059560403780325,0.0885662350899041,0.0554185065198647,-0.673309977309449,1.81176965261638,-0.202567813441885,-0.213996015026372,-0.164025449956327
0.8,1.22101980356432,0.631134891480181,1.95894518084587,-0.0323768767981005,0.0349126566301248,0.0415376826371354,-0.202425702716217,-0.175796208102442,2.17712107503709,-0.145981484840502,-0.114434116062473,-0.0881015148186452,5.84898658067005,-0.000808123730089576,-0.00118249876002067,0.002236433690583,-0.202425702716217,-0.175796208102442,2.17712107503709,-0.145981484840502,-0.114434116062473,-0.0881015148186452,-0.392033469059132,-0.395298118851051,1.87471759349808,-0.0652096013283338,-0.0911076880432553,0.0943782097366548
0.9,1.20709630351369,0.596804763823699,2.05310271830072,-0.0785262630884957,-0.0288356731757706,-0.0228474670230996,-0.212299654763089,-0.197728315916759,2.30328220492924,-0.0717602667454267,-0.0434284807014049,0.0552780341534011,5.6115660682865,-0.00124851847591265,-0.000776619879954886,-0.00151986803836275,-0.212299654763089,-0.197728315916759,2.30328220492924,-0.0717602667454267,-0.0434284807014049,0.0552780341534011,0.302387102904847,-0.887544978026828,1.3738956051527,-0.10068429882437,-0.0594717735673722,-0.0641285304175693
1,1.1402302660395,0.527950353873911,2.20093418115771,-0.0964347120308727,-0.0470230735361578,-0.00515436687224902,-0.277347792773415,-0.326014511981258,2.11022517053304,-0.128240125755024,-0.0722264725801102,-0.0637413153560277,5.61456359786203,0.00128724650309382,-0.000488722833363011,0.00326768099855619,-0.277347792773415,-0.326014511981258,2.11022517053304,-0.128240125755024,-0.0722264725801102,-0.0637413153560277,0.519801213234687,-1.08389366230974,1.35459935713209,0.103811507027375,-0.0376177740238403,0.137870456962582
1.1,1.11568986584261,0.480537205443976,2.26029790419512,-0.112818032110149,-0.049827840132045,-0.0434175243928562,-0.21570574986961,-0.394476830071487,2.20217526099326,-0.0113781562359226,-0.046828212951158,0.0558760219779687,5.45018650579712,-0.00109166326544825,-0.00164084189240874,-0.000586520786990254,-0.21570574986961,-0.394476830071487,2.20217526099326,-0.0113781562359226,-0.046828212951158,0.0558760219779687,0.485694345916715,-1.24941003916531,1.00763409199393,-0.0880938178813936,-0.125802304083544,-0.0247699747121184
1.2,1.1621201711333,0.473855540515371,2.46573658826722,-0.0289646005837077,-0.00482135153201122,0.0457386612342204,-0.11626367834581,-0.419577271011095,2.12370709718732,-0.078510138034989,-0.070156453198291,0.0042079855681336,5.38431721361511,-0.0036817155894263,-0.00340567691982877,-0.00229459444855962,-0.11626367834581,-0.419577271011095,2.12370709718732,-0.078510138034989,-0.070156453198291,0.0042079855681336,0.0661024591386397,-0.309166536038335,0.953992472369062,-0.29691770217923,-0.261948139173631,-0.0968505554606476
1.3,1.14731029527563,0.39975567904024,2.52801161160947,-0.097054676355354,-0.0538871991007761,-0.0106982931689707,-0.138052332770578,-0.575242972771295,2.04410927110995,-0.228380206418762,-0.180535286101255,-0.0665365957655728,5.2948418575805,0.00356142214954872,0.000915780264763976,0.00366231618366646,-0.138052332770578,-0.575242972771295,2.04410927110995,-0.228380206418762,-0.180535286101255,-0.0665365957655728,0.55667752605657,-1.03217999375948,0.714548245868441,0.287212224901827,0.070441616435799,0.154476929138361
1.4,1.15771435782033,0.332172171142659,2.63946313077082,-0.146952108396154,-0.087873414498948,-0.0227599703971078,-0.0941793537501537,-0.563821127946411,2.02907777940441,0.0936455638689342,0.0132690839194267,0.0857822290024676,5.16794075650435,-0.00262072277134237,-0.00309578428385203,-0.00298034782499602,-0.0941793537501537,-0.563821127946411,2.02907777940441,0.0936455638689342,0.0132690839194267,0.0857822290024676,0.86262942570384,-1.53344768244147,0.37503094399225,-0.211580991551303,-0.237492954451813,-0.125868569416276
1.5,1.14280194668415,0.284189091607881,2.7381542790604,-0.029760868496294,-0.0259214258720747,0.0296974551949424,-0.0785430971841848,-0.676033179979846,1.93830544445155,-0.177219987747825,-0.171251528941439,-0.0750863680934244,5.18470541262944,-0.000893155963242603,-0.00194325684586525,0.00216966097737195,-0.0785430971841848,-0.676033179979846,1.93830544445155,-0.177219987747825,-0.171251528941439,-0.0750863680934244,0.277684362076865,-0.300444288803592,0.551337051142555,-0.0719619756226524,-0.149656564624616,0.0914444817516063
1.6,1.14370176104856,0.212585236077941,2.82522293736478,-0.146051494381162,-0.105657411487403,-0.0372610469135513,0.0186875778466213,-0.832937276255326,1.93234997339879,-0.11186151814447,-0.127520875175143,0.0413588618020464,4.98290292143886,0.00325030768196504,0.000316700713790738,-0.000213366215699909,0.0186875778466213,-0.832937276255326,1.93234997339879,-0.11186151814447,-0.127520875175143,0.0413588618020464,0.985062771137331,-1.48808059637714,-0.00527901602800718,0.261851188428377,0.024941992924158,-0.00917506501975727
1.7,1.15678754508651,0.0686337054210395,2.91008954422841,-0.149548277498116,-0.116916752629112,-0.0127803559573761,-0.0216857237100317,-0.852100941866883,1.75960368084188,0.0541457645311182,-0.0643492128386163,-0.0284445907732986,5.01029505980382,-0.000444846693381501,-0.00164809837309136,0.00192310501274615,-0.0216857237100317,-0.852100941866883,1.75960368084188,0.0541457645311182,-0.0643492128386163,-0.0284445907732986,1.13668602750109,-1.50763240444722,0.0310983001452936,-0.0359589602842728,-0.126615591207708,0.0809129111588154
1.8,1.13371014173135,0.0226481190550445,2.95365295714003,-0.0784943403061915,-0.0952735872069201,-0.0388146327342953,0.07493496756524,-0.999016209087305,1.78442389100856,-0.0973747718954102,-0.144088550510598,0.0221295877537706,4.89639222535516,0.000749034932532313,-0.00101005938567209,0.000752453454485458,0.07493496756524,-0.999016209087305,1.78442389100856,-0.0973747718954102,-0.144088550510598,0.0221295877537706,0.898217085510484,-0.803349337774767,-0.0916429780097268,0.060128191496913,-0.077230307373332,0.0315072681023195
1.9,1.21508046795185,-0.0432051393118617,3.11412031873011,-0.101749306027632,-0.0927410109891667,0.024684869657229,0.246456217175851,-1.08336187397111,1.65938174966835,-0.00842910026453832,-0.0884037158637446,0.0344879021179911,4.78303705537996,-4.02810456117286e-05,-0.0019373499425534,-0.0028245409742127,0.246456217175851,-1.08336187397111,1.65938174966835,-0.00842910026453832,-0.0884037158637446,0.0344879021179911,0.90502877604168,-0.949613840405565,-0.334297896134661,-0.00340714660643941,-0.148785805341038,-0.119489010136229
2,1.26826367088168,-0.17314647106536,3.13847404114228,-0.0864433436401056,-0.0951840749789889,0.0129497479966507,0.291328531755633,-1.17435761741822,1.50848082130945,-0.05677758949567,-0.147413057791604,-0.0631090567102678,4.80175419908327,0.0012860452253318,-0.000508223598058119,0.00234659533381423,0.291328531755633,-1.17435761741822,1.50848082130945,-0.05677758949567,-0.147413057791604,-0.0631090567102678,0.919973812473934,-0.817281305561943,-0.285658920135392,0.103833544889346,-0.0392615126574761,0.0986698631256274
2.1,1.28468872051761,-0.293300878570955,3.15636517577201,-0.122833048885357,-0.143620751872947,-0.0454895365619979,0.359887344842935,-1.30340450281352,1.49251402017234,-0.0149457761594494,-0.103743208660633,0.0388885812473429,4.70821516766883,0.00297621424389969,7.98038445185718e-05,0.000292818238808396,0.359887344842935,-1.30340450281352,1.49251402017234,-0.0149457761594494,-0.103743208660633,0.0388885812473429,1.28374687018107,-1.21337457536049,-0.560736441562682,0.239536296896862,0.00674581620887695,0.011945219130408
2.2,1.33097159050285,-0.423948136964695,3.23881779944134,-0.107193397827723,-0.129274437394667,-0.00239898535783841,0.417434780671779,-1.34688378135926,1.38945093959848,0.0706410790709798,-0.0830106738260396,-0.00322573398354858,4.65127661280042,0.000715774350952844,-0.00118302097820949,0.000247895356166024,0.417434780671779,-1.34688378135926,1.38945093959848,0.0706410790709798,-0.0830106738260396,-0.00322573398354858,1.18996124368758,-0.998121299093482,-0.638018609594001,0.0576151839959509,-0.0908747443731233,0.0100076329042166
2.3,1.40209748550791,-0.483423641476556,3.31518647525049,-0.0377949991867623,-0.0963411020688538,0.013299479635209,0.589598629568172,-1.42096110888037,1.30408000605371,0.00709231784929496,-0.109666056161328,0.0221522080052272,4.55929258053684,-0.00017894003001296,-0.00134787121238296,-0.00169288287900381,0.589598629568172,-1.42096110888037,1.30408000605371,0.00709231784929496,-0.109666056161328,0.0221522080052272,0.88101454707643,-0.33286762260543,-0.740181487294585,-0.0145833083000979,-0.103523379554999,-0.0718883217436572
2.4,1.47970091487053,-0.625117672976127,3.34026224539708,-0.0801046169615572,-0.130859981151483,0.0076794197834609,0.69599069097363,-1.59612983834849,1.15587741752582,-0.0434044455706762,-0.136008316545689,-0.036972129702943,4.55456577731107,0.00462829469450696,0.00124023293362882,0.00138707324786589,0.69599069097363,-1.59612983834849,1.15587741752582,-0.0434044455706762,-0.136008316545689,-0.036972129702943,1.19037266061647,-0.719783320768156,-0.807711258829038,0.373358241792747,0.0952985386588218,0.0580322051706418
2.5,1.57822377171287,-0.792829242131811,3.3552284912824,-0.0913696509483578,-0.140162509775225,-0.0104077325798164,0.774341538049448,-1.57878807012236,1.10995887649282,0.175197115656753,-0.0215615942891371,0.0398412967144437,4.48877064151459,0.000382027867898015,-0.00110469374949806,-0.00139893193251054,0.774341538049448,-1.57878807012236,1.10995887649282,0.175197115656753,-0.0215615942891371,0.0398412967144437,1.24037425927759,-0.832088273954574,-0.957579523669134,0.0304270177587871,-0.0846322031531121,-0.0595848855485121
2.6,1.64414564435565,-0.883396031107224,3.40392640144241,0.00353724163573932,-0.0962068631626606,0.0229835940708395,0.875900201160026,-1.6380340721311,0.984493576726932,0.00644944366394134,-0.117272130710086,-0.0235709518866622,4.44235627946178,0.00120716044282311,-0.000272204522915607,2.79557971325836e-05,0.875900201160026,-1.6380340721311,0.984493576726932,0.00644944366394134,-0.117272130710086,-0.0235709518866622,0.852499350867648,0.0510325619594346,-0.966428448353895,0.0975116518724922,-0.0210634110704428,0.000684239100451731
2.7,1.74005584268477,-0.999871004621976,3.42084656007408,-0.0562531410897736,-0.135916276646876,0.00317873184691754,1.04589578337624,-1.78663450831258,0.927535707426473,0.0486492484555507,-0.0819083897858474,0.0121440708284954,4.38382514196388,0.00448746640190188,0.00152358525556357,-0.000731101821724603,1.04589578337624,-1.78663450831258,0.927535707426473,0.0486492484555507,-0.0819083897858474,0.0121440708284954,1.18768256531365,-0.489174943820776,-1.13694923918657,0.361716822732002,0.117325578012533,-0.0313772331264743
2.8,1.86892658327976,-1.20210673814935,3.44049760348918,-0.043794584456466,-0.132059413871705,0.00897326924235504,1.08016947944284,-1.741734307654,0.768364474725948,0.194560183551759,-0.0128202682938296,-0.0110154844290001,4.4039779060174,0.00114654383365327,-0.000202184371707013,7.89782874436353e-05,1.08016947944284,-1.741734307654,0.768364474725948,0.194560183551759,-0.0128202682938296,-0.0110154844290001,1.16209704024811,-0.375204906146421,-1.08710843044533,0.092466744029107,-0.0155549786956272,0.00280003986812301
2.9,1.90318514419998,-1.32172889454951,3.3925901119126,-0.00642399107785382,-0.139022471982245,-0.0337016247181658,1.15900781222013,-1.85914275438457,0.704569654291612,0.0363199751549883,-0.109158802359157,-0.0212266049380004,4.40155517722413,0.00521924544163505,0.00248068112298521,0.00258201332498445,1.15900781222013,-1.85914275438457,0.704569654291612,0.0363199751549883,-0.109158802359157,-0.0212266049380004,1.21726840152165,-0.0976223053210307,-1.09200255581852,0.420739079014759,0.190913531381065,0.108498321545931
3,2.04194614308862,-1.45180324291568,3.44047990826204,-0.0344466622684009,-0.152100101108271,-0.0075155770966782,1.32672518693146,-1.86581625383958,0.688175125684837,0.247783776478412,0.032253552561616,0.0640443584812817,4.30073995471889,0.0021863109739134,0.000813467461607322,-0.002706567434525,1.32672518693146,-1.86581625383958,0.688175125684837,0.247783776478412,0.032253552561616,0.0640443584812817,1.30021113230488,-0.306014068954169,-1.3128673640166,0.175787211880474,0.0628370756712661,-0.114658053046471
3.1,2.19903066245346,-1.57165002516278,3.48782008401706,0.0775650446268829,-0.0781762224632851,0.0454330815993282,1.44554719359324,-1.83063794766625,0.508697711769533,0.14769941677091,-0.0127386436818429,-0.0413880861808923,4.25305219543259,0.000420751398721465,-0.000366781057733161,-0.000218007536973315,1.44554719359324,-1.83063794766625,0.508697711769533,0.14769941677091,-0.0127386436818429,-0.0413880861808923,0.631681907307398,0.688514858131396,-1.35537184931183,0.0344511269119776,-0.0284077377031378,-0.00952989989409017
3.2,2.32042671713312,-1.68174708332304,3.43977131349679,0.0406534936049912,-0.106284054016422,-0.00418934858194751,1.63036990230225,-1.94906254682939,0.507423007568578,0.0709001007761038,-0.0711279394812702,0.00441360891909915,4.24191391077638,0.00590473914575537,0.00385854594138288,-3.07607900625301e-06,1.63036990230225,-1.94906254682939,0.507423007568578,0.0709001007761038,-0.0711279394812702,0.00441360891909915,0.900691922352562,0.341031936888644,-1.38101513912953,0.476035832591681,0.296855830767335,-0.000392541458261001
3.3,2.45087940231732,-1.95333018552486,3.41364473369115,-0.0457637837066338,-0.190888070003566,-0.0491139707907823,1.58046684672182,-1.95080760264668,0.318145857261353,0.266870717584269,0.0576790462566397,-0.0402003894016382,4.49436982238828,0.00687251858347271,0.00385589603126994,0.00438523230094054,1.58046684672182,-1.95080760264668,0.318145857261353,0.266870717584269,0.0576790462566397,-0.0402003894016382,1.68141353803993,-0.494358987012413,-0.993770754589361,0.554151604057467,0.296627905753366,0.184793520791049
3.4,2.57091502723262,-2.0273210836859,3.39338912213151,0.0900969511502952,-0.0978283368857987,-0.0307482245317653,1.72543062760531,-1.81241597870211,0.463303539516652,0.367729186112102,0.101833677741099,0.094851094560075,4.12744173019214,-0.00149177139317837,-0.000131376318548832,-0.00302166566540321,1.72543062760531,-1.81241597870211,0.463303539516652,0.367729186112102,0.101833677741099,0.094851094560075,0.825458371113384,0.717695894275784,-1.62790784545759,-0.121046610814693,-0.0100232180467471,-0.127598075735518
3.5,2.70604411301915,-2.07015920330103,3.47660330383146,0.149530035304654,-0.0762066624425981,0.0294540711903395,1.89926757070915,-1.92609662921661,0.150202167543614,0.0231890129022723,-0.0409994047586202,-0.0686770116072646,4.23571430401437,0.00577254713927128,0.00415310796332553,0.00193752483781994,1.89926757070915,-1.92609662921661,0.150202167543614,0.0231890129022723,-0.0409994047586202,-0.0686770116072646,0.600314892045981,1.2802522213497,-1.45741483485234,0.466301831228334,0.319537720795528,0.0818238563231411
3.6,2.9319077171997,-2.27165354361944,3.37868582965769,0.0292870510190299,-0.12577562611428,-0.0239394334071443,2.03843459242062,-1.83255029891635,0.299721139042485,0.347681541000343,0.141919275090368,0.0502814065284038,4.26186176170087,0.00425145669404059,0.00372249543785837,-0.000721265637715092,2.03843459242062,-1.83255029891635,0.299721139042485,0.347681541000343,0.141919275090368,0.0502814065284038,1.07446218674512,0.223943649064329,-1.35723459720485,0.3425573782465,0.286316074958405,-0.030348933099223
3.7,3.10817973522289,-2.39918580066102,3.45171756642319,0.159156965156652,-0.0538996734405419,0.00380735365411902,2.04442856645402,-1.69972547334415,0.0439094829583191,0.292552736314568,0.129026439944027,-0.0206893038133908,4.18676259010237,0.000268837504027705,0.00128704768510357,0.00101710617282107,2.04442856645402,-1.69972547334415,0.0439094829583191,0.292552736314568,0.129026439944027,-0.0206893038133908,0.440354380301544,1.32877174454303,-1.55431240815302,0.0221406315454112,0.0991473651074389,0.0431435286866393
3.8,3.23441248897518,-2.4162314463184,3.34495424627114,0.167440273272858,-0.044784457445511,-0.0126235972576017,2.20128790414797,-1.68084893222413,0.107230347627757,0.141920309425761,0.0437033733661979,0.0262360236278338,4.14547756509245,0.00453529497898194,0.00470298659925982,-0.00026915590049297,2.20128790414797,-1.68084893222413,0.107230347627757,0.141920309425761,0.0437033733661979,0.0262360236278338,0.383403877958467,1.37703195098653,-1.6431939264442,0.365893884151384,0.361843960071403,-0.0110297882768927
3.9,3.49468557800239,-2.53256892647985,3.42990535724591,0.144530010329447,-0.0444415400845841,0.0399431124672398,2.29472299597896,-1.50030426676447,0.00925963723928613,0.356640706809236,0.223164824697492,0.0241454777429756,4.1060207866596,0.000195900366197404,0.00194905312121678,-0.00251992046478716,2.29472299597896,-1.50030426676447,0.00925963723928613,0.356640706809236,0.223164824697492,0.0241454777429756,0.31351330259682,1.19623214316068,-1.69160330664441,0.0162851879228251,0.150235513465837,-0.105952846632187
4,3.66473205939809,-2.58979671330386,3.38235524256412,0.23809643166904,0.0251922889914123,0.0210440560024266,2.30967062331497,-1.38233845479417,-0.161432409073825,0.170454723997588,0.112211316681934,-0.0411955031327715,4.09753245569656,0.00120582161057523,0.00214937816150839,0.00125046672651098,2.30967062331497,-1.38233845479417,-0.161432409073825,0.170454723997588,0.112211316681934,-0.0411955031327715,-0.241234139291556,1.9281829550232,-1.84865554796522,0.0979318540018991,0.166036242634299,0.0531988810769009
4.1,3.81322371331578,-2.6483457721837,3.2922126221657,0.164325916212206,-0.0230475884987868,-0.0132932287303712,2.32384508807537,-1.22999587585959,-0.0660879984131777,0.208018194177,0.115273428679416,0.0322902162078785,4.0568342391389,0.00371574488504364,0.00522956128505241,-0.000331434233425583,2.32384508807537,-1.22999587585959,-0.0660879984131777,0.208018194177,0.115273428679416,0.0322902162078785,0.202092249015386,1.3247243125509,-1.80775778959277,0.299861119960197,0.402530412339586,-0.0135338947709329
4.2,3.9696890125563,-2.72566944911235,3.3400649551499,0.166378911829937,-0.0360204421161323,-0.0074104734214278,2.26688143200282,-1.10732175443938,-0.406836216325743,0.304673347413003,0.238405621251346,-0.0206074868110001,4.1953643790609,0.00129635627529074,0.00262979924596641,0.00187930140341167,2.26688143200282,-1.10732175443938,-0.406836216325743,0.304673347413003,0.238405621251346,-0.0206074868110001,0.308289065191622,1.38736192424295,-1.54050703877097,0.105030309324135,0.203060997391417,0.0797594875398755
4.3,4.10107306550243,-2.72453609006195,3.16972647174133,0.241645441301565,0.0427733022084563,-0.0143999817650823,2.32332485670394,-0.922347513752532,-0.35681283036125,0.228072713570303,0.157680543849451,0.0430505571052652,4.06879783692603,-0.000207554282044445,0.00214579265044281,-0.00104140193553122,2.32332485670394,-0.922347513752532,-0.35681283036125,0.228072713570303,0.157680543849451,0.0430505571052652,-0.309780159119758,1.95199444662129,-1.91606452493618,-0.0165096022784363,0.165609041365799,-0.043514496353562
4.4,4.27533280721961,-2.71948404542995,3.17357547927518,0.228408408057673,0.0224947738927074,0.0192462752747874,2.33757527068781,-0.736228279295822,-0.405628928713482,0.166715256494993,0.15721442486446,-0.017002553550747,4.00439665441258,0.00154323155372758,0.00404125897841266,0.000196469990081955,2.33757527068781,-0.736228279295822,-0.405628928713482,0.166715256494993,0.15721442486446,-0.017002553550747,-0.210328951993068,1.80969885838755,-2.01118457473271,0.124893957430146,0.312311171917887,0.00867593880072388
4.5,4.44451739087616,-2.73662330940985,3.15766798803742,0.201553104230021,0.0192932946467614,-0.01886231867816,2.28824516514472,-0.576149717472628,-0.639480843628115,0.234687595401672,0.229967738260449,-0.00154405675462154,4.0931544686025,0.000786503522510482,0.00265092770979133,0.00126114923211732,2.28824516514472,-0.576149717472628,-0.639480843628115,0.234687595401672,0.229967738260449,-0.00154405675462154,-0.123796273196026,1.64145424715079,-1.79090052109242,0.0636891292734609,0.205116375345773,0.0535325680646131
4.6,4.58091195094736,-2.71504104093562,3.02655841309356,0.245702347285387,0.067515566828909,-0.00965546980156049,2.27853824698534,-0.377237790847953,-0.704749798195706,0.210819783614885,0.190757961159388,0.0268009737460989,4.04722694959453,-0.00101264063219913,0.00201308082860462,-0.000655095020299728,2.27853824698534,-0.377237790847953,-0.704749798195706,0.210819783614885,0.190757961159388,0.0268009737460989,-0.510650963767251,1.97389835817714,-1.97653685839486,-0.0815212728513206,0.156133287574028,-0.0274435531444714
4.7,4.74173870460785,-2.6512634625757,2.96409955759969,0.263878119422837,0.0757217304373025,0.0174750714801456,2.26106563945889,-0.147154271420559,-0.752388051812481,0.144076322612294,0.188865842581095,-0.00302361200563937,3.96688982311321,-0.000961302540935453,0.00234854529142447,-0.000643310888335601,2.26106563945889,-0.147154271420559,-0.752388051812481,0.144076322612294,0.188865842581095,-0.00302361200563937,-0.615482135372927,2.05889838105899,-2.17278986328214,-0.077448805619795,0.182703058525646,-0.0270677786183634
4.8,4.92361009170812,-2.56665201356781,2.95397984718938,0.26778308975792,0.108727016743526,0.0267642867615985,2.23640319429306,0.0900119540095341,-0.917411671031705,0.161231351878746,0.227212017521822,0.0139828692660554,3.93667690381811,-0.00257624719528097,0.000515203289428785,-0.0019593282541656,2.23640319429306,0.0900119540095341,-0.917411671031705,0.161231351878746,0.227212017521822,0.0139828692660554,-0.879365887336084,2.06044881126297,-2.26208859931608,-0.207819045514827,0.0417019462334619,-0.0827348799756571
4.9,4.9821005118356,-2.56428509679152,2.7732097010583,0.20791551172594,0.0619590371860614,-0.0423213470814685,2.01613595929077,0.21089347323182,-1.10419831437748,0.0241568718833435,0.094739006317691,-0.0812022434129474,4.05906010428894,0.00355312155800291,0.00462692143572157,0.00589943951258495,2.01613595929077,0.21089347323182,-1.10419831437748,0.0241568718833435,0.094739006317691,-0.0812022434129474,-0.420504157456555,1.69505726758657,-1.88195907969162,0.286291046132879,0.358482354330808,0.24867423664846
5,5.0785530467148,-2.4796079386944,2.67400317527945,0.181170476107901,0.0408539899785653,-0.0529401507696083,2.01418564709047,0.427558637811452,-1.20795071328326,0.3072292897065,0.290375964710539,0.118616594798668,4.0738236277516,-0.00357220654859068,0.00107175881725002,-0.00315082997321727,2.01418564709047,0.427558637811452,-1.20795071328326,0.3072292897065,0.290375964710539,0.118616594798668,-0.249183855356044,1.48331515899984,-1.80238866169067,-0.288125043768281,0.0827890929598653,-0.133271650416743
5.1,5.24492212828599,-2.32629551058888,2.56308818198079,0.353866693176993,0.172537598621969,0.0653182355970668,2.05748327579868,0.643410831374192,-1.30914545489387,0.0306098406739446,0.20753950118951,-0.0447795650402726,4.02333143459203,-0.00500791896608732,-0.00199463955381713,-0.00103234884246115,2.05748327579868,0.643410831374192,-1.30914545489387,0.0306098406739446,0.20753950118951,-0.0447795650402726,-1.47511720222202,2.69785954749632,-2.37398181605256,-0.404651517363383,-0.149466927296888,-0.0441715299363334
5.2,5.37862921727507,-2.21599193309683,2.41829951530453,0.23676042230762,0.147082690051937,-0.0127818398991664,1.83487786631494,1.00435147879513,-1.22758807024295,-0.0440831756342586,0.0595778923905171,-0.0101216043608808,3.83654018863637,-0.00017274393265654,0.00307118448314243,0.00100460211006441,1.83487786631494,1.00435147879513,-1.22758807024295,-0.0440831756342586,0.0595778923905171,-0.0101216043608808,-1.07004908285288,1.81358172624649,-2.43151243420452,-0.0146040591022136,0.238880587479603,0.041585966718022
5.3,5.43076205093916,-2.04916554292936,2.49170799437326,0.185181755339523,0.0767756026901658,-0.00621487908585821,1.74701652647362,1.0698956476295,-1.70929985426232,0.132705905111368,0.254879751023776,0.0216869804490814,4.04110366873457,-0.00307601995309296,0.000448314619243839,-0.000827756943598148,1.74701652647362,1.0698956476295,-1.70929985426232,0.132705905111368,0.254879751023776,0.0216869804490814,-0.600047937543153,1.49189592968701,-1.88937726858086,-0.248699570267713,0.0367833473253228,-0.035770958223334
5.4,5.53292799843426,-1.93980177753476,2.14976343041033,0.277323301226752,0.18200146112382,0.0139013644984278,1.70901161680539,1.25957217985007,-1.70800839502504,0.0134114971972994,0.167559117628501,-0.00844819323677468,4.10174647421857,-0.00492266846328876,-0.00172148433537345,-0.000294652739973697,1.70901161680539,1.25957217985007,-1.70800839502504,0.0134114971972994,0.167559117628501,-0.00844819323677468,-1.45916928401407,2.22590167524258,-2.05026525660831,-0.398018397523308,-0.129357943887674,-0.0135416421803632
5.5,5.59152944976193,-1.81531097028366,1.97411946269612,0.205057133387544,0.13115286173458,-0.0244643758843465,1.44771906552699,1.53693030293631,-1.67509757657061,-0.100760281165633,0.0544754832169285,-0.0195159613270619,3.987298831124,-0.000551322668772717,0.00250712379027118,0.0020367655761456,1.44771906552699,1.53693030293631,-1.67509757657061,-0.100760281165633,0.0544754832169285,-0.0195159613270619,-0.981019011081693,1.64830312915178,-2.06952802672499,-0.0455311797990888,0.195665789002745,0.0846730899618769
5.6,5.61229757662306,-1.62061106918317,1.97367385147154,0.151433217626704,0.0890731725334234,-0.024644837907419,1.3932818938449,1.63472266365418,-1.99110548266824,0.0713047621851828,0.226922456480817,0.0334067171773558,4.10393337915636,-0.0034513231166813,-0.000388207623483456,-0.000460897581037801,1.3932818938449,1.63472266365418,-1.99110548266824,0.0713047621851828,0.226922456480817,0.0334067171773558,-0.691047315402156,1.25560889651302,-1.72823183770484,-0.279201854667425,-0.0277260248110723,-0.0207266352466549
5.7,5.71047687758558,-1.44996509335931,1.70030481781904,0.250294479559557,0.195555720860356,0.018151482563834,1.37496461394838,1.79589131094198,-1.98724035258116,-0.0404752490138507,0.136425930441846,0.000450103253403181,4.16899404729421,-0.0059771316929179,-0.00239791083028419,-0.000871133478405222,1.37496461394838,1.79589131094198,-1.98724035258116,-0.0404752490138507,0.136425930441846,0.000450103253403181,-1.60690971658354,2.03639948443327,-1.88579885615922,-0.483513498046123,-0.181234933958988,-0.0382679556260438
5.8,5.81422075684791,-1.24251307861337,1.56578061753628,0.226929153166135,0.191100160000653,0.0255411499328961,1.15876437973629,2.13426359333855,-1.94838154493381,-0.145751146157836,0.0677826325984867,0.009116407708209,4.07639138160212,-0.00485083826250598,-0.00100354143195738,-0.00163029452242651,1.15876437973629,2.13426359333855,-1.94838154493381,-0.145751146157836,0.0677826325984867,0.009116407708209,-1.55518316098273,1.79513448729196,-2.01084848894888,-0.39281210697032,-0.0739982696692666,-0.0704053243331853
5.9,5.81272058371446,-1.00317658419457,1.54486230177314,0.160666602969629,0.153402142694713,0.0169685896390547,0.986750826680734,2.26286208979804,-2.18584814259243,-0.132607381215019,0.105926326832392,-0.022373431017513,4.11382986879296,-0.00374654472546878,-0.00111461774009564,0.000259221497890521,0.986750826680734,2.26286208979804,-2.18584814259243,-0.132607381215019,0.105926326832392,-0.022373431017513,-1.26315952852698,1.29498365448848,-1.78367891885756,-0.303964065326142,-0.0824050452497739,0.00932933137379437
6,5.79421092679663,-0.832826201191017,1.28546240626518,0.13288860488839,0.152609786712309,-0.0201918332857799,0.836916339409877,2.32033641714365,-2.28730064783517,-0.1213708559551,0.0782271250091017,-0.00192018243551279,4.22592838708546,-0.00350987022202937,-0.00105001571795265,0.00104654908553908,0.836916339409877,2.32033641714365,-2.28730064783517,-0.1213708559551,0.0782271250091017,-0.00192018243551279,-1.25063727097419,1.14533708615319,-1.53002461920138,-0.284599085412627,-0.078200557955316,0.042525183275392
6.1,5.82813373674225,-0.624808820589771,1.08984805839924,0.156868311278537,0.17172651953852,0.0151223896355935,0.741801648849578,2.47982890072087,-2.23908049036447,-0.105479994873478,0.0980271526367469,0.0388291490835917,4.2327959243159,-0.0062604584709388,-0.00285206701411265,-0.00254606290404656,0.741801648849578,2.47982890072087,-2.23908049036447,-0.105479994873478,0.0980271526367469,0.0388291490835917,-1.44870511687075,1.30078505189718,-1.57134373330611,-0.506447824454335,-0.216967907135681,-0.109063318947181
6.2,5.82011474332132,-0.424836054429553,0.942622341383459,0.137036945169573,0.162503032416636,0.0102467277052353,0.528526372791975,2.60286009755717,-2.35125953447812,-0.260889884183656,0.000399204409444076,-0.0603624677147706,4.30045272951638,-0.0028761252764867,-0.000824651675345424,0.00235830441774828,0.528526372791975,2.60286009755717,-2.35125953447812,-0.260889884183656,0.000399204409444076,-0.0603624677147706,-1.39045134581597,1.16076990541373,-1.40197805683025,-0.234314022363095,-0.0600692411649106,0.0978515171264086
6.3,5.7735213429265,-0.220120821039559,0.767957093046566,0.0478707449254851,0.117233483623353,-0.0396803067447028,0.368377427411372,2.70016349511833,-2.37427957610536,-0.141588532502854,0.0715492254958368,0.0405265041370938,4.28253160734678,-0.00321839541341023,-0.00135001798183535,-5.94413652144544e-05,0.368377427411372,2.70016349511833,-2.37427957610536,-0.141588532502854,0.0715492254958368,0.0405265041370938,-0.98361931801426,0.449233068064225,-1.31347185260452,-0.260795392086935,-0.102227618999941,-0.00402116972413238
6.4,5.74878305981,0.00114657675538377,0.610014670830765,0.0936196847225294,0.152726043359118,0.00930093743884436,0.325549981284437,2.65938674725871,-2.39850215492258,-0.166223268029235,0.0462715973269106,-0.00627144470678344,4.3333036433695,-0.00480802582811521,-0.00245942193005738,-0.000151881353745352,0.325549981284437,2.65938674725871,-2.39850215492258,-0.166223268029235,0.0462715973269106,-0.00627144470678344,-1.32018180075642,0.797936102103522,-1.28178214088846,-0.389810824152519,-0.186721050406419,-0.00789212780071583
6.5,5.74817084595937,0.173486754393908,0.400329783302639,0.0703406515723436,0.144291410272559,-0.0143889251173782,0.132884695513463,2.79069804745198,-2.45762741731559,-0.250858140200678,-0.00725246820586842,-0.0112473003712916,4.43245360673781,-0.0030678663708204,-0.00141797817809234,0.00119477332311172,0.132884695513463,2.79069804745198,-2.45762741731559,-0.250858140200678,-0.00725246820586842,-0.0112473003712916,-1.26244749511474,0.641280285057715,-1.05891059229726,-0.249395476129274,-0.106900092294153,0.0489934520133391
6.6,5.70278493498475,0.406693162169885,0.270387241421278,0.0285527163998393,0.129486804056524,-0.00913656252614295,0.014833718288459,2.85264273397056,-2.39890440194097,-0.187093222036936,0.0344364738497585,0.0260100921587323,4.37096451888315,-0.00403661133909524,-0.00236389436691121,-0.000818794349090475,0.014833718288459,2.85264273397056,-2.39890440194097,-0.187093222036936,0.0344364738497585,0.0260100921587323,-1.12601646592546,0.259870529692364,-1.14478923928543,-0.327294025634446,-0.180100726907431,-0.0358189140016911
6.7,5.6785413391498,0.636725252184979,0.153322339908522,0.0583659929324271,0.16247130734086,0.0215316146053665,-0.054910846082431,2.83806335717033,-2.46226291975463,-0.231184064908938,-0.000719586311931059,-0.00604982749808418,4.45361612376307,-0.00478865309430432,-0.00321126219788926,-0.000724968066796806,-0.054910846082431,2.83806335717033,-2.46226291975463,-0.231184064908938,-0.000719586311931059,-0.00604982749808418,-1.44921105082814,0.48849612415702,-1.03503873636978,-0.388485138927202,-0.244970494656044,-0.0317704765782874
6.8,5.61494085626669,0.793339311178242,-0.0694316466117542,-0.00464043994065819,0.11848613044661,-0.023021256195747,-0.317218190709787,2.88231031020679,-2.49893851095856,-0.305853974806502,-0.0689519143276989,-0.0313926467233169,4.50446785569077,-0.00116870369796605,-0.000731104143370806,0.00258027046064889,-0.317218190709787,2.88231031020679,-2.49893851095856,-0.305853974806502,-0.0689519143276989,-0.0313926467233169,-1.06560675100116,-0.0172804147736779,-0.864324715747182,-0.0964330801505022,-0.0545171204659391,0.107825896686868
6.9,5.53596204922155,1.02702933933034,-0.179865001868218,-0.0266543488174625,0.113039778870968,-0.0069159976529451,-0.321022031257765,2.83330215396998,-2.40385119360836,-0.142562442132536,0.0470288428595351,0.0660453439862978,4.4150367851763,-0.0048613960167586,-0.00342670423067424,-0.00279601215520255,-0.321022031257765,2.83330215396998,-2.40385119360836,-0.142562442132536,0.0470288428595351,0.0660453439862978,-0.997275133452041,-0.228440359026881,-1.03939816384272,-0.393561672136871,-0.262571107314591,-0.118817516443393
7,5.52641012179737,1.22257342220965,-0.309355308539859,0.047566748685533,0.17600096981977,0.0507739851999037,-0.383252992215824,2.79160108492806,-2.50387232656204,-0.300892948726303,-0.0617668352367471,-0.0408921564805198,4.59013619450161,-0.00433391693421283,-0.00367628864012104,-0.000375345620894002,-0.383252992215824,2.79160108492806,-2.50387232656204,-0.300892948726303,-0.0617668352367471,-0.0408921564805198,-1.62567476198331,0.35446133484443,-0.781769837523768,-0.352351798714639,-0.281092162991115,-0.016615337578877
7.1,5.45723373482874,1.37700059150954,-0.524888225006404,-0.0553158724041355,0.112807034389973,-0.0162281307827491,-0.706488748609382,2.91700210016265,-2.4884648953277,-0.31072446631284,-0.0949349923853957,-0.00625098624610806,4.60891078467306,-0.00143094269115731,-0.00141782465831964,0.00114538105205238,-0.706488748609382,2.91700210016265,-2.4884648953277,-0.31072446631284,-0.0949349923853957,-0.00625098624610806,-1.04417762581114,-0.492752424795675,-0.664775966772821,-0.117382683933941,-0.108115841420863,0.0477400937766882
7.2,5.31269337521301,1.61755084054628,-0.6074641675441,-0.0669411965095786,0.10251235211729,0.0101950317566811,-0.692002482736265,2.7069507458269,-2.36824722108643,-0.190897682382527,-0.00818194444072548,0.0368912973688947,4.45491462026568,-0.00376039756433495,-0.0031925806878134,-0.00216488570791309,-0.692002482736265,2.7069507458269,-2.36824722108643,-0.190897682382527,-0.00818194444072548,0.0368912973688947,-0.903603249397201,-0.605232837799172,-0.966796311564684,-0.305042573728925,-0.244956214835524,-0.0917417101129784
7.3,5.25358702118667,1.71951633355847,-0.766159488674478,-0.0437872541832074,0.123126857216964,0.017071907014893,-0.771793624588317,2.59641075651764,-2.56854527346602,-0.31238251475658,-0.103032994657781,-0.0493647756709365,4.64770913487525,-0.00135471743006267,-0.00180474447684429,0.00162073437114797,-0.771793624588317,2.59641075651764,-2.56854527346602,-0.31238251475658,-0.103032994657781,-0.0493647756709365,-1.13341945464917,-0.426301602810115,-0.593795353136107,-0.111701102335807,-0.138185847341822,0.0680926279223545
7.4,5.21723456268239,1.90058451504052,-0.967149868710508,-0.0734749732795577,0.118116174086354,0.0161729520589789,-0.876856110485225,2.65943228047591,-2.41057715332105,-0.187745383022191,-0.0190270620655354,0.066548998391545,4.62952808768475,-0.00447215397400523,-0.00409414138633734,-0.00378753567168939,-0.876856110485225,2.65943228047591,-2.41057715332105,-0.187745383022191,-0.0190270620655354,0.066548998391545,-1.07702467053364,-0.697206043386169,-0.640264842931625,-0.362132521862375,-0.314759612294359,-0.159931359897603
7.5,5.09956411119141,2.07098923386228,-1.05570618247129,-0.0529443078478418,0.129152093726731,0.0476845047226047,-1.01242586535809,2.49084956852896,-2.44883596516975,-0.3496944786315,-0.14665515053777,-0.0727529864810511,4.65694966700293,-0.00122239954409013,-0.00200367952679327,0.00137598662858983,-1.01242586535809,2.49084956852896,-2.44883596516975,-0.3496944786315,-0.14665515053777,-0.0727529864810511,-1.1730315612692,-0.549426370863714,-0.586614047798893,-0.101183503202496,-0.15406613441709,0.05803443072177
7.6,4.92686289220413,2.1232607459122,-1.27375789378306,-0.192918649926273,0.0169045495545281,-0.0646945515615671,-1.23979943626171,2.38412314986839,-2.53636504583729,-0.269353746662727,-0.103964950898457,-0.00460751867413301,4.68258081162649,0.00293141825346686,0.000454256104776106,0.00332467716643114,-1.23979943626171,2.38412314986839,-2.53636504583729,-0.269353746662727,-0.103964950898457,-0.00460751867413301,-0.271124387850586,-1.78172751247674,-0.619886242964858,0.235150084099907,0.0347356500978787,0.140422499045175
7.7,4.80593124389116,2.28303839951722,-1.41703396957062,-0.141277580685213,0.0623953053172774,-0.000670349622676001,-1.00399927530569,1.93216532106702,-2.31708060992586,-0.0578266832182994,0.0120909947844452,0.0729664747962344,4.46726895761451,-0.00294664377080731,-0.00264065677411413,-0.00339546479302441,-1.00399927530569,1.93216532106702,-2.31708060992586,-0.0578266832182994,0.0120909947844452,0.0729664747962344,-0.552404228521816,-1.257685119334,-0.981690678981517,-0.238747262439421,-0.203496510829703,-0.143017229143967
7.8,4.77642164541822,2.2296763002968,-1.55403928263833,-0.0946649697100861,0.0772943230354643,0.00343419207787481,-1.17888351670265,1.90177464579086,-2.69876037561252,-0.336645771583501,-0.148939824537837,-0.104953481573832,4.81654233727655,0.00246733038018439,0.000246195894622734,0.00485376654288542,-1.17888351670265,1.90177464579086,-2.69876037561252,-0.336645771583501,-0.148939824537837,-0.104953481573832,-0.737379730256246,-0.913091946651672,-0.248679245131626,0.196753936658341,0.0181327445893746,0.205078971804856
7.9,4.69880550053601,2.40145254397542,-1.79531538964248,-0.1729991609819,0.0524507948613284,-0.0254231321274741,-1.21645417461734,1.98507676357252,-2.37590764799367,-0.0654415931443487,0.0197728267532639,0.123880438449597,4.69548775346121,-0.00274289015372648,-0.00281550077018325,-0.00462509715152888,-1.21645417461734,1.98507676357252,-2.37590764799367,-0.0654415931443487,0.0197728267532639,0.123880438449597,-0.525925481706548,-1.60368815050003,-0.571926192368117,-0.221785819944914,-0.216932414691496,-0.194760347128977
8,4.59220177923003,2.54197318347682,-1.81547670628746,-0.0784646839574513,0.11323157593203,0.0663487209469048,-1.23821475050169,1.61785448713165,-2.46029736835882,-0.296425902037375,-0.13219039339181,-0.0955369084418037,4.71392202061272,0.000258411299731491,-0.00147658964684108,0.00146639231271387,-1.23821475050169,1.61785448713165,-2.46029736835882,-0.296425902037375,-0.13219039339181,-0.0955369084418037,-1.0106404014488,-0.807776800821959,-0.471352031226193,0.0185147561383229,-0.115073672812532,0.0622962122844396
8.1,4.50611087615826,2.53037357234949,-1.99397666449821,-0.186753239761922,0.047386714717553,-0.0273847424124044,-1.44434182055062,1.7639179988072,-2.58107197732851,-0.170266361281073,-0.0704701612697662,0.0397003483953548,4.87363077474804,0.000474128789119775,-0.000901140390106126,-0.000544666964272203,-1.44434182055062,1.7639179988072,-2.58107197732851,-0.170266361281073,-0.0704701612697662,0.0397003483953548,-0.503073401009685,-1.79666871519169,-0.242972959412482,0.0373281739509033,-0.0701341848604026,-0.0224814015760987
8.2,4.34300093997352,2.69928198597877,-2.17155951958364,-0.141070923835969,0.0741243510177945,0.0364390280917736,-1.37281583730455,1.31024611023828,-2.32322703590398,-0.1535099531168,-0.0595993802935563,4.53959060931208e-05,4.68399494040858,-0.000582021176691236,-0.00177237342471902,-0.00168782063408359,-1.37281583730455,1.31024611023828,-2.32322703590398,-0.1535099531168,-0.0595993802935563,4.53959060931208e-05,-0.63842682800273,-1.34132089245937,-0.560540347899712,-0.0482880643315276,-0.137773609506324,-0.0706782863694698
8.3,4.2960803029839,2.64710189927795,-2.20747379838678,-0.127554523754782,0.0919250668700936,0.0371082267640772,-1.43381113553244,1.34625389769426,-2.57799793019788,-0.184621791083062,-0.084279412227867,-0.013691257309421,4.89486991730674,-0.000668270731089409,-0.00176949410611861,-0.00105484197112543,-1.43381113553244,1.34625389769426,-2.57799793019788,-0.184621791083062,-0.084279412227867,-0.013691257309421,-0.844539401924187,-1.27755387136167,-0.1407903459598,-0.0551874354242213,-0.137700070465246,-0.0439401264929832
8.4,4.13433937780125,2.70561540186429,-2.50002295457553,-0.190231716094884,0.0366185075199573,-0.00853408424197973,-1.64432585421674,1.16347069386707,-2.44983224621286,-0.224186811913748,-0.12195744547685,-0.0353989573051334,4.90399593053295,0.0031842992211438,0.000429940148361717,0.00210390380718968,-1.64432585421674,1.16347069386707,-2.44983224621286,-0.224186811913748,-0.12195744547685,-0.0353989573051334,-0.368410157317342,-1.85148164290703,-0.185396422257252,0.255734551815985,0.0315284544534366,0.0893646131732108
8.5,3.9556850263707,2.72201200392447,-2.58182551439759,-0.215584210424871,0.0160666393675244,-0.0167521309598414,-1.55106407742468,0.817730105623973,-2.3904463492256,-0.0539855045270681,-0.0308486239313795,0.0384844844201528,4.80914817657566,0.00131564128715168,-0.000263070750439136,-0.00103008859978767,-1.55106407742468,0.817730105623973,-2.3904463492256,-0.0539855045270681,-0.0308486239313795,0.0384844844201528,-0.185395183590411,-2.05471086281096,-0.415564592100699,0.10549013605348,-0.0213346909874017,-0.0428626359728287
8.6,3.90383511363063,2.67036809832737,-2.70104582545258,-0.136994837257633,0.0682360213374384,0.0322743713132554,-1.49418307852576,0.58444732445406,-2.48423573888425,-0.111088588916811,-0.0513585857213568,-0.0176571341003242,4.90862988594015,0.00045769099548441,-0.0010259318827626,-0.00068523050797474,-1.49418307852576,0.58444732445406,-2.48423573888425,-0.111088588916811,-0.0513585857213568,-0.0176571341003242,-0.619491175819441,-1.36141025496796,-0.107351792972745,0.0359444911362565,-0.080752319478229,-0.0283124230604752
8.7,3.83216293413536,2.63453765745863,-2.88303630208782,-0.159679852920149,0.0621749011140644,0.0148768498512608,-1.65958681185183,0.662535714764941,-2.46380200381331,-0.137949816892962,-0.0771313944928625,-0.00609380324026156,5.01092827436833,0.00115137194110679,-0.000648334634671241,-0.000405511417775068,-1.65958681185183,0.662535714764941,-2.46380200381331,-0.137949816892962,-0.0771313944928625,-0.00609380324026156,-0.591011266046864,-1.60246603096155,0.0652426292459296,0.0920937954761769,-0.0514612416860886,-0.016507321620959
8.8,3.61681086660127,2.66450421462306,-3.05455223351817,-0.218060172125573,0.00737327378703198,-0.0208763952117601,-1.78065256429217,0.364475446285338,-2.40172436607931,-0.138943886763918,-0.0979439272734287,-0.0341972460490039,5.0089483338298,0.0046623459696049,0.00132411447949692,0.00260808909841322,-1.78065256429217,0.364475446285338,-2.40172436607931,-0.138943886763918,-0.0979439272734287,-0.0341972460490039,-0.117339861571814,-2.16525546451543,-0.0296035983106737,0.375343768139923,0.10029225902989,0.110640046650917
8.9,3.46939997442178,2.59440051269753,-3.15868778478005,-0.215628953728761,0.00228816211952197,-0.0246250911777269,-1.64496424448984,0.00291168601391112,-2.36221725896994,0.0296630007908958,-0.00648262109883971,0.0438133666809708,4.98281684416771,0.00203813256329057,0.000381180632423346,-0.000910796505040468,-1.64496424448984,0.00291168601391112,-2.36221725896994,0.0296630007908958,-0.00648262109883971,0.0438133666809708,-0.07477006759906,-2.13107057924072,-0.0751757882655379,0.164042077054624,0.0284107676192567,-0.0378632514149749
9,3.4250545206287,2.47545148536991,-3.28295740497712,-0.136155989544978,0.0532317870841557,0.0229070059407581,-1.62145387985909,-0.171500712107476,-2.39870990972957,-0.0578873609869992,-0.0351710638532652,-0.0228522335261094,5.05441789994087,0.00157778787384541,-0.000239731403978653,-4.63753640508582e-06,-1.62145387985909,-0.171500712107476,-2.39870990972957,-0.0578873609869992,-0.0351710638532652,-0.0228522335261094,-0.501311032427657,-1.38397544870288,0.191092962027929,0.126583901511296,-0.0202825057259923,0.000360524855176123
9.1,3.27251076523818,2.34938540708639,-3.49171267558629,-0.222128017877099,-0.0107454100473238,-0.0530923640150113,-1.8661370535926,-0.174562538274319,-2.41887785959958,-0.110120193450049,-0.0979418533409819,-0.0436394101890804,5.21203497649909,0.00667153038722648,0.0023186569664096,0.00458909112731203,-1.8661370535926,-0.174562538274319,-2.41887785959958,-0.110120193450049,-0.0979418533409819,-0.0436394101890804,-0.0127656330592357,-2.29904571318198,0.357372336661607,0.537563882765836,0.176976105011799,0.194179230508938
9.2,3.13534870976282,2.42565461388195,-3.56985758629048,-0.179525647913736,0.0253925960251502,0.00186629725144539,-1.62243490042272,-0.551405633825892,-2.15675928583924,0.179400668578283,0.0675831826322416,0.120492645510408,5.01257396561604,-0.00152635741890479,-0.00129020553448848,-0.00578735825379351,-1.62243490042272,-0.551405633825892,-2.15675928583924,0.179400668578283,0.0675831826322416,0.120492645510408,-0.247105054315398,-1.79058342615796,0.0508489050987535,-0.123218506382268,-0.0996872544425402,-0.243687317107008
9.3,3.07302306974623,2.19389065010014,-3.64058901535871,-0.0955959053530194,0.0582908312865504,0.0374048973331069,-1.77523708556753,-0.63333797751298,-2.42377633214422,-0.193780428251197,-0.110436148382148,-0.145111303252736,5.25204047522423,0.00489278671354807,0.00128612172604656,0.00510378039910405,-1.77523708556753,-0.63333797751298,-2.42377633214422,-0.193780428251197,-0.110436148382148,-0.145111303252736,-0.571230718208635,-1.02469701533257,0.628362328781158,0.393587446164574,0.095944093468681,0.215862193941111
9.4,2.94353093335761,2.1797076894044,-3.84783440292557,-0.213726614264029,0.0137825491241323,-0.0388518178922622,-1.85253400482002,-0.461497042467303,-2.13553778782466,0.118383363512044,0.0354017163346112,0.12978661861007,5.18985470936021,0.000473473330079352,-0.000649631910897206,-0.00430682157292828,-1.85253400482002,-0.461497042467303,-2.13553778782466,0.118383363512044,0.0354017163346112,0.12978661861007,-0.225207410890791,-2.19447797466968,0.332579339489669,0.0382166531284954,-0.0498466432426963,-0.181243466651009
9.5,2.74680415419124,2.18155957065609,-3.90513236789352,-0.119542918330739,0.0468500998795012,0.0445767732845171,-1.84237250089751,-1.05315586969536,-2.23106026990184,-0.0870978703728903,-0.0813803049863806,-0.1083116441837,5.25788300985658,0.00416882904668959,0.0011400242008651,0.00302145490175977,-1.84237250089751,-1.05315586969536,-2.23106026990184,-0.0870978703728903,-0.0813803049863806,-0.1083116441837,-0.432599083175612,-1.27463711633371,0.619261394569321,0.335393127665832,0.0849521446485368,0.127967886396563
9.6,2.66479027737117,1.9099318005917,-4.03626205020229,-0.179772430264062,0.0151056662776848,-0.0323964689159579,-1.89463391175635,-0.88100934375597,-2.10456616405476,0.10131392936271,0.0181513028218159,0.0750998000053242,5.26895105763667,0.00140461140511594,2.78133975881687e-05,-0.00202068740066414,-1.89463391175635,-0.88100934375597,-2.10456616405476,0.10131392936271,0.0181513028218159,0.0750998000053242,-0.217560526075609,-1.87817526419788,0.556894717586912,0.113182748682303,0.00177332958846185,-0.084818291983569
9.7,2.52009490576784,1.93702305533795,-4.12208423962688,-0.0948343374582899,0.0654059613918421,0.0509348249980486,-1.85361769400485,-1.21550144527391,-2.07780647117984,-0.000803099448776212,-0.0255075178981558,-0.0325193500922281,5.28787126467864,0.0013011792644093,-0.000443235451718149,-0.000870193052312291,-1.85361769400485,-1.21550144527391,-2.07780647117984,-0.000803099448776212,-0.0255075178981558,-0.0325193500922281,-0.636238996556346,-1.03517610329397,0.69570989613203,0.104395157478489,-0.0360935517928935,-0.0362797351361469
9.8,2.39475730610892,1.70325013802249,-4.25082953851206,-0.155505643587858,0.0251571646900469,-0.0133745577925521,-2.05387878220561,-1.12395255172828,-2.05233756351146,-0.0144704518283109,-0.0612475266057287,-0.0258019490690719,5.3800881241638,0.00397036693993118,0.00115548602011324,0.0018565613547803,-2.05387878220561,-1.12395255172828,-2.05233756351146,-0.0144704518283109,-0.0612475266057287,-0.0258019490690719,-0.289665482560362,-1.66280713812601,0.816973192056317,0.31985729550373,0.0875975707273144,0.0787570398602861
9.9,2.19444643309031,1.69796663961546,-4.35270540939305,-0.146781809974666,0.0211984049238152,0.000403217375304386,-1.97161150673512,-1.42647353818857,-1.91267360848523,0.120667178101456,0.0161743107047951,0.0473152793468816,5.34856483263183,0.00121487471101617,-2.52348597060255e-05,-0.00225477133809686,-1.97161150673512,-1.42647353818857,-1.91267360848523,0.120667178101456,0.0161743107047951,0.0473152793468816,-0.223676028522778,-1.56460234217998,0.769724553152276,0.0978043217363212,-0.0026653780437535,-0.0947538441170521
10,2.08621125707162,1.4664070906292,-4.42567147551111,-0.0993475590121141,0.0417270077413709,0.0207516534235732,-1.9967949644781,-1.57000160110623,-1.91874385187509,0.00331573859384357,-0.0404622060110538,-0.055052982989965,5.41277064377339,0.00307523260668529,0.000662567503285226,0.00162751191296788,-1.9967949644781,-1.57000160110623,-1.91874385187509,0.00331573859384357,-0.0404622060110538,-0.055052982989965,-0.426982965163167,-1.08281590845155,0.952784928829752,0.247577826384071,0.0492829376335361,0.0690472028065647
10.1,1.961056509878,1.3300371701089,-4.53453946102193,-0.132896284759819,0.0271303355318254,-0.0110803935736031,-2.0682345931445,-1.53080478034356,-1.79074273679674,0.101691919177735,-0.0001684344531429,0.0410831315896071,5.41708801475845,0.00171567497383228,9.47030995387944e-05,-0.00141747860628172,-2.0682345931445,-1.53080478034356,-1.79074273679674,0.101691919177735,-0.0001684344531429,0.0410831315896071,-0.307195919812586,-1.43227140784596,0.924691403094736,0.138236630181803,0.00675833540824615,-0.0594586486458307
10.2,1.75816106498419,1.22064958690133,-4.62732077339957,-0.118775670198524,0.0145123413424703,-0.00141381691543743,-2.11931307438608,-1.80637682247215,-1.7890482352552,0.0278167910131845,-0.0490208262974622,-0.0522292652734417,5.51396209120447,0.00431170933225054,0.00149444961436442,0.00255035638947902,-2.11931307438608,-1.80637682247215,-1.7890482352552,0.0278167910131845,-0.0490208262974622,-0.0522292652734417,-0.160755222713075,-1.30654546726543,1.13907340706502,0.347390935838147,0.113627754235897,0.107945679738929
10.3,1.61130599245183,1.0025482046685,-4.72428252909758,-0.13932033404756,-0.00402988274747542,-0.0360564283702885,-2.08869890172013,-1.89346381974989,-1.61256814713672,0.154970090581986,0.0171424483787145,0.0426518854967345,5.49634660763403,0.00277667860678063,0.000919721857612887,-0.000295518508467985,-2.08869890172013,-1.89346381974989,-1.61256814713672,0.154970090581986,0.0171424483787145,0.0426518854967345,-0.0111888333979018,-1.52714528170355,1.07609233028905,0.223862544737533,0.070470858390085,-0.0121658146775598
10.4,1.53276970740984,0.896619784662528,-4.71798464939357,-0.0389677152702854,0.0668145399687308,0.0462474702394792,-1.98612875260095,-2.01852110167307,-1.54863175344283,0.138196001048689,0.0333396356042841,0.015743582488555,5.4397144283987,-0.000747715154355183,-0.00150289048397451,-0.00292630524451343,-1.98612875260095,-2.01852110167307,-1.54863175344283,0.138196001048689,0.0333396356042841,0.015743582488555,-0.705441341331309,-0.456941022561632,1.03691337044585,-0.0605641944966134,-0.116654476149456,-0.123180814839442
10.5,1.39748162811553,0.667772339153318,-4.82636619375234,-0.0763138864595497,0.0356878541429538,-0.000909228950160407,-2.2794372975902,-1.87006896080958,-1.57612465353979,-0.0384742787075418,-0.099214658238565,-0.0779079264783198,5.58238423225284,0.00473920924968492,0.0015621323162116,0.00373782808081474,-2.2794372975902,-1.87006896080958,-1.57612465353979,-0.0384742787075418,-0.099214658238565,-0.0779079264783198,-0.397976397456326,-0.850838606811705,1.3151850914152,0.381835303864334,0.118912057560913,0.158004096615271
10.6,1.14013431691798,0.649028579643716,-4.91597779695939,-0.131695007376211,-0.00900143508467628,-0.0292872340012641,-2.2218701719897,-2.01940241602182,-1.35570652166199,0.213657243684521,0.0401591519946755,0.0840962971364924,5.54658252191134,0.00132141728168017,0.000135805809959776,-0.00258013960341238,-2.2218701719897,-2.01940241602182,-1.35570652166199,0.213657243684521,0.0401591519946755,0.0840962971364924,0.0562894780969121,-1.45896919192088,1.18666090598282,0.106588744633594,0.010544700954169,-0.10862218917042
10.7,0.9843652604312,0.411150156653333,-4.94702210410678,-0.0537993844652683,0.0182276464433575,0.00645886832712432,-2.16776971469101,-2.35413040089705,-1.37838025935698,0.0534784347778596,-0.0432823113375063,-0.0834419757210961,5.64080054180239,0.00409501864981872,0.00141423892055891,0.0036607441923298,-2.16776971469101,-2.35413040089705,-1.37838025935698,0.0534784347778596,-0.0432823113375063,-0.0834419757210961,-0.201405611078583,-0.607963974150206,1.45340705983559,0.329893762512834,0.107548140534343,0.154698962794071
10.8,0.900350396079572,0.143402498908797,-5.01885380905042,-0.091679766728109,0.000853409676111132,-0.0430494888226328,-2.21003716917882,-2.18438808359172,-1.14327864314984,0.200348311202404,0.0282257867383033,0.0747439976574118,5.57056238323267,0.00177036492696592,0.000451769112657977,-0.00148128089414046,-2.21003716917882,-2.18438808359172,-1.14327864314984,0.200348311202404,0.0282257867383033,0.0747439976574118,-0.0533555316141437,-1.018632987515,1.28433193508919,0.142791381031253,0.0348266341499221,-0.062290416276137
10.9,0.721577076823811,0.0798027972124395,-5.00877950016245,-0.0280257746159112,0.0277703618907914,0.0178626348245435,-2.19202598377195,-2.37814124436733,-1.18207404793983,0.108194733269873,-0.0107975410525636,-0.0427345738842192,5.63868906741057,0.00204245460504723,0.000448511206977953,0.00118926788899692,-2.19202598377195,-2.37814124436733,-1.18207404793983,0.108194733269873,-0.0107975410525636,-0.0427345738842192,-0.30731914057452,-0.321556421672818,1.45860301941902,0.164412205279269,0.0335527522710236,0.0503781512705868
11,0.598094013622002,-0.149898726630557,-5.08345275982058,-0.0494368319676382,0.0192029965505367,-0.0212561420580939,-2.26183745982198,-2.24397696398784,-0.992860031833213,0.13610665110992,-0.00410252574419185,0.0242013287188156,5.60564847530307,0.00207145620961516,0.000350472419035586,-0.00012873101351675,-2.26183745982198,-2.24397696398784,-0.992860031833213,0.13610665110992,-0.00410252574419185,0.0242013287188156,-0.226741230597594,-0.549330080721619,1.38553501139771,0.166938293153931,0.0266169624618248,-0.00525131153642425
11.1,0.44012285227126,-0.200220374453495,-5.04950177007364,-0.00570823815811436,0.0464271632862913,0.0309135494981196,-2.2254993962813,-2.302337842451,-0.950825347178361,0.165092020590932,0.0148249386998302,0.0157041071607357,5.60082101690197,-0.000400173005525876,-0.00107795807663616,-0.00219874813184756,-2.2254993962813,-2.302337842451,-0.950825347178361,0.165092020590932,0.0148249386998302,0.0157041071607357,-0.517640462361503,-0.0799790615480631,1.37938943619907,-0.0324871846377675,-0.0835074080036396,-0.0926120632363324
11.2,0.307260967716473,-0.382802379978344,-5.08893585802144,0.0152955635542905,0.0540368454791646,0.0296113844717685,-2.33351300333093,-2.21383725790085,-0.870724511447878,0.0637399608986521,-0.0441005188752432,-0.0325988667034908,5.6291253773292,0.00104982307908129,-0.000484259117777308,0.000143617297443336,-2.33351300333093,-2.21383725790085,-0.870724511447878,0.0637399608986521,-0.0441005188752432,-0.0325988667034908,-0.612824844187621,0.154118198310703,1.43050280663914,0.0843735483806569,-0.0379219504482808,0.00620593242338743
