time,x,y,z,roll,pitch,yaw,xdot,ydot,zdot,p,q,r,thrust,roll angle,pitch angle,yaw angle
0,4.01841953230695,4.01841953230695,0.0184195323069548,0.0184195323069548,0.0184195323069548,0.0184195323069548,0.0184195323069548,0.0184195323069548,0.0184195323069548,0.0184195323069548,0.0184195323069548,0.0184195323069548,9.19845512255499,-0.0090119851105357,0.00654751120367829,-0.00187693245609719
0.01,2.4193717654818,2.4193717654818,0.0193717654817975,0.018600243705966,0.018191753103563,0.0174293928851486,-0.0643575959733853,0.100743245974835,4.34641806055313,-0.357210964775247,0.264365909978532,-0.0300860449687327,5.75158785856658,-0.00011667245195901,-0.000195000313836198,0.000480806092620024
0.02,2.63851893402401,2.7052260066034,1.76636438910855,-0.14350268346623,0.108830571289853,-0.0111936568651731,-0.0201127402757185,0.0244542138765773,0.900353283374667,-0.00506108578237366,-0.000974765864284173,0.0117585075653754,7.06313783870889,-0.000561917504643444,0.00189525637292599,-2.78866016431327e-05
0.03,2.66040385709063,2.67872170887167,0.398477977271416,0.00234982720128741,0.00778685282480568,0.0113465090694728,-0.254458551636807,-0.321200018541469,2.27760672563822,-0.0210144416592566,0.0816112635707916,0.00467077581878674,7.00476773680365,-0.00494798120887456,0.00307631659004105,-0.000800440154827221
0.04,2.53772344007587,2.50940051398956,1.00766222641845,-0.0239117930136071,0.0214596299350346,-0.0134306510558259,-0.0601318277855337,-0.0312857235536889,2.18150572510501,-0.216217988450323,0.111704752464059,-0.0283515627719985,6.68992040156451,-0.000274551900247925,0.00291951460838179,0.00193721444905337
0.05,2.67496788830627,2.68710807605397,0.964625227297965,-0.0573642098697578,0.0798647355705578,0.0230936004893833,-0.00957423977102273,-0.0052994572197077,1.92472120664384,0.00995527435631403,0.144602333755233,0.0678287628223008,6.85249805420167,-0.00484514080381774,-0.000715586337527207,-0.00432580069720459
0.06,2.65519468413685,2.65755577216089,0.852712335983414,0.00186852267214311,0.0602920043180233,0.0238006435680431,-0.184432250937496,-0.13743427003878,2.09077078863779,-0.204288561286073,-0.0212596909833721,-0.0913108392449415,6.82460669251491,-0.00161300610801512,0.00373756969220921,0.00313490591716361
0.07,2.62242196579376,2.64274500410362,0.989534172884986,-0.0502487560500383,0.0304760466615202,0.00155231913532485,-0.0981358959113708,0.0318741744734075,2.10295113192604,-0.0449680411797006,0.181364223528343,0.0942495401547919,6.73812410300769,-0.00416409727301926,0.000291346213887756,-0.00457667364676463
0.08,2.62240391747334,2.67690786934461,0.956877196659709,-0.0180601606190289,0.0792568415501509,0.0378056723988605,-0.0928449287134111,-0.112107354925712,2.00871877123655,-0.177668723603105,0.021184681964923,-0.0935953090842227,6.79998353906633,-0.00171026714412228,0.00199008806519254,0.0025919857104803
0.09,2.64060202385864,2.63361315340204,0.948538347547544,-0.0591371881209922,0.0310047703749844,-0.0196330737617572,-0.171971863694955,-0.045427103923729,2.103865453302,-0.0653475526560028,0.101266221356495,0.067783324384509,6.72749959193772,-0.00294227616144786,0.00200100782589603,-0.00231919790731672
0.1,2.55644172960047,2.61068087006356,0.959632308400635,-0.0611095843041213,0.017216532906683,-0.00065691762711495,-0.163704907918971,-0.189580636774178,2.00645936251505,-0.154729056365487,0.0611132194997196,-0.0729545031314021,6.78125508733303,0.00027650903483358,0.00342324093903469,0.00346521535716103
0.11,2.58119945149438,2.57167936254891,0.945149583329751,-0.0806974070047671,0.0165631206527173,-0.0387734644935498,-0.117029662819228,-0.180542701886726,2.09125288995992,-0.0110376551673105,0.132992231909084,0.0615987100387844,6.71592518012282,-0.00247329904861293,0.00185563382099961,-0.0010940261309929
0.12,2.63928242198963,2.61435609823858,1.02551415328891,0.0113382136079791,0.0819783444319492,0.0459125307183868,-0.0609834562709882,-0.155030779837457,2.08137450623,-0.0955741113903797,0.101315109896964,-0.0040947733578565,6.72407436962331,-0.00515194701402578,-0.000339213771608135,-0.0020393932565401
0.13,2.61737668820431,2.57890542296539,1.00315366750428,-0.0581156361395034,0.0356712734519723,-0.0171131101928083,-0.236405785199088,-0.0678483328738198,2.07514437115978,-0.232401614662251,-0.012400157833834,-0.0541981790975987,6.6949908359777,0.0012752068517464,0.00415323267185134,0.00333768234128386
0.14,2.57438666947668,2.64604127620844,1.03029049688808,-0.0899975905365701,0.0125250611635173,-0.00546822249553456,-0.124048588066271,-0.14236368873727,2.08066371600117,0.0459448498312619,0.182382214641336,0.0790912934991463,6.66809503499928,-0.00417763150076211,0.000568008793696009,-0.0034994098039885
0.15,2.59740234469658,2.59115527527915,1.03195017663457,0.00219273252566283,0.0719621835080846,0.0201688277987493,-0.116740998875876,-0.233712893598615,2.06061170540188,-0.193106728005381,0.0286663104206217,-0.080751196195205,6.70944448214311,-0.00200632770449682,0.00171187383504342,0.002811041687082
0.16,2.60714164465259,2.55917463717869,1.04305180081806,-0.0888939746948779,0.0180000231454815,-0.0334778588759073,-0.213696153077765,-0.0829305053635858,2.11921129602243,-0.0994716983577454,0.0802909860485147,0.0566213299672723,6.6187547385149,-0.000819319845721224,0.00262537669172879,-0.00112410032175566
0.17,2.53970862014122,2.59642958116356,1.04764465659089,-0.0772793013378012,0.0150939235402475,-0.000998478293549758,-0.171244200632465,-0.26731181917758,2.02807044700817,-0.0726817386728623,0.0916956213646188,-0.0458105437145187,6.67402261668615,-0.00119648893402883,0.00241075555817573,0.002196552751159
0.18,2.561282461224,2.5219698011869,1.03504874687106,-0.0636047088880758,0.0221721112796036,-0.0415565855269331,-0.16238575591127,-0.261049263625833,2.09921059343644,-0.0850295186169244,0.08848883575302,0.0259469868809971,6.6316608509914,-0.00143838071919891,0.00221204630184817,0.000711145537657099
0.19,2.61161601600298,2.57182518066405,1.11497001482049,-0.0273588477181858,0.0636524763081328,0.0289050225238715,-0.107683970208773,-0.169980110508888,2.11009890856948,-0.0618635825449143,0.115317091060643,0.0304207701279523,6.60059184786959,-0.00454989382389475,-0.000277313815411565,-0.00285719343115863
0.2,2.60616386301879,2.58144759877767,1.11053368346273,-0.0375779593846133,0.0550816282561485,0.00789300519727273,-0.201357363352047,-0.156599833974899,2.07829440257986,-0.205081374682924,0.00362008026691454,-0.0617437616819061,6.61441746463285,-0.000593758830031967,0.00265510807726081,0.00249498630774368
0.21,2.55248629851594,2.57350960026889,1.09724515854757,-0.109387144369357,-0.00317523836803225,-0.0364991886679419,-0.221079756833348,-0.19792597981752,2.09504690547502,-0.0571479337282143,0.109157740255342,0.0397151958461917,6.57752007187965,-0.000689662390896582,0.0024502871668654,-0.000168953861328477
0.22,2.54623292598443,2.55791238331161,1.11755527570029,-0.0516476322337242,0.0401670261898835,0.00230006386935943,-0.143062521157326,-0.309044753301172,2.08749893198433,-0.0617235583065092,0.0987492677384609,-0.015928402866951,6.57531802609116,-0.00286263715546851,0.000958103401639905,0.000611673255017551
0.23,2.61282393912309,2.54328795896306,1.16282023276971,-0.0223362481291663,0.0681195481382466,0.00809051248570783,-0.149450751234073,-0.181647811115911,2.11690064396611,-0.123421066729834,0.0683500666864511,0.0263856217863214,6.55837078996185,-0.00344840903456092,0.000436150316188873,-0.00169154507971359
0.24,2.58522273145588,2.57326895553837,1.1645727448572,-0.0653012447635906,0.0380779434042814,0.00813734908080637,-0.223163875502175,-0.174403139608134,2.10218718420075,-0.163748635637728,0.0329850321924929,-0.0370565771944068,6.53559883279316,-0.000581931715834889,0.00242307329977036,0.0013236435019174
0.25,2.56762392275595,2.59039090172633,1.18211755599537,-0.0710811883477906,0.0355623057926057,-0.00340235492184331,-0.168336730862271,-0.218309674738444,2.10537953086919,-0.0386452380731904,0.121195957916637,0.0358264350914955,6.51613914525817,-0.00336276823793206,0.000401607871564571,-0.00157455978214933
0.26,2.58615525333556,2.56613411249779,1.19700362608903,-0.023974928770488,0.0683943073328706,0.0193410854641308,-0.173274241410179,-0.235604333570843,2.10047986564423,-0.155389232694105,0.0402857050013101,-0.0275107574981215,6.53206355074363,-0.00258517664940279,0.000837828569682731,0.000329497819673867
0.27,2.59116541102021,2.56572586721205,1.21555801226002,-0.0646462508888026,0.0443957871887883,0.00262750971685835,-0.210076306236683,-0.17093831221779,2.13758425399581,-0.117976241938469,0.0643129448675999,0.0184390143187652,6.47208901224275,-0.00207805335192719,0.00125948437300517,-0.00104906819054854
0.28,2.56599825970257,2.58469262462891,1.2327136321542,-0.0573866757785893,0.0469367809444778,0.0146752616306484,-0.194726272943137,-0.234521969842422,2.0872794091852,-0.10475068736124,0.0738124100409786,-0.0164879328425437,6.49384032004136,-0.00251254078940259,0.000817178450043046,3.69779853634863e-05
0.29,2.53596253243831,2.51992309660609,1.19597374798214,-0.0855342978798393,0.0185376853692637,-0.0322279411050458,-0.258607895683619,-0.290458376718378,2.09297032536784,-0.149844036552323,0.0312175582832289,-0.0211118816103792,6.48549983339117,0.000469775939341496,0.00280744233731712,0.00249350364428167
0.3,2.54902991422192,2.53659983180931,1.24292408916587,-0.0717127479266782,0.0338770242330203,0.0007485667070843,-0.177164033499143,-0.275902398013592,2.13399852281855,-0.00268812856087845,0.13544228760743,0.0583608040306211,6.43704096752806,-0.0042002246508568,-0.000271480693089102,-0.00283426608541613
0.31,2.59394936912846,2.55205418317301,1.28668657801822,0.00147097619603475,0.0891458010133401,0.041019153700665,-0.169760390280939,-0.241014711401692,2.1110064670964,-0.18321240730495,0.028373503197257,-0.0428260822600195,6.48236645236335,-0.00341213272433195,-0.000169101127691397,2.20582858632045e-05
0.32,2.58540672515781,2.55552547470815,1.28226212251696,-0.0798148687097875,0.0414837571718781,-0.00521744437529024,-0.25659255167113,-0.179093419038679,2.1699492304886,-0.15632097605707,0.0279816535824737,0.0112355332001293,6.3815612227854,-0.000805018891855582,0.00190461086543355,-0.000336819656444616
0.33,2.48219680158487,2.51825621916119,1.25541637750031,-0.12910174322383,-0.0183622916667033,-0.0381129363608237,-0.303431163969789,-0.366724775351718,2.02555987562857,-0.101058219599345,0.0574598768622554,-0.0455637511947671,6.4716409126843,0.00151583188160581,0.00321573343728095,0.0039501501344675
0.34,2.5148514262504,2.48781189500419,1.25913536033682,-0.0666328988124892,0.0330437036217514,-0.0209587859181399,-0.177509157161324,-0.378205396591957,2.18578275557169,0.0269366515936541,0.143462130476447,0.0790048466329366,6.36601987655555,-0.00482618579344274,-0.000748791526194571,-0.00277946733571864
0.35,2.56168135616788,2.47354449318462,1.33326917851121,-0.0165091333947789,0.0658070224592371,0.0218464022279994,-0.231274326306665,-0.308000831160094,2.07214465176806,-0.234450767640124,-0.0111004203784268,-0.0644000007979744,6.44587385957956,-0.00101759429598578,0.00148299360785688,0.00195909440668531
0.36,2.54985419691972,2.51744202804138,1.30859574930608,-0.11024978254103,0.0184544786611822,-0.0186567374541412,-0.252934456536334,-0.245000806054618,2.17857186394312,-0.068789909230839,0.0888710347676018,0.046133833188726,6.3284560633188,-0.00140656493495043,0.00112755205043524,-0.00133725852015278
0.37,2.51991803947595,2.52498068093184,1.34358324608616,-0.0609509491529326,0.0427292864122556,0.00882794535977749,-0.23366362597465,-0.366822772306759,2.07131185344883,-0.0991803831387384,0.0579655487163192,-0.0367434498786634,6.39370649728891,-0.00235624361373849,0.000679086507173101,0.00127881516036718
0.38,2.54048564765336,2.48123487446366,1.33563698893295,-0.0637316781995034,0.0412641521992771,-0.0155070285993119,-0.243983577670029,-0.316085342916295,2.14817432340098,-0.128709233481962,0.0511208961560616,0.0267651045154912,6.34411448292964,-0.00175681395741975,0.000898188737453449,-0.000580562866301671
0.39,2.56705388923734,2.53628479672535,1.40298405791388,-0.0458636316191435,0.0685709244133927,0.0402043132097508,-0.195551784302454,-0.269888789048476,2.14111363940912,-0.0812180840137717,0.0828599618641139,0.0128648629799215,6.32648962332954,-0.0042679645575829,-0.0011233870344008,-0.00256241578297388
0.4,2.56590362068524,2.53372284769215,1.39858259743193,-0.041561706035578,0.0674208749817053,0.0179630383631658,-0.247283673444005,-0.286444534602521,2.12581420133591,-0.195771746150919,-0.00622868348820008,-0.0414942707974312,6.33814834474117,-0.0016129325646558,0.00104481401384259,0.00105756134546907
0.41,2.53187950141857,2.51561842314047,1.39687239191597,-0.0996319134028606,0.0212629222351016,-0.011250207849987,-0.2741273128919,-0.305192809079578,2.14054407232354,-0.0981449030002666,0.0706676568999276,0.0258820009395075,6.2870445262391,-0.00128848894530029,0.00105923768230732,-0.000734952750949635
0.42,2.49599458340114,2.4829125144111,1.39132126034147,-0.0840523775028593,0.0294392333448427,-0.00672933098870006,-0.275850418726894,-0.398735639893627,2.08817682699002,-0.104839117528896,0.0501419387550036,-0.0308747344824723,6.31970960749323,-0.00125833560227334,0.000994633715975948,0.0017434294582582
0.43,2.51658988134523,2.46060211480007,1.40292969178063,-0.0709320685009162,0.0379933455483989,-0.0137710930473123,-0.25902714345809,-0.370165225727423,2.14508365204957,-0.0898293499194861,0.0631326716573568,0.0352545149692884,6.27990242436111,-0.0024733566448858,0.000324666720103738,-0.00105978597002134
0.44,2.52430615381155,2.4741143402295,1.44050205243141,-0.0613708517520149,0.0471534141633929,0.0159124829726468,-0.2620531538992,-0.35706145343666,2.12002831513252,-0.137502753271728,0.0390472369579189,-0.020652291596121,6.28136029792139,-0.00192710677158164,0.000462380434374485,0.000178818971604115
0.45,2.50576211964958,2.46294212067135,1.42842901028975,-0.0946475941604813,0.0249696865222954,-0.0191475444348139,-0.295023798672196,-0.380479357074178,2.12163949206687,-0.126446892877137,0.0353804144217311,-0.00563435522830019,6.26054321026012,-0.000548185500453107,0.00137141091433226,0.00113512355582096
0.46,2.49671867366277,2.45823020681123,1.44592488129953,-0.086821992597742,0.0276466607794456,-0.0079971661243078,-0.276223873719611,-0.406225512733847,2.12342352485917,-0.0678158263431573,0.0735082920887295,0.0182583398138272,6.24789083902777,-0.00232872898768967,0.000260884506355718,-0.000523245457580748
0.47,2.51900448608712,2.45920455230613,1.4772087999853,-0.0494835435497315,0.0575112600227756,0.0140526367289035,-0.256160562945037,-0.38472085833454,2.13489022351104,-0.129167068355145,0.0421461841200709,-0.00494325052372484,6.24520273669222,-0.00276248339868481,-0.000293515769085461,-0.000474454994185377
0.48,2.54800141985989,2.48906916027466,1.51481884842576,-0.0531988541512818,0.0672251190455139,0.0253735316943737,-0.244689375911213,-0.328757335279757,2.16150037752859,-0.129282137762384,0.0390232072389836,0.0140690652441419,6.20779491697594,-0.00310291096158986,-0.000614714590217826,-0.0019136227167624
0.49,2.46275050930486,2.42485962441515,1.45913537702505,-0.129932389967371,-0.00998574072919755,-0.0413205972833115,-0.384303770597986,-0.464067401310739,2.0678307456654,-0.207337341500164,-0.0364012158977224,-0.0800081310573161,6.2459138300061,0.0036144718804803,0.00382620797488595,0.00572910841314551
0.5,2.44112605115095,2.40457584092497,1.46455634578558,-0.134928832820409,-0.0175703623345904,-0.0495221352123037,-0.295783616457044,-0.490492253313184,2.16129881680827,0.0851324341776476,0.161629258938841,0.103607736441674,6.17114088656986,-0.0035286100861846,-0.000493753921829601,-0.00257936964871036
0.51,2.52284166919255,2.43125667829446,1.5586323021643,0.023960820871516,0.104962039385723,0.0603835578743542,-0.221844253107625,-0.426079197898473,2.14193575988762,-0.173151551696314,0.0279566624266381,-0.0371383401432418,6.2479446740144,-0.00497098570480231,-0.00262703245030696,-0.00111191744444211
0.52,2.53524081423613,2.43825425102281,1.55250095844993,-0.0922466867109103,0.0448217813710658,-0.0087375693228606,-0.324740989432502,-0.353114929947694,2.21724620793017,-0.236436249967823,-0.063717827866179,-0.0147889003511835,6.09712479763753,0.00121894968131252,0.00258877535899379,0.00107511992570464
0.53,2.46941432923855,2.4581253586853,1.56934456951716,-0.134597481014904,-0.00954457590508506,-0.00917422390564394,-0.311598056354916,-0.444641348145646,2.04826922504723,-0.000526039460671909,0.122886436196251,0.017912814619817,6.19010619561602,-0.0021497599988149,0.000143508702469292,-0.000442023368867302
0.54,2.49174278112826,2.42799559136263,1.54135356055844,-0.0272967828846071,0.0789784501058405,0.0139207450365697,-0.263127070704173,-0.471695213843089,2.18309439347761,-0.126916527632625,0.0389139770811519,-0.00322281987237822,6.15848041935172,-0.00390207339430967,-0.00180064386374473,-0.000527795332473133
0.55,2.48240071376465,2.38157332729108,1.57833754700322,-0.105126930867571,0.0194693878928731,-0.0223472551075094,-0.360936892491522,-0.458316472025273,2.11991720566807,-0.220263206127146,-0.0577537031528755,-0.02711867608695,6.12420420116734,0.00206753155938581,0.00304482938480718,0.00231481356539349
0.56,2.43808184929493,2.39344907617929,1.5599706159224,-0.144114073335746,-0.0211441457373768,-0.0278490308587942,-0.335086522753517,-0.506999288657336,2.10002973919742,0.019928967822424,0.130238255723403,0.0324905482612561,6.13599475779455,-0.00190399689933926,6.52110830579723e-05,-0.000241706823998114
0.57,2.47791665792932,2.39467974318241,1.59598867411479,-0.0227880633018587,0.0806371828206521,0.0182607253144919,-0.272737829637527,-0.502200456042355,2.16882604141581,-0.120621515280584,0.0349869319129256,-0.000215728083744399,6.12762411071514,-0.00424303144429782,-0.00207462700499903,-0.000866333824756512
0.58,2.52590122737475,2.4142792033003,1.65945972318126,-0.0571153471172633,0.0658340372537314,0.0249711991842841,-0.2860752497508,-0.408843261818669,2.16858551487927,-0.196474370801396,-0.0293137580377039,0.00543807152850671,6.07435981369361,-0.00151781273556214,0.000438819601399548,-0.00147469529070051
0.59,2.49468758741336,2.43829940077423,1.65081849408157,-0.103249456798368,0.0254196218616289,0.0156756420045554,-0.307727485059548,-0.450704765076172,2.10966018383272,-0.0992339258987371,0.0549301765249619,-0.0199050836651814,6.08496388302272,-0.00168787498758294,2.40571386283997e-05,0.000163377203786112
0.6,2.46007307487116,2.39154905862745,1.62120707770955,-0.0888907921699571,0.0356052584023517,-0.0181528187531716,-0.33590948465852,-0.520774230510015,2.11467184883956,-0.126285914736362,0.0205301969272611,-0.0051143224797686,6.08984606224509,-0.00120363685536577,5.76569767221658e-05,0.00107331287260137
0.61,2.48146625569618,2.39007736163178,1.66439760291196,-0.0740186437306581,0.0483156354979995,0.0136434553888026,-0.300767644100877,-0.479326544958461,2.15138668221188,-0.0856148650605371,0.0430195613387307,0.0363189999734684,6.05131629812315,-0.00323571191106597,-0.00101526741977009,-0.00239149217641221
0.62,2.46610907322447,2.37810057927766,1.66927460131693,-0.0793529558034185,0.0356417736338502,0.00833688422107392,-0.343635023651769,-0.516313194346209,2.10158812788648,-0.187206521126157,-0.0174076601860397,-0.0552042411860738,6.07285489483054,-0.000264710075955107,0.000900296412195947,0.00218937564175127
0.63,2.43864520188287,2.35372916981611,1.65211258436512,-0.130332338000692,0.00227100399312084,-0.0356106831757157,-0.359495832895469,-0.543638991597929,2.12580543075062,-0.0748917006797793,0.0533408503337354,0.0342754833109569,6.03093289622774,-0.000562109545400848,0.000403990289041544,3.75146732749535e-05
0.64,2.43804825198946,2.34666521554441,1.67816575512124,-0.0806417611976043,0.0366861117222395,0.00542447349809802,-0.342047224218341,-0.562028059210799,2.11652027865611,-0.0829383933830086,0.0345925876862182,-0.00659807963952486,6.04147986844699,-0.00263628489941187,-0.000709267182993343,3.54675148914331e-05
0.65,2.4403350947971,2.32831642615917,1.68994437609115,-0.0876819934628113,0.0263378348751806,-0.0153200770823595,-0.359473289257186,-0.561266793155756,2.11774763919219,-0.169639403575036,-0.00990757004899719,-0.00929980954797042,6.02660052503785,-0.000191585804215733,0.000813655074953775,0.00114006238131269
0.66,2.43830035329293,2.3383447670453,1.70558513400208,-0.115671901563657,0.0159248549915216,-0.00775004339433424,-0.347049216080328,-0.558108178873827,2.12187131861304,-0.0649152169204709,0.0555184149875602,0.0205936474033123,5.99680556857665,-0.00165730741154975,-0.000379254437788856,-0.000631042914231064
0.67,2.45712813690916,2.35164381832335,1.73416768693644,-0.0593762284916468,0.0570862822601187,0.0180339188178537,-0.321499716142921,-0.549911395877324,2.12484458259093,-0.11293261038389,0.0206297501338808,-0.00466367284205237,6.01334325905706,-0.00321671305961763,-0.00139181614091497,-0.000643562018261309
0.68,2.43001637535972,2.31350875232982,1.72135344567594,-0.110316947989275,0.0125360589706192,-0.023603366066543,-0.387874106571765,-0.597608968290935,2.11213434414323,-0.202260384261547,-0.0434053096921322,-0.0307925037181023,5.98451247302554,0.00168358341775667,0.00192988810641188,0.00255479799453851
0.69,2.43223110069842,2.32859880663153,1.75212337830275,-0.120149845085565,0.0128108140525863,-0.00531371943721826,-0.335690511700318,-0.571869377336313,2.12732975068033,0.0181154158140043,0.108317371775211,0.0595277844664374,5.95255765388644,-0.00365534157407052,-0.00180608593344024,-0.00258275251857201
0.7,2.46692606742248,2.34598097513323,1.78828836322804,-0.0161413243852384,0.088372959381788,0.0436546074955882,-0.311819527591443,-0.557549094634616,2.12297463646474,-0.188296484583466,-0.0250496861888721,-0.0370077609792677,6.01794093703689,-0.00345408752573328,-0.0019733651712724,-0.000292517675491818
0.71,2.45220546123958,2.32528821456713,1.7824381143334,-0.120101993305975,0.0179239294469073,-0.0150769910660992,-0.367602115780326,-0.579557413619085,2.17813560520333,-0.195073261963425,-0.0454647689974599,-0.00430160085829928,5.88705028347851,0.00139441205859888,0.00179089043097935,0.000896749025736627
0.72,2.43761581624913,2.33383212161853,1.82070116238613,-0.112987637373006,0.0193659718618084,0.0116875746712949,-0.337225936769743,-0.577716699739732,2.06913343009965,0.00994113875290088,0.10609425818009,0.0296970939019055,5.95001453787785,-0.00401198549848672,-0.00221315808714588,-0.00197188678455854
0.73,2.43421474829095,2.30697717892395,1.78424771435116,-0.0447504979889245,0.0659291475756581,0.00918517077273817,-0.36382978969201,-0.620978035679231,2.12502479951107,-0.222426380260977,-0.0606663485632851,-0.043129079455188,5.9695048500127,-0.00115281809866293,-0.000365779476278436,0.00161447997293522
0.74,2.46677763502296,2.33293406882155,1.85732384493402,-0.100722045405465,0.0388256492134942,0.0182840830177872,-0.309931158966953,-0.553266339171698,2.18350734556818,-0.07420321009336,0.0449708836641918,0.0655597222480641,5.8475660555132,-0.00293460224128154,-0.00146035178768965,-0.00398330372589983
0.75,2.45654906567379,2.33383982241578,1.86622307753453,-0.0611467287586802,0.0595471461249466,0.0420553585863046,-0.342245617664322,-0.592339481669076,2.05543772118633,-0.165611509052068,-0.0184262091097994,-0.0705917811562444,5.95897617437136,-0.00218306133999185,-0.00108753752704811,0.00135370183090196
0.76,2.38744748000722,2.25479047155487,1.78265293999981,-0.152039661613264,-0.0170334970011536,-0.0639096196811706,-0.44120101584924,-0.695022983790013,2.12259038306454,-0.178872452872792,-0.0413000253589431,-0.00108544970702311,5.88431667634339,0.00311743275645359,0.00217590083401087,0.00306551375691129
0.77,2.38935620757241,2.25794635099668,1.85362255396263,-0.122826223212691,0.0082989984962043,0.000412394289572934,-0.376911432139873,-0.651896633730963,2.12021853975498,0.065907544792401,0.109351038847919,0.0649017770151387,5.85784681493806,-0.00473291054530084,-0.00252957427177028,-0.00309306402102726
0.78,2.37380809868159,2.22181376544322,1.83642631581687,-0.058641155263466,0.0335250231834974,-0.00909682124271496,-0.435355068813422,-0.719595769516237,2.0517344278171,-0.282768495854332,-0.101721547982196,-0.0947816530928706,5.94719606478315,0.00149934513647459,0.00131587539672438,0.00492144723344252
0.79,2.40992586581084,2.25800840585715,1.87279986231868,-0.146747480103414,0.00162277724706629,-0.0199082526499505,-0.351449041740216,-0.639562506315695,2.18633251811951,0.0131975966942535,0.0984397920077951,0.120002400391278,5.78222953768521,-0.0026489703290315,-0.00184220900704192,-0.00474809711773571
0.8,2.42103347360964,2.27153851077967,1.91593091153815,-0.0383796673609979,0.070476179980737,0.0550629037022417,-0.370577721094806,-0.657932049033121,2.04557740849394,-0.166817314145434,-0.0408000948680838,-0.0948206064983551,5.93189243481546,-0.00298063591503318,-0.00169880912012544,0.00191668735232261
0.81,2.41869817179507,2.25985756391096,1.89310719357283,-0.11020612464473,0.0217296247893036,-0.0283878651617632,-0.370961485859156,-0.672170719199397,2.18652476136708,-0.17443820743005,-0.0270699752800855,0.0500296930665384,5.77605715013796,0.000238068747691577,0.000371506153673125,-0.00103387378649033
0.82,2.41757404945045,2.262745377688,1.95533481744484,-0.108294513544024,0.0308338174787022,0.0355037265759951,-0.363032756536207,-0.659222140476018,2.04756538522879,-0.0403349987945318,0.04876028019849,-0.00870174303826361,5.8445436095153,-0.00316425349428499,-0.00207725655954934,-0.00126451357641734
0.83,2.4386528283491,2.27737669022898,1.93603558694153,-0.0387237650504013,0.0781806594452432,0.0280035979528601,-0.339359969371454,-0.649543763420006,2.13981380646872,-0.164973415358851,-0.029547410400842,9.00166639242403e-05,5.8477855632161,-0.00343910356039427,-0.00235178957511067,-0.0012822132972801
0.84,2.40051331343514,2.23188616720627,1.94612044482363,-0.128710351271587,0.00704336509081583,-0.00884608446351762,-0.408706189133865,-0.727957231153106,2.11359096440877,-0.210329331809936,-0.0732331662437008,-0.0333834786721051,5.77086647669995,0.00221889066966884,0.00177385740654261,0.00199442385908233
0.85,2.37593392515951,2.20935168717899,1.94676123257112,-0.144364908827516,-0.00831127999848728,-0.0163880611589665,-0.409982784497305,-0.718370494565246,2.05758695707102,0.0211007379639482,0.0907123113863866,0.0389640476190824,5.80557144172585,-0.00278130346754227,-0.00191102171963725,-0.00107212282205138
0.86,2.3922390612687,2.21870934825964,1.95714474338068,-0.0368897173342589,0.0725028081168152,0.0267357475427187,-0.388077653943624,-0.712128919155404,2.12319346884345,-0.170359150220247,-0.0420620875279941,-0.0139289701130524,5.8274896966512,-0.00307475151442445,-0.00236024330306308,-0.00054804471828263
0.87,2.40547184918373,2.22251140913792,2.00348317498054,-0.108585495444325,0.0266407513424384,0.00962273418828883,-0.372453438000587,-0.720718067891919,2.1399219334567,-0.176555363161918,-0.0538039403560057,0.00270971663151167,5.71984151144698,0.000111045347270974,0.000403833518340508,-0.000581700463990111
0.88,2.36019431056446,2.17707755765279,1.97406877571817,-0.151635657817834,-0.0181991735041281,-0.0206441686432285,-0.446097258338127,-0.777733805596982,2.00399908496192,-0.0812282762328369,0.0192958989416195,-0.0312774833084437,5.80916361699147,0.00032386859905649,-3.12561792871436e-05,0.00245014898559346
0.89,2.34669593545688,2.16122109738423,1.9504526878356,-0.103349739289485,0.0214181131888972,-0.0231135160657709,-0.435265119118579,-0.781319032308381,2.13508288069493,-0.0631930090006614,0.0121348463725958,0.042251203370669,5.74267871774768,-0.0024541285399689,-0.00181529080479654,-0.000891169922603452
0.9,2.36210577735884,2.16427804016502,2.0278967245404,-0.0845364141021577,0.029963499121548,0.0165238175509436,-0.411094119581637,-0.770960526409465,2.06110786591477,-0.167373820987942,-0.0499395912206713,-0.019107682966319,5.76244173453271,-0.000848181809947533,-0.000462454063539124,0.000140350952247612
0.91,2.31221020272965,2.11262863613405,1.95887919951367,-0.175798249294117,-0.0429971439473418,-0.0554505456302595,-0.493102187701224,-0.86758783294078,2.04051376035456,-0.143256662967304,-0.0346295645876314,-0.0373218964857805,5.76394593968317,0.0035652934230869,0.00162677804742516,0.00438891926424138
0.92,2.35825176790533,2.15311969662643,2.02990755075487,-0.0976934093140995,0.0309360930055379,0.00614943373983044,-0.389004867794404,-0.752943215071109,2.16541558015005,0.0943594327399221,0.102792557901867,0.110897151132329,5.67105846132678,-0.00687230034056354,-0.0048685036765606,-0.00548887573465085
0.93,2.34753360055488,2.1336385434691,2.0587918130776,-0.0401464336266908,0.0425812921320426,0.0248243095160933,-0.443024685849852,-0.838230704151298,1.99093803289513,-0.366149911195966,-0.183191195157271,-0.133219773110176,5.81340118932781,0.00249950748910667,0.00176129054324517,0.00517726546413951
0.94,2.36917239770333,2.15176245771827,2.03876187284309,-0.187756578454514,-0.0314334994511278,-0.0338265457893762,-0.38000221308538,-0.798303259668682,2.17863912079719,0.0439712618107234,0.118354588856766,0.1269016792732,5.60356753482675,-0.00159000084509846,-0.00210152448504375,-0.00440811119878631
0.95,2.34680557895592,2.12132591721822,2.07611316340276,-0.0589663377438238,0.0562775002127825,0.0371098636463027,-0.456655872240694,-0.819398273492087,1.99607232122193,-0.150499799272635,-0.0743778105076792,-0.106431134145727,5.78589090338659,-0.00230312714505805,-0.00176006404084034,0.00333753470421066
0.96,2.35023781450997,2.13131889537414,2.06609146167266,-0.11449110516685,0.00669974466512624,-0.0328774647467119,-0.394709079206343,-0.83535579181,2.15561229246372,-0.155301827055382,-0.0345265114821335,0.080084558209278,5.6180644379397,4.47065383341148e-05,-9.84397825525042e-05,-0.00222565232492201
0.97,2.36940577876474,2.1308240191947,2.13171660009299,-0.111612960020853,0.0260752695523571,0.0462816512856843,-0.400498360400734,-0.808383924445724,2.005314887363,-0.0559685133422487,0.0232096568784888,-0.0347562255403021,5.69694812600301,-0.00258133514100476,-0.00252199259074882,-0.000518265427204108
0.98,2.34521231576297,2.11176871475288,2.06773832620363,-0.0925590983951621,0.0301712092848431,-0.0185651265366436,-0.430926665032128,-0.862068302420399,2.07114210432828,-0.178551832275313,-0.0818241015674984,-0.0145575099545251,5.68827128668669,-0.000197902565460833,-0.000357482612486372,0.00159460069401421
0.99,2.34743913218973,2.10332503977706,2.12341098574766,-0.128024710536419,0.00109161507978381,0.00264552176939262,-0.406672283043177,-0.853785664199045,2.0779361412005,-0.0714632843214089,0.0128359635374884,0.0419029952899829,5.62225425337653,-0.00136985970217222,-0.00133416045136415,-0.00209607191024488
1,2.33799200524872,2.08690449688365,2.12224403261482,-0.098132293389517,0.0263148435550236,0.0135996163679938,-0.440091263756115,-0.869110143284919,2.01876519996793,-0.130183414617874,-0.038100900196922,-0.0471863107365014,5.68255524666287,-0.00112824071262206,-0.00149825562097284,0.00161997126514418
1.01,2.33915977049639,2.08952887117238,2.12581125874805,-0.110630377915475,0.0183787405463889,-0.0105531102450968,-0.411883519152813,-0.874871074883377,2.08648655118212,-0.11010689926534,-0.0310443292624152,0.0422841519756851,5.61587373558556,-0.00119938841103622,-0.00124260828123355,-0.00147803450101196
1.02,2.31042062680614,2.04764648367837,2.13166253857848,-0.133519166936266,-0.00997039507874921,-0.00503428102328162,-0.466867419425106,-0.928459508022786,1.99970065710936,-0.139130335500741,-0.0511635854419819,-0.0495049102123249,5.6534171340389,0.00103470796502046,0.000169449368171859,0.0025906698536068
1.03,2.29674380156842,2.03125339117835,2.11835937383273,-0.139516041512526,-0.0125731636976956,-0.0349432922961376,-0.467087899145362,-0.926313243348187,2.06250912229092,-0.0438145417005572,0.0131131511045686,0.0426327907434513,5.6082889879311,-0.00114219888064561,-0.00154968575726458,-0.000353392311427995
1.04,2.33941025132775,2.0705040719549,2.19574198140584,-0.060195606678906,0.0545840483156866,0.0429460131657539,-0.399457588702481,-0.861530593271425,2.06413797693948,-0.0979866882313093,-0.0234999201941776,0.0143073464088065,5.62481116375903,-0.00385403443382864,-0.00350692356422416,-0.00262613126379735
1.05,2.31668768801647,2.04303712000357,2.1713650421243,-0.121311239719343,0.00126263348554849,-0.00808222654442231,-0.439899509339102,-0.971283625188829,2.03246163773117,-0.240434239968377,-0.131465890160956,-0.0662484070271883,5.5925927021867,0.00298803466101733,0.00159488450798614,0.00353744928385772
1.06,2.31701721305209,2.02088657471114,2.18195680400107,-0.163382699787755,-0.0283979199956616,-0.0245903130518213,-0.436978663512916,-0.924666397635918,2.03056246372937,0.0479289825911918,0.0842138626135237,0.0778468897767814,5.57351356074882,-0.0025013347655196,-0.00264843988965361,-0.00250900328651461
1.07,2.27762710776547,1.99011708309668,2.16155192845641,-0.0814396237867309,0.0257196176104774,0.00190752234116351,-0.504123934966933,-0.981272401947173,2.00971524228449,-0.202251257309985,-0.114207341001821,-0.0788171554333979,5.63868639497062,0.000361582504782566,-0.000616419145377044,0.00368129360790667
1.08,2.27739111886473,1.98836134174875,2.19358314334258,-0.16203578482392,-0.0329935065928039,-0.0421987145493586,-0.445735165497545,-0.994873516851436,2.06711539037961,-0.0692945738860294,-0.0114741940800347,0.0710842923925777,5.52165650567663,0.000610497585938044,-0.000277974695581021,-0.001363012390301
1.09,2.28524517608073,1.97227823472382,2.2115210521912,-0.11544360681943,0.00352671067667387,0.0135367802755553,-0.481430270894101,-0.970744994736025,1.98450655629571,-0.0621464991125443,-0.0122149915914593,-0.0412559848728346,5.59590116787961,-0.00174675098966661,-0.00210620362078138,0.00134141391353899
1.1,2.28153171512658,1.98251234314284,2.20965409075095,-0.104508301319332,0.011737782540271,-0.0226298171596318,-0.450165320914426,-0.99866730768881,2.04535589624036,-0.149960142613016,-0.0720433899286406,0.0241158936897005,5.54969854604637,-0.000106140506438221,-0.000919315023090571,-4.01269598065457e-05
1.11,2.31466108282973,1.99437278910662,2.264039534214,-0.115925154203192,0.0110083427699114,0.0257850612039518,-0.405635748496269,-0.9697484556335,2.02269085987242,-0.0638539487171669,-0.00964849273573019,0.0144874348310863,5.52508879467431,-0.00196105433885126,-0.00218446974632514,-0.00187152551938968
1.12,2.32664934997317,1.99799798345429,2.2668299052243,-0.0819479857192315,0.0358087480266875,0.0232086843228226,-0.409773964684342,-0.971982694844552,2.00702202717229,-0.139803630545962,-0.0583628438813845,-0.0244464049847908,5.5580761203233,-0.00166361047501876,-0.00218370254790909,0.000116314768848566
1.13,2.32660891922015,1.9947370529715,2.27810415119567,-0.110208663327082,0.0195978344427238,0.00970526804206814,-0.391767167668897,-0.997627686979556,2.04228517114826,-0.125574024718915,-0.0547084884067257,0.0205010097590531,5.4945845280063,-0.000742966563027756,-0.00144532673973968,-0.00139350689984107
1.14,2.30856438402207,1.9586771772569,2.28228942071974,-0.123717712837913,0.00168478478746159,0.00934411732492804,-0.43377015430072,-1.01837088390635,1.97016786267669,-0.104415648421928,-0.0445416039846997,-0.0276313773805939,5.53159511772708,-0.000420982376970048,-0.00119038545237791,0.000890718310557475
1.15,2.29883898939236,1.95194450066337,2.27590102572165,-0.110049952252253,0.0116003566546903,-0.00322257423750748,-0.435187624159576,-1.01619557042153,2.0243230422983,-0.0865780610892778,-0.0280528977950524,0.0261466693944026,5.50061232015709,-0.00156597046589738,-0.00226937497372384,-0.0010465130711608
1.16,2.26300305302203,1.91271055137629,2.27874583595156,-0.132177642014492,-0.0111786023493516,-0.0108878589267113,-0.477478542769505,-1.08304976486855,1.96536520923562,-0.157686641194993,-0.0966394803792963,-0.0395220984458722,5.51816910709721,0.00169550636187142,0.000140418713770909,0.00240313236531611
1.17,2.25824941669714,1.89665461031896,2.27815340071413,-0.150559495471331,-0.0288338916974925,-0.0269030155007472,-0.471595455779717,-1.06560743603865,2.00901377874262,-0.0172815408914457,0.00890621244270598,0.0432040694654885,5.47480660977555,-0.001102204082234,-0.00183832797430004,-0.00075738910804021
1.18,2.29345400714115,1.93169447241311,2.34130985842605,-0.0609507077382338,0.047109248430048,0.0411744839059607,-0.426197765319967,-1.0069309520752,2.01377441327752,-0.102448261676735,-0.0439032974864019,0.00373495354703551,5.50177623889811,-0.00343765948788795,-0.00390688367518879,-0.00202775181724968
1.19,2.29800387847984,1.93655554698077,2.34912568852429,-0.103354879217918,0.0185273561196072,0.016128162916473,-0.394234804599381,-1.0877560397453,2.01382515121994,-0.203444731365782,-0.130445385253023,-0.0294064759372353,5.43957701094781,0.00114735681863037,1.85640764928341e-05,0.000667874824957421
1.2,2.29641555252852,1.8935239951395,2.34540382697521,-0.153929812046417,-0.0260687404932071,-0.00653034838261931,-0.428805222580775,-1.07823399995885,1.94890001857131,-0.0264884104631229,0.0155888517206319,0.0201401297072765,5.46196923601261,-0.000862956266596083,-0.0019031955839348,-0.000628620786334429
1.21,2.24627968493087,1.85380259830278,2.30326064160635,-0.114990973591072,0.00127692151782891,-0.015667833659663,-0.508729699163077,-1.11862854380553,1.97052650954723,-0.133497578138826,-0.0882186630260332,-0.0337717471900647,5.48848773182087,0.00035520308850305,-0.00127196011818715,0.00236562050603426
1.22,2.24929676826937,1.86582257998746,2.35790785219229,-0.129390147093444,-0.0117154660686712,-0.0101942347936929,-0.440524262168717,-1.1070295565457,2.00849685382075,-0.0601573437428053,-0.037476896731159,0.0546370589665176,5.40913515952529,-0.00105902624405912,-0.00165513654004985,-0.00207698716724441
1.23,2.27061160887045,1.86415919886919,2.382211203235,-0.0980095464108591,0.0104057446840235,0.0284174415981435,-0.447687340003789,-1.09824705268573,1.94171838913425,-0.115452876674777,-0.0549924519635917,-0.0384071632851143,5.46188947256257,-0.00113109157918902,-0.00223796802838357,0.000519791818959679
1.24,2.24826316439229,1.84337270081378,2.35246279443895,-0.137337281407136,-0.0125789601494078,-0.0251464660637261,-0.459518077302841,-1.16321618585321,1.97468180017369,-0.132374156344161,-0.087404244802357,0.00386922234319788,5.42134313514699,0.00136646770000771,-0.000593712766557475,0.00102268424538097
1.25,2.25616818837894,1.8289279109581,2.38687830630423,-0.130913487238454,-0.012541655636698,0.00437906105461227,-0.449607394666136,-1.12059805327667,1.96289354924911,-0.0194844540072555,-0.0153548536534895,0.0256850766993161,5.41148952466827,-0.0019417879810685,-0.00240901010298106,-0.00139279819456855
1.26,2.30406383304136,1.88378142968034,2.44452628959289,-0.0422854305633893,0.0592071313179917,0.0586954569211579,-0.380932998550757,-1.0629880506804,1.99643849070572,-0.117695614767281,-0.0505538483263321,0.0104857135083298,5.43015773463336,-0.00387651136225433,-0.00474414247756347,-0.00314136470307787
1.27,2.26090775646008,1.83196702460146,2.40812079794943,-0.139833021450681,-0.0126531798640175,-0.00735284131773788,-0.426104864086196,-1.23571030306469,1.96111923577717,-0.245112230077474,-0.189627575957368,-0.0749377261550566,5.37067920311117,0.00456580106658078,0.00196654600378993,0.00391748141662964
1.28,2.21960546319213,1.74143142633754,2.37796107791114,-0.213270980648044,-0.0948170000984706,-0.0654973249034005,-0.514638649136254,-1.20630399371975,1.8917234861271,0.0732944049973082,0.0590689684438788,0.0561615826019227,5.43524320341335,0.00026211395774576,-0.00147406605628608,0.000439779564635933
1.29,2.16325968355742,1.72136451483827,2.35083041195169,-0.10632278873098,-0.0101836536321446,-0.0265243148857583,-0.583486581523272,-1.22927337008276,2.02054820040475,-0.111476498049148,-0.0990728002611084,-0.0333658851968718,5.38535904333833,-7.9396368003863e-05,-0.00183650418312875,0.00285324567617241
1.3,2.17691430401471,1.74466171073874,2.4564696832863,-0.145638634270489,-0.0395351418802498,-0.0305195355653846,-0.475397936281671,-1.24052711817445,1.91936176270295,-0.0960928192359725,-0.0811212138535145,0.048213158830421,5.35987835039062,0.0012348205408963,-0.000291498723242712,-0.000828011567755921
1.31,2.2113065561868,1.73658150444755,2.41536749992075,-0.137848494041413,-0.0294999825646175,0.00463324230974377,-0.49273381884175,-1.21747391316569,1.91836308434124,-0.0392954664427327,-0.0239811920596171,-0.0282422007568532,5.38809145644719,-0.000636419774264935,-0.00219461555415795,0.00113454827088174
1.32,2.19127492257394,1.72596506466251,2.42135445221747,-0.12548129819091,-0.0175879602478551,-0.0342974963844565,-0.500219422702452,-1.25873588104392,1.93554289524473,-0.123832314660031,-0.103419824318221,0.0056135219067663,5.37191604696499,0.00107001700943733,-0.00101071038418582,0.00136991931442593
1.33,2.25277423614951,1.77207236942142,2.50033069495997,-0.0985046239958817,0.011076467055648,0.0376864512607855,-0.385984309062065,-1.17264004626071,1.9705736106061,-0.00321646359241327,-0.0090833549797787,0.061467335718046,5.31110328541596,-0.00374126271273693,-0.00412368946438466,-0.00462638725489673
1.34,2.26647367752544,1.76996727066452,2.50587482796213,-0.0688308985294033,0.0276346259374176,0.0433542139930992,-0.400870864850704,-1.23498094061979,1.88581973698939,-0.21603102070915,-0.147234905483184,-0.0827543835613401,5.38102927090805,0.000477205633292988,-0.00129052329832912,0.00192458485019251
1.35,2.25287942012258,1.73468681823088,2.47525507939159,-0.163483339169315,-0.0346965403974264,-0.0246014238615358,-0.398063758735104,-1.28426206968233,1.95458485701664,-0.0535851185862121,-0.0368922794827574,0.0508693471634805,5.28198577180932,0.000894960585310834,-0.00130816941567285,-0.00123681747410964
1.36,2.24660016376334,1.70373409285738,2.50578573066625,-0.102075306781878,0.00672957770568854,0.0273211086312859,-0.453499755601967,-1.21300995910898,1.88255997087704,-0.0368309188332802,-0.0493210904129129,-0.0197875764076052,5.35881522086678,-0.00248252206631548,-0.0033123658065408,-0.000309790566035466
1.37,2.15431846483276,1.65074848248958,2.43784347986832,-0.159188550824242,-0.0620091902363413,-0.0630800625525111,-0.524133716879925,-1.39573131711044,1.8767463475964,-0.227180364610013,-0.177533927788323,-0.0523900582934164,5.35646828492033,0.00612882838753531,0.00193902942276705,0.00547101267008671
1.38,2.2238600828392,1.6770974990452,2.52643221993306,-0.14927751339952,-0.0305585483102781,0.00392141935121781,-0.426674218710384,-1.21184371225158,1.99426583877172,0.192945302680649,0.100177155134028,0.142528665315067,5.22282434249623,-0.00599829326486314,-0.00596788902992796,-0.0068767743263854
1.39,2.21750757644401,1.69605309553205,2.55572936735209,-0.00669964003147072,0.0483462855440632,0.0625493709306076,-0.459943694238236,-1.27231257215489,1.81796475791351,-0.326077693902609,-0.229513329268626,-0.145427681133525,5.44314596946929,0.000799534094502639,-0.00127470759259429,0.00402658408470327
1.4,2.18359511995671,1.64843607577037,2.48002002820574,-0.23958950573538,-0.10232544605014,-0.0807284912871904,-0.424422715145351,-1.44940871020405,2.03314738676889,-0.0733787012106493,-0.0539827719003327,0.0701422518147337,5.1852777838982,0.00582751988892221,0.0009383887484911,0.000500154677612657
1.41,2.17179632071693,1.55139699621922,2.53599387943151,-0.160523746682529,-0.0467422297165049,-0.01291667802213,-0.566958106408935,-1.27931646324207,1.84546244893572,0.125025186844459,-0.00581686930169159,-0.0216966772222183,5.32018261160649,-0.00329691137071303,-0.00322029662324968,0.00164624567061975
1.42,2.16146644030789,1.64875283478187,2.54916599973249,-0.0405314988758562,0.0100226598811109,-0.00438227739054682,-0.460411851886607,-1.31576634845484,1.93310850304175,-0.210973431721435,-0.131098130521724,0.0367611124470057,5.29595949765461,-0.000594924404077214,-0.00225038364371987,-0.00146567421323953
1.43,2.23639605721637,1.67078644809233,2.61872013139895,-0.136658621421832,-0.00310439322187245,0.049838826275991,-0.347537144113561,-1.3682243679395,1.92751095296223,-0.0695010021881282,-0.0656103041728561,0.00220465172762968,5.17439933399845,0.000318797840953726,-0.00229075236762596,-0.002443119544501
1.44,2.23761748062483,1.60444701119836,2.57319365266794,-0.114099769552315,-0.0100765970673662,0.00607250473720847,-0.421059735710898,-1.32475542486551,1.77634373654229,-0.0609657854257737,-0.0926543155290801,-0.0460209488276241,5.33295830071689,-0.000842292317723883,-0.00176485581868165,0.00191146712919591
1.45,2.2190376014448,1.62365606696213,2.55575482295626,-0.102383461248281,-0.0128123027810348,-0.00363387251081081,-0.404803702765855,-1.36289655180182,1.94147488796694,-0.101342694285525,-0.0642846119392621,0.0538415619546139,5.21032613863783,-0.000371267798834897,-0.00254968260992247,-0.00234912773643128
1.46,2.20052509618184,1.57909445713793,2.60689616442571,-0.137181241900245,-0.0204349910423681,0.0160543311654105,-0.438230164481539,-1.4054011704576,1.80364677727542,-0.0972880342731424,-0.114837556321045,-0.0528376104125924,5.26571766338443,0.00149520850155349,-0.00113320269664247,0.00174502676826752
1.47,2.21140972605616,1.58191522366786,2.58227995968392,-0.114656522524021,-0.020008211602935,-0.00479425954393857,-0.4081741186348,-1.35009103173942,1.89033417790784,-0.00428364162407871,-0.0377448860797086,0.0530762805124353,5.21953861465752,-0.00221849455158141,-0.00312245593786763,-0.00225847709727995
1.48,2.1649177233763,1.53750534535661,2.5863013487686,-0.124472096051579,-0.0367179161550506,-0.00762947968163587,-0.482876112377443,-1.46243257576673,1.79671752606965,-0.193458440038515,-0.15879615209869,-0.0722188461403293,5.27306063510159,0.0037312960479309,7.04082631028544e-05,0.00378016489357487
1.49,2.18878613677376,1.54349433414622,2.60253075646365,-0.155124147133725,-0.041708863393031,-0.0163109388409902,-0.417960690038196,-1.38993310040696,1.90349567829119,0.0836240418635454,0.00929227823950477,0.0951284497014893,5.16922228464203,-0.00230873379222367,-0.0037151714688966,-0.00371968016088795
1.5,2.19795999134621,1.54945839085079,2.64656022690777,-0.0494876359092948,0.0195547796493767,0.0504150880257857,-0.434266442846877,-1.37292986773343,1.8039820173759,-0.165013726227167,-0.148205415648106,-0.0705471500299309,5.28086595021335,-0.000920132404931961,-0.00258369632633954,0.00100663793359316
1.51,2.17433684906973,1.5320587529574,2.6121742824684,-0.166872509271627,-0.0584419353050244,-0.034993846069597,-0.397450379982463,-1.52460979720472,1.89146959390092,-0.123419923522765,-0.113609646401786,0.0178940043907611,5.1425038730513,0.0039560455719631,0.00015210853694185,0.000802767849719629
1.52,2.19522392899319,1.47500296242775,2.64930288923537,-0.142452976462923,-0.0363335991007387,0.00685432952957949,-0.456651074863904,-1.38774928581883,1.78784103217306,0.0842440108055697,-0.00737741183712872,0.0199328619477315,5.22172040954111,-0.00277256377277768,-0.00380347784163601,-0.00125538592211042
1.53,2.19746759653149,1.5466630984665,2.66255332542871,-0.0323227521305903,0.0317560023488017,0.040707076668134,-0.391141498377934,-1.39522818380773,1.87467228922609,-0.166346133019753,-0.137744196578421,-0.00161434010678946,5.21384851442385,-0.00168871583560994,-0.00352962613975112,-0.00177769996053317
1.54,2.1851342017264,1.50042533837673,2.67428311337978,-0.163485524578357,-0.0507737182192128,-0.00347567491955262,-0.369139976444888,-1.56726284221589,1.84238725195141,-0.148422572246061,-0.153400690160868,-0.0378645124290158,5.11934732167448,0.00462732509458944,0.000876176913386817,0.00195458981134861
1.55,2.21206855294154,1.44539919384238,2.67422421623017,-0.14082943527325,-0.0431030744060915,-0.0038105432679381,-0.428921389306052,-1.39933203888658,1.77815252281674,0.120343563847413,0.0315982431198691,0.0548472894301887,5.19138782663751,-0.00369922584086642,-0.00457811262285041,-0.00239631020396981
1.56,2.1381342495362,1.45269615584459,2.63489668337968,-0.0729333758658013,-0.00929512968784697,0.000178957043033064,-0.480493600863155,-1.52112551698209,1.800171604498,-0.249915398542286,-0.216146571356069,-0.0718327385771974,5.22601671579322,0.00304830945231431,-0.000440940041029613,0.00339548713832735
1.57,2.17008487905226,1.45406915134071,2.69818512347303,-0.177046103738516,-0.0647318483431095,-0.0134696386244622,-0.366201738792949,-1.52538312942634,1.86849526354132,0.0583089882531204,-0.0123867057461583,0.0898426179916613,5.07078221192517,-0.000105913191412655,-0.0024048455746004,-0.00362049573086676
1.58,2.22132268232506,1.45237999344347,2.7365272581254,-0.0393744548991391,0.0319858348190692,0.0718176665146879,-0.405946313917416,-1.38295138655653,1.76380519660506,-0.0545038892772119,-0.0840281153867322,-0.0484343931147808,5.22515747439819,-0.00395230405216793,-0.00532980567150648,-0.00103059202203626
1.59,2.15150109952592,1.44529765487488,2.67648897678878,-0.133558049975038,-0.0434746472040714,-0.030921584652743,-0.376461799852706,-1.63838885546456,1.84877474477336,-0.250298459879736,-0.235917097361469,-0.0320596732364682,5.0892454252707,0.00622487255768806,0.00193143474777627,0.00298175103223182
1.6,2.15590815316924,1.33257611897032,2.69683238615631,-0.21923130655027,-0.11572766322421,-0.0407732595720627,-0.464293516046997,-1.54578458972843,1.70676586584364,0.152608665728991,0.040944667240294,0.045959603426953,5.19451584709213,7.09114189392253e-05,-0.0023582265852386,-0.000257018972512573
1.61,2.11933620304062,1.36059040766287,2.66164669126298,-0.0567721898599461,-0.000699225472135606,0.00251293765911684,-0.513612041746751,-1.49829859577754,1.90001346495486,-0.0905672275934606,-0.128440594788008,-0.0210536022937531,5.13282169731864,-0.00173282295713219,-0.00380095978864427,0.000883309079743655
1.62,2.13174741741564,1.40412936905787,2.79208638993148,-0.124013210318994,-0.0392294106358964,0.00277235735299746,-0.354295685306061,-1.61672550220702,1.77744466363565,-0.138145527648918,-0.159455236908925,0.0291920020720482,5.05893632292284,0.00282085499447528,-0.000145694024160665,-0.00151888965678172
1.63,2.15745222068731,1.31561005605145,2.70224966498591,-0.170948122674727,-0.078761790135525,-0.0073040726944465,-0.443625334697125,-1.58679658906256,1.6817682651995,0.0245826017946784,-0.0432847840131585,-0.0448485952529584,5.18425788377095,0.00116484297814922,-0.00177993983029101,0.00245251643164013
1.64,2.13521226348688,1.33411710570234,2.69712098874238,-0.0937866006259523,-0.0218173789452207,-0.020503043715132,-0.451904468807183,-1.54802107399479,1.85239328206382,-0.0321054150470864,-0.095295657583785,0.0501555535958268,5.08842599541134,-0.00129021390624947,-0.00347075112397535,-0.00141041599426546
1.65,2.10051502916269,1.31072048869528,2.75606962931711,-0.139848472842179,-0.0668104582705198,-0.00762190497053321,-0.429087308795962,-1.67371217906592,1.69509495134775,-0.150783733942326,-0.183915621573556,-0.0524164134251623,5.12758736145452,0.00455381450022497,0.000869377327808883,0.00282915073872174
1.66,2.15943338364701,1.30562871699417,2.74152994471096,-0.14286772926532,-0.0598170948717495,-0.00780875056965957,-0.400987913803815,-1.55854415340115,1.79987873829371,0.121317538095284,0.0261407925994955,0.0759702805737539,5.05381112364435,-0.00275099359569636,-0.00462698823877279,-0.00322468796619763
1.67,2.1253803373796,1.2989684868555,2.76202750830287,-0.0654097103798273,-0.0075950738976191,0.0192055363642746,-0.44528661752489,-1.61708335550074,1.69178602526062,-0.200005043110796,-0.217147891932697,-0.0804716512397393,5.16377981620996,0.00212146968896202,-0.00114012663070032,0.00288765463978553
1.68,2.14181240512848,1.30411438413654,2.76322655904934,-0.166534960345894,-0.0774594276028382,-0.0217898621108054,-0.33114985090036,-1.67616712656607,1.81703368700656,0.0182901296222566,-0.0531158649602899,0.0745148162855775,4.99337519133807,0.00132216155004681,-0.00152055419238309,-0.00251098264289476
1.69,2.17988779665094,1.26465650532636,2.81079171240396,-0.0799278292740086,-0.0102690254034292,0.0437576471237625,-0.413222211038453,-1.54980486699941,1.67689127043186,-0.00911629499258042,-0.0764644473249921,-0.0412961262941018,5.12429605618545,-0.00228488247565417,-0.00435232219005952,-0.000108810282224835
1.7,2.12448896916359,1.2850130460072,2.76160546591708,-0.110502948756433,-0.0395407114062601,-0.0195468397713619,-0.361163494225081,-1.71368531879368,1.75784443652702,-0.171944039820634,-0.200414308468197,-0.00532777675622204,5.04648394218289,0.00377980948415426,0.000139144053804562,0.00115984638200185
1.71,2.15443076799525,1.22202076868685,2.80201003033829,-0.166460751966699,-0.0813668574479296,-0.00297143390519062,-0.374360419577811,-1.66186713777927,1.69196788261914,0.0811545494204547,-0.0198430151345356,0.0287599260584207,5.05463008520841,-5.91460665801494e-05,-0.00252487659248421,-0.00123535196446367
1.72,2.13207354686409,1.21797620381943,2.77743573490027,-0.0767246685995388,-0.0202894948510749,0.00630289399557589,-0.437770683223003,-1.63314800178223,1.72305530142819,-0.0820799928624643,-0.134169257228319,-0.0315378053261017,5.09003864659741,-0.000185340724027788,-0.00298831888539304,0.00117579329903865
1.73,2.10361484471887,1.21991219836946,2.80550042149751,-0.143906171159584,-0.0689256367717535,-0.0222316559882936,-0.36286234695517,-1.75584405434531,1.72520090217715,-0.0897749528407322,-0.152527900759476,0.0186911448149947,5.01498428185952,0.00360171840480392,-6.9233213634184e-05,0.000145840537661831
1.74,2.16295265429071,1.19249720325551,2.83344065161339,-0.118202604450352,-0.0471110692673962,0.0243830093514183,-0.369765719352546,-1.62482036803733,1.69350959670255,0.090485927720788,-0.0183276558902624,0.0209716183476977,5.03011110795322,-0.00260950083074496,-0.00435959765728858,-0.00214862958615497
1.75,2.13080323603652,1.20797399889083,2.81905018900775,-0.0663592025504539,-0.015339602222027,0.0117127355617203,-0.377816867211784,-1.71086962905578,1.67761040936978,-0.178854509091288,-0.201590407517482,-0.0452251404781228,5.06974520227851,0.00213464884172249,-0.00136414121825471,0.00156610450771444
1.76,2.10285884814962,1.14166259415128,2.79655116797489,-0.197082358273116,-0.112941171495478,-0.0447293196785528,-0.367022415933158,-1.82312477108631,1.69696330622557,-0.00912041067073036,-0.100910331576235,0.0150390281479926,5.02629699007202,0.00465016812524698,0.000150080394479416,0.00138794241009941
1.77,2.16323932593255,1.14385426534003,2.85862361869085,-0.078619822626272,-0.0204128468224099,0.0319081433653327,-0.38518783908607,-1.58321311753522,1.76300543532386,0.140991935026595,-0.00507277864400037,0.0540796271534857,4.97415200000267,-0.00565789446507993,-0.00660535848885327,-0.00404721332420189
1.78,2.09289747475493,1.16836395220915,2.86429876790044,-0.0655946690608868,-0.033899227409427,0.0071880210444254,-0.363515825100328,-1.82598692036945,1.59935129864509,-0.318332625576927,-0.307267837970771,-0.102725273834532,5.06507300236346,0.00636482268138263,0.00175413436298578,0.00451197321531181
1.79,2.13429305114303,1.0975069566442,2.81973786377472,-0.223435926919373,-0.133260852189911,-0.0435601508441885,-0.32750439188463,-1.80918371003372,1.72468593232074,0.180739074144446,0.0492137028771211,0.101123619788489,4.97232839361924,0.00111827371860223,-0.00267203794372448,-0.00273986118322429
1.8,2.116603499706,1.06316123646451,2.8495155146764,-0.0473302553454565,-0.00592451223683942,0.0276481410187412,-0.465441894460834,-1.66080949789457,1.69979959199241,-0.0403447804592218,-0.151311522288924,-0.0716054375945199,5.04453407254269,-0.0020436576682341,-0.00411371620556446,0.00205008362350749
1.81,2.07162625976386,1.1258823611242,2.88781152204996,-0.128601454747972,-0.0800807097423036,-0.0350585920044035,-0.303322295516058,-1.88159014758676,1.69288918077245,-0.162371984467156,-0.200974938623888,0.0382110273382502,4.92548866317011,0.00547214356706497,0.00124140784984989,-0.000165936396819566
1.82,2.14858911760514,1.03966357616818,2.88198352646164,-0.16344740839403,-0.0850380953280756,0.015476572451646,-0.370024428814518,-1.74722719103114,1.59348360146841,0.158205446860625,0.0133516671943452,0.00244027084933996,5.01304319129927,-0.00130502295219998,-0.00399000654457788,-0.000863792581332372
1.83,2.12935052226799,1.09626330482173,2.87290013592122,-0.0223213233462367,0.0114083454800063,0.0247500689680925,-0.350726276949277,-1.71358530141889,1.70407760902263,-0.106236146204234,-0.176784939875479,-0.00184440390298747,5.00295717016421,-0.00138517771548167,-0.00384274853117161,-0.00110237762814511
1.84,2.10435867826282,1.06845914563704,2.90696137770407,-0.154546456362139,-0.0923608845226108,-0.00936419234600725,-0.266214387914674,-1.94368447370218,1.66602434079996,-0.13254211336823,-0.195208007426792,-0.0293177744919332,4.90480221882029,0.00641152002576544,0.00175088779754694,0.00182370453991004
1.85,2.15522103659071,0.978783872176913,2.89696780392954,-0.152731471804661,-0.0895699953583836,-0.0135060084863193,-0.377707634227539,-1.74658456060686,1.58454566446242,0.192980595344366,0.0331679533719646,0.0434516654580488,4.99341258838867,-0.00248265924786954,-0.00470692226881044,-0.00143099961414204
1.86,2.09182394274058,1.03634423813142,2.87833837718079,-0.0313693997920329,-0.0071024257704867,0.0178358866138623,-0.374582416129018,-1.79519580650892,1.65781328383077,-0.173054316961818,-0.225953626690576,-0.0340622302101194,5.00138522445889,0.00123723378281473,-0.00215926465304621,0.000728703491225365
1.87,2.09632840301238,1.01263235322063,2.92267730851034,-0.175473110655746,-0.108628113033033,-0.018723228127807,-0.261332704709906,-1.95400408334814,1.66562653550198,-0.0216231485743616,-0.124280732437694,0.0150181438743216,4.88060865462422,0.00474528433729509,0.00044014301355998,0.000160082968481738
1.88,2.11568487479992,0.907792671903026,2.89523974524575,-0.138024999765065,-0.0895893079054737,-0.0219407974151054,-0.424804538206201,-1.79944167690059,1.54896707838644,0.105366066801536,-0.046342101841248,-0.015736654868263,5.01484317959543,-0.000531074049869397,-0.00328262989045761,0.0017540207885928
1.89,2.06899893766302,0.986531637232537,2.89875474719352,-0.0666168908624764,-0.0397006129870643,-0.00757374896418303,-0.350394179108357,-1.84705405125567,1.6748407274218,-0.0906043050147413,-0.173938264180866,0.0351488046612699,4.92146467816596,0.00108118313433267,-0.00217035923800634,-0.0013449564500205
1.9,2.12786251399016,0.988676161617518,2.98314239608174,-0.113824238641382,-0.0603358468774943,0.0390030784730129,-0.239132922852729,-1.89016623261483,1.59538332872982,0.00234225260077793,-0.107577347880737,-0.0051086617122858,4.87606794189424,0.00105775838537977,-0.00194130047905141,-0.00162601599270653
1.91,2.11950752659158,0.904446664671071,2.90570374243014,-0.12166952354811,-0.0792722534220184,-0.019833312669808,-0.342193476896508,-1.90768292286909,1.50977888541958,-0.0372331674012121,-0.134884501849042,-0.0480173737716944,5.00266997282352,0.00285400423494537,-0.00122548263882199,0.0031812981064447
1.92,2.06958668088953,0.881733021350184,2.8789319498616,-0.146040415462793,-0.101349480263969,-0.0483050308968237,-0.357004343588766,-1.93432062646616,1.63339849880819,0.026568558788878,-0.113588268722496,0.0466671002907305,4.92413849325939,0.00257515826776315,-0.00131965070557355,4.76806667425565e-05
1.93,2.12167472032081,0.922102694940695,2.99399168872714,-0.0654325916032605,-0.0360682010975271,0.0461651155459755,-0.290411401127808,-1.80656040170056,1.61667881473729,0.06637684336609,-0.0740365930061949,0.0261329495815214,4.86915526411216,-0.0028206132782375,-0.00476178503404369,-0.00343725567129885
1.94,2.13137079038046,0.947317592689006,2.99309562084611,-0.0568128737421178,-0.0303587284467126,0.0356257116467884,-0.224084906410287,-1.94478238701385,1.5362701446584,-0.159359861025866,-0.214076988915163,-0.0545399474263033,4.90488778980298,0.00296539193976342,-0.000854303940309109,0.000869190078728331
1.95,2.14999054724294,0.86996916350575,2.94985900611199,-0.155754556544805,-0.0959810728636589,-0.0127037370341288,-0.22178291301271,-1.97636381611792,1.56735785779062,0.0644078693621825,-0.0671574554588008,0.0301251673176775,4.88019920036589,0.00223420411900759,-0.00164994283777169,-0.000846659863740929
