time,x,y,z,roll,pitch,yaw,xdot,ydot,zdot,p,q,r,thrust,roll angle,pitch angle,yaw angle
0,1.01841953230695,2.01841953230695,0.0184195323069548,0.0184195323069548,0.0184195323069548,0.0184195323069548,0.0184195323069548,0.0184195323069548,0.0184195323069548,0.0184195323069548,0.0184195323069548,0.0184195323069548,8.86278667070708,-0.00525674780835478,0.000530674348485543,-0.00175517580910122
0.01,0.619371765481798,1.2193717654818,0.0193717654817975,0.0193340057674275,0.018668436951739,0.0186393645580698,-0.0580904562833209,0.0946843558383248,4.00750499073103,-0.204302705408316,0.0306660606235169,-0.027492216732136,5.87653542817164,1.90546777396151e-06,-0.000286695649230735,0.000413336642424208
0.02,0.642995401306742,1.3706052444279,1.62744013133016,-0.0814446586185691,0.0139541381216007,-0.0100034588600235,-0.0229024469469896,0.0274470873195373,1.02323483374536,-0.000626706467909169,-0.00825523064782295,0.00967310413798023,7.1556141894547,0.00031319607203117,0.00094985106061468,1.53084489154029e-05
0.03,0.66350098083284,1.34939422915525,0.44503736305892,0.00523703995199913,0.00355102823529501,0.0105283201307931,-0.0300110655619963,-0.179479192010153,2.33687936190286,0.016215057193364,0.0425563522361404,0.00560265558366114,6.93129942338274,-0.00327177177871817,7.97578724530935e-05,-0.000767081112075401
0.04,0.638073089682104,1.24345957452288,0.977283396799245,-0.00776501849169586,0.0041901097472808,-0.0118386724791026,-0.037247953484239,-0.0167065856190324,2.10712640571901,-0.146188121490997,-0.00748697534387096,-0.0276394173312212,6.74436480641236,0.000692504156944487,0.00131210879704154,0.00186349782521725
0.05,0.687646327401302,1.36185196963609,0.931537438019989,-0.0280771083113877,0.0296146606857385,0.0215718941776737,0.0368113395270581,0.0328714770195741,1.97673559133197,0.0518230167147907,0.0784564069242622,0.0660968145953457,6.87870353498409,-0.00368640368522511,-0.0019625254455423,-0.00414274537386668
0.06,0.678067311063815,1.34245779084752,0.861893073811896,0.0210659705365791,0.0316830917688896,0.0265248011018797,-0.0668230773801835,-0.0640186315292708,2.10670779168539,-0.153420356755085,-0.0734215486888448,-0.0874188965196098,6.84010022864683,-0.000553370229208506,0.00139848912921617,0.00288313840951438
0.07,0.676309415580187,1.34347581607483,0.96416066525825,-0.0292662563387895,0.00584671175731168,0.000181785946177251,-0.0202024995535101,0.0861495091582286,2.11506852920111,0.000619890438909441,0.0851114447650803,0.0888756512218773,6.74720511068128,-0.00280177638895435,-0.00126540001495152,-0.00421614793376739
0.08,0.659191705353696,1.36832044036525,0.944623156263654,0.00353265141026622,0.0381712359338839,0.0391837600352204,-0.0198107147890265,-0.0548317524724425,2.01527131993027,-0.11650558720929,-0.0440966720310134,-0.0859797117977462,6.84580605178179,-0.00084548454468113,0.000388512826953239,0.00221825392554559
0.09,0.675340567233385,1.32737698547229,0.93318260372488,-0.0330578884609794,0.00023456169279213,-0.0177129400157085,-0.0657121417847127,0.0198117330835749,2.14388435501237,-0.0271280523170056,0.0312823523854221,0.0598191534007402,6.73455115178659,-0.00171593383567854,0.000163902057812494,-0.0019976660714225
0.1,0.606428781762106,1.30760369948097,0.95132506718503,-0.0419209625651443,-0.0145306669920852,-0.00347006467895702,-0.0698287195096044,-0.118462395253286,2.01258512253832,-0.099065862761677,-0.0166533655435407,-0.0661607367748202,6.81614669147652,0.0012611058155083,0.00187084338681676,0.0032948349582044
0.11,0.625215431582897,1.27183789790038,0.927379013295864,-0.0559740765030523,-0.0198665216425133,-0.0387991664606235,-0.0172931159632174,-0.118551806939558,2.12683946759903,0.0329085691633689,0.0640015289857826,0.0579423909759254,6.73509795862479,-0.00135174459319919,0.000297507714022719,-0.000909945549133938
0.12,0.68560563862584,1.31085851107375,1.02302033811291,0.0331727076147127,0.0495817264968782,0.0461850277603326,0.0497420589117949,-0.0844955894748332,2.09828153179255,-0.0430497451044562,0.033244303400226,-0.000174849680781346,6.73948759782999,-0.00404425863329696,-0.00214091431339877,-0.00216244214203337
0.13,0.669097422923623,1.27997748468342,0.989872992123354,-0.0332560052765651,0.00249119080318818,-0.0134906656009392,-0.131561164798069,0.00715722849773226,2.09052242488319,-0.18165209533843,-0.091803410929998,-0.0568235485208656,6.73310641271385,0.0021640597383616,0.00265086961513512,0.00333003559160176
0.14,0.624969356696445,1.34716163535916,1.01559138676535,-0.0659199441351301,-0.025797334176743,-0.0104432830635794,-0.0127123772939617,-0.0654622088657515,2.1178079981266,0.087660535710001,0.114683646653384,0.0788575566478312,6.67799139595514,-0.00291255093865505,-0.000896545515339471,-0.00323771047500935
0.15,0.650488945367717,1.29495584815446,1.02660024356966,0.0240860565063532,0.0389418682274549,0.0232877953273597,0.00591144868825028,-0.154314452354767,2.07130391754791,-0.133907303677995,-0.0374922519707562,-0.0751560135362991,6.7429991368523,-0.00120888886191277,-4.7525032620676e-05,0.00245992526849734
0.16,0.664902413903893,1.26495772719677,1.0272534635351,-0.0613627065785162,-0.0159035320483658,-0.0325865784964434,-0.0962425963086084,-0.00147138139314457,2.15405816397605,-0.0609764066985011,-8.05809382119285e-05,0.0491429112719873,6.63985718024752,0.000307946094627408,0.00124475070259995,-0.000787524328540982
0.17,0.596731180445748,1.30144539506375,1.04264569588551,-0.0562379342342506,-0.0241416090863407,-0.00518577393304712,-0.0471908019532946,-0.179755708783482,2.05052146539552,-0.0179900202210983,0.0273515787331137,-0.0386933556053473,6.70377929414793,-0.00024711209847666,0.000974910147130852,0.00207464854883332
0.18,0.620889467710014,1.23195644085794,1.0228080945503,-0.0368415576442985,-0.0117238114288303,-0.0394988181312199,-0.0252917650204993,-0.178888879407141,2.133378262141,-0.0391526363205168,0.0198308066151749,0.0233863296133933,6.65380372124267,-0.000544491906040111,0.000666042178453507,0.000757425651586611
0.19,0.67669744519009,1.27933470839413,1.11033298329625,-0.00308665301840819,0.0280365502885517,0.0279424481510235,0.0242720667334677,-0.0792109797916562,2.13388309843394,-0.0161813539901499,0.0431642805433396,0.0314144022081607,6.61728351381311,-0.00342097701446624,-0.00172204611978366,-0.0028010043331875
0.2,0.670116638468863,1.29274453540428,1.10197536053568,-0.01313722632728,0.0175853643658695,0.0107228364456879,-0.0665616453330757,-0.0628397614931732,2.09691755983486,-0.149878400763054,-0.0654608151406869,-0.060528000342408,6.64851969064684,0.00020343943632313,0.00120900873419255,0.00235889677604349
0.21,0.61904089843043,1.28584971398246,1.08355202528546,-0.0815754678941279,-0.0402353336545949,-0.0383788011370136,-0.0779102836666605,-0.102031192533583,2.13253450314006,-0.0165228173487598,0.0386545649251537,0.0368099472807828,6.6005284615371,0.000336511020034594,0.00110559504708262,7.16170554127401e-05
0.22,0.616616794663187,1.27170606391914,1.11186273477041,-0.02852419231658,0.00265783776759854,0.000611160565723315,0.00532010460548782,-0.209216901325824,2.11463219701121,-0.00948137108840775,0.0326806718807826,-0.0107984665258989,6.60094754630355,-0.00194601235254809,-0.000450870458290099,0.000481815476703343
0.23,0.684973159424747,1.26066345489135,1.15403501040462,0.00525254698403192,0.0315055006326064,0.0114554953152159,0.000403547192987061,-0.0837147773453465,2.1459010309249,-0.0762864535805825,-0.00138635025587813,0.0236750402724851,6.57972494710894,-0.00255050831047898,-0.000980892816332166,-0.00165528807264637
0.24,0.65945263206482,1.28908959196232,1.15722356365629,-0.0391409516041749,-8.38477370990257e-05,0.00798135038650676,-0.0708323318352702,-0.0668482390293582,2.12763807802094,-0.116251265906033,-0.0371121182838179,-0.0362781415158756,6.56395046614095,0.000331433298166334,0.00110997794718704,0.0013389991245358
0.25,0.644088182117985,1.3099966531719,1.17100678951851,-0.0449592805339867,-0.00352109529184193,-0.00435266589622075,-0.0105133318307767,-0.110948395787416,2.13756848604328,0.00886304081196416,0.0540630351222525,0.0361570165361413,6.53749584709478,-0.00241461112639838,-0.000904502039532265,-0.00150499527710375
0.26,0.665124385219732,1.2872336601281,1.18934424635131,0.00299004029902115,0.0304964943191611,0.0212873338192608,-0.0101230922081459,-0.126176863578041,2.12621573487643,-0.105020759131441,-0.0263884020301447,-0.0259841229021357,6.56215224161532,-0.00178104378354844,-0.000531490080525781,0.00023022515883464
0.27,0.673059225446621,1.28831526669702,1.20501657978887,-0.0367379861280743,0.00592175497428246,0.00357792102481518,-0.0451010503720932,-0.0555734717737082,2.17239358688307,-0.0740116553588956,-0.0061493271591785,0.0163487649915983,6.49237716366342,-0.00113753895184544,1.84390539506667e-06,-0.000942642095519628
0.28,0.650006671387674,1.30915532117347,1.22560888881331,-0.0314115815080907,0.00679619146438444,0.0140880983999851,-0.0256581447909748,-0.117396005476968,2.11241796661473,-0.0540720913855542,0.00783918340138303,-0.0142070389688503,6.52226001855866,-0.00167160060645078,-0.000426084949318236,7.75389719538793e-06
0.29,0.622248885889847,1.24680176995498,1.18473315097362,-0.0568205344408467,-0.0203960940826607,-0.0312080769169449,-0.0819045157549616,-0.171092698462907,2.12924220750114,-0.103823990727039,-0.0354551032889196,-0.0216962558710127,6.51793784877597,0.00122235776314721,0.00159560800145494,0.00250208975782899
0.3,0.639000607429441,1.26455073299944,1.23644006329022,-0.0445784180936161,-0.00571337625470547,-0.00114569450490229,0.00365457787268381,-0.15379897673693,2.17358592701139,0.0403664790945094,0.0700163774611525,0.0585694984674883,6.45007942917427,-0.00322400640758751,-0.0014824045590484,-0.00271436189750185
0.31,0.686024575121743,1.28232649696509,1.28317941651395,0.0281141533797606,0.0499940159294614,0.0438561855761466,0.0122219477518155,-0.116698564170742,2.13045803583161,-0.129578247447545,-0.0366746990292294,-0.0401979321105184,6.5140246761546,-0.00268468877892021,-0.00146688376330509,-0.000148775035810752
0.32,0.679224066145706,1.28710649837779,1.27026098057676,-0.0492426480181067,0.00160372158613344,-0.00321280871225598,-0.0707381550270347,-0.0485838700111451,2.20898202347103,-0.114069107856954,-0.0425563782632949,0.00763077364405884,6.40365677342085,3.51762290210232e-05,0.000772886466281592,-0.000207930902643597
0.33,0.579741783409919,1.25141538605008,1.25002534303478,-0.102405871867406,-0.0605766461341706,-0.0411918113346704,-0.112215326144401,-0.233102728900769,2.05744183169492,-0.0533811071677321,-0.00605269802715841,-0.0428155759328618,6.51014227751618,0.00228752089887671,0.00217829006828127,0.00397911803795481
0.34,0.614528458967265,1.22489991438438,1.24900978798269,-0.0378436850564344,-0.00690303664802249,-0.021917985156081,0.0264243410002993,-0.248014257579955,2.23656714897996,0.0716136746775496,0.0824240538032626,0.0796836451556493,6.37607176473516,-0.00401020888549768,-0.00195017276167547,-0.00272844763803131
0.35,0.666445812611282,1.21050066590618,1.33633262830275,0.0120044117895578,0.0268647672051768,0.0248076657689967,-0.0321745623435839,-0.171863332961624,2.09275414064751,-0.185965557157099,-0.0773587605334932,-0.063210169416173,6.4772577718021,-0.00035399435501605,0.000337216121755704,0.00182966525202763
0.36,0.654444146673012,1.25626180434634,1.29815848789546,-0.0807492887833324,-0.0234391935921677,-0.0191142323489688,-0.0495225681583842,-0.10206630968329,2.22116339007535,-0.0282955533003824,0.0225636350398551,0.0434028980039373,6.34658498594902,-0.000514261909519185,0.000100901527097009,-0.00115148249920313
0.37,0.627730813228227,1.26614279871914,1.34251397706942,-0.0337719840538718,0.000847998601008679,0.00780825995289283,-0.0246042549048621,-0.224524445112438,2.09974561410906,-0.0471282685725904,-0.00292316053932447,-0.0327322308472344,6.42304399007534,-0.00170743042481749,-0.000406007460387607,0.00118291437647477
0.38,0.651259762831853,1.22547581463995,1.32555039214051,-0.0320379446215333,0.000794723079811976,-0.0133784079447125,-0.0293362521050123,-0.170698403244294,2.18921591641481,-0.0877193192840296,-0.0136293743118969,0.0248098797511311,6.36689530838476,-0.0010382108234967,-0.00015532719172874,-0.000538927238413355
0.39,0.681228330270362,1.28090273923317,1.40021860667769,-0.0180393673892553,0.0264023605333864,0.040017971116987,0.0203008849223971,-0.119695707951796,2.17377265592132,-0.0356785565247247,0.0200525101210774,0.0138076794951765,6.34402960060994,-0.0034258722407534,-0.00217762231887803,-0.00252804459064888
0.4,0.681912093084934,1.28135305480915,1.39232333465206,-0.011720150204872,0.0255313257891277,0.0206384659377658,-0.0271471326350261,-0.134185786913271,2.15352735198664,-0.145500058067285,-0.0698751127666168,-0.0406846124699679,6.36931446239783,-0.00102794737496786,1.15927330639547e-05,0.000962462712043653
0.41,0.651493601946781,1.26459837843603,1.3859967381196,-0.0677893217511762,-0.0213956436493791,-0.0111060232600221,-0.0486507404143275,-0.148341211870675,2.18373226602288,-0.0588849934626086,0.00680532911820158,0.0239113397887245,6.30638420686043,-0.000528223658345014,0.000119826685812617,-0.00060662174016168
0.42,0.618891991182982,1.23440006830403,1.38757560964971,-0.0561140558866197,-0.0135081048432632,-0.00774700912313048,-0.0449228735972886,-0.23871234151162,2.12145542639291,-0.0571287994272323,-0.00963564570738824,-0.0280849615857703,6.35042580648575,-0.00059653291046135,3.99121327840513e-05,0.00169649155545271
0.43,0.641876381544186,1.21560086966767,1.39627043877954,-0.0395593100655764,-0.00386050213082408,-0.0127163379335495,-0.0225319365348615,-0.210213901781636,2.19052619941863,-0.0467382022677857,0.00163244350753437,0.034344101894734,6.29774975269901,-0.00183679932501082,-0.000635344724411454,-0.00101984772017233
0.44,0.653185581903741,1.22932219093851,1.44006576957448,-0.0313570792638003,0.0044008366116698,0.0163377553691367,-0.0235311644922892,-0.19179425655248,2.15234116572397,-0.0939902252508184,-0.0221146573643548,-0.0197188650788501,6.30491369327902,-0.00125060101760064,-0.000464488691286429,0.000167976730660437
0.45,0.636950477470242,1.22098340118395,1.42266220880978,-0.0644024693547995,-0.0181708207902989,-0.0186107254326554,-0.0515028624175058,-0.211730896118134,2.16105669888858,-0.0821529165143041,-0.0256709931786794,-0.00579350950609033,6.2859289450293,7.98004767269448e-05,0.000495943315745546,0.00115519771158535
0.46,0.631284696067378,1.21830899370114,1.44273656769244,-0.0559071007217417,-0.015739060993842,-0.00861425156785201,-0.0273009732172993,-0.236133108681189,2.16494771612205,-0.0248803295422023,0.0144387868079774,0.0187635869091544,6.2676625641754,-0.00169923885404318,-0.000618210379575324,-0.000477806191955653
0.47,0.656764627589941,1.22156383884985,1.47475805160725,-0.018818624527659,0.014570369422087,0.0151185976123973,-0.00376359174697491,-0.210759397821706,2.17058233612819,-0.0854536824878048,-0.017134812114867,-0.00387505335871477,6.26773557045497,-0.00214910009968347,-0.00119834918992798,-0.000517186423780245
0.48,0.688441798478912,1.25366292498723,1.51069981813409,-0.0220133867568408,0.0237745713374557,0.027183026696776,0.0106046478885486,-0.151477589721139,2.19896847837434,-0.0862282178218305,-0.02190259680093,0.0132477776084057,6.22574246090847,-0.00245858902415802,-0.00148611249233179,-0.00189243603238717
0.49,0.606664080297419,1.19110731068839,1.45581906759664,-0.0987082687295394,-0.0543652998966467,-0.0411604700571096,-0.123394512313299,-0.281969829733362,2.10497971276542,-0.163024654530019,-0.0964261670716365,-0.0794820703740421,6.28163148083382,0.00411191659794063,0.00311501581425332,0.00571885045934509
0.5,0.588783637749476,1.17377189663082,1.45788139884302,-0.103065640422155,-0.0619794128421625,-0.0524504966467088,-0.0249178377328517,-0.308079020270347,2.21791699162016,0.122183416087637,0.10697962730793,0.103463912923236,6.18117820004131,-0.00283055404996672,-0.00130669692602697,-0.00241340696159616
0.51,0.674278814412024,1.2030780918739,1.56435612050154,0.0534100533323905,0.0626295812553403,0.0622315659150055,0.0480963794000733,-0.240579193242721,2.1709166554996,-0.124376487384341,-0.0288213934876449,-0.0334487396709733,6.27243099920667,-0.00446909451802633,-0.00355991844262858,-0.00129171326434347
0.52,0.687941232295003,1.21251479757019,1.54831690399544,-0.0580689793095341,0.000851346273387753,-0.00461835081620439,-0.0505052545211042,-0.160344129716032,2.2617096577616,-0.197734878250695,-0.128001324041814,-0.0185224845083453,6.11405272649931,0.00176829994661212,0.00188569968207697,0.00110681093668564
0.53,0.627399910854284,1.23250631915968,1.56852538077082,-0.104059001956065,-0.0567707760272385,-0.0121955046420339,-0.0360518515742936,-0.252538323850831,2.08268371923093,0.0405070878421232,0.0685871208750938,0.0186344252056248,6.21017452573395,-0.00151970294011446,-0.000526739372156747,-0.000304303155816107
0.54,0.651041122007252,1.2066581556323,1.53346719925009,0.00437888074354597,0.0354710244285592,0.0150258450299082,0.0238226468563508,-0.275687317140498,2.22485052227793,-0.0815795680224919,-0.0144463873423414,-0.000168347051590792,6.18438836784152,-0.00345822191385398,-0.00266789752328778,-0.000666528382276223
0.55,0.646629252075744,1.16325984016196,1.57952054957879,-0.0714610785734316,-0.0240486352969963,-0.0195870491459829,-0.0736149286198968,-0.258000630911384,2.16778276128574,-0.182790847292727,-0.119745264561226,-0.029958966641623,6.14097215321987,0.00257029781325124,0.00242041495054541,0.00235277038650906
0.56,0.60562147893424,1.17541033310926,1.56016944048494,-0.113352963402822,-0.068494944323207,-0.030980987022509,-0.0431107123304793,-0.303932731801384,2.13883871180366,0.0593796926530911,0.0779262456581343,0.0333589445114131,6.15595572924522,-0.00130608614761882,-0.000557946831893191,-0.000112741664132069
0.57,0.647692610913409,1.18092583610717,1.59371069747561,0.00897898413039896,0.0369328977653345,0.0192576883266538,0.0271937182353983,-0.297784871873582,2.2132265960156,-0.0757182324479095,-0.0171887011817579,0.00266647595196002,6.14753423201537,-0.00384147064365675,-0.00289300851436293,-0.000994870800058956
0.58,0.69982427385959,1.20274282720483,1.66253227617403,-0.0228803864051242,0.0217439503825745,0.0285604465389689,0.0136773149713948,-0.200280388325862,2.20929781420062,-0.159746713600679,-0.0899389964514935,0.00282636482161393,6.08632835040935,-0.00100355499569632,-0.000201508170183835,-0.00145950953804407
0.59,0.67216949071307,1.22686987378452,1.64915126921138,-0.0721052408067137,-0.0223160958112122,0.0152586743211415,-0.00493672422884728,-0.238663796498874,2.14257238852368,-0.0576603791942589,0.0012281477868882,-0.0195088234650884,6.10375460016196,-0.00117622585786066,-0.000546551171629589,0.000208290181225646
0.6,0.6404237191833,1.18394492187325,1.61487221699083,-0.0555368541002376,-0.00968485108897878,-0.0175954678493939,-0.025162808473096,-0.305744819171415,2.15765332191503,-0.0852283149528403,-0.0312267173303587,-0.0040550985458163,6.11532345355059,-0.000823785541722728,-0.000599517471920405,0.00103273971988854
0.61,0.665619789200524,1.18571330635789,1.66433993478792,-0.0406236791267795,0.00351354505379203,0.0146648928065672,0.0136356625969586,-0.261342785367779,2.1994001202013,-0.0492635903044113,-0.012021765997428,0.0355678333318678,6.06094697938309,-0.00274023209371933,-0.001634767406933,-0.00235636056025704
0.62,0.65392798111087,1.17588906186929,1.67124724966779,-0.0476729776762568,-0.0108098992142551,0.00931483566127787,-0.0261133122436861,-0.29429944101283,2.13554265431805,-0.1454636926301,-0.0708523353733367,-0.0543419909033614,6.09543956296402,0.000125199765276792,0.000367698607641198,0.00214294308107487
0.63,0.629625952180034,1.15402002732822,1.64819310428412,-0.0961956594386774,-0.0438176602388197,-0.0354913598614386,-0.0350589738091044,-0.318530089088843,2.17506152412338,-0.0388364696421965,0.00190813807039462,0.033379271197942,6.04749276479913,-0.000134635202543314,-0.000149881102021679,0.000100157048363256
0.64,0.633192581088743,1.14930034719645,1.68249577601668,-0.0485866737853108,-0.00894887712806124,0.00495780289772368,-0.0134977090016588,-0.333870105663211,2.15942389645393,-0.0436261208252297,-0.0166757375749082,-0.00515074948074127,6.05761447155212,-0.00223875899499209,-0.00126670895923777,2.40219715013518e-05
0.65,0.638639432953448,1.13504936096025,1.69094390202299,-0.0541075921565467,-0.019572013092732,-0.0138531971972689,-0.0268385422917455,-0.329831067244287,2.16124717637282,-0.132120805829777,-0.0621577928496562,-0.00941583311080421,6.04369155490018,0.000159397127205946,0.000317706174855114,0.00111011749294491
0.66,0.640459611154024,1.14616291655133,1.70769027079553,-0.0825565815002594,-0.0306490782412096,-0.00781989526904467,-0.00991322127158259,-0.323702693770863,2.16672162328305,-0.0291070488664985,0.00556431405220156,0.0200526974629775,6.0099955913369,-0.00123163964687549,-0.000889837471839042,-0.000572720551392762
0.67,0.662776588704335,1.16207772896032,1.73773701593438,-0.0267722572269398,0.011087772383798,0.0185006227244316,0.0191446460813731,-0.312548700961668,2.16452964021223,-0.0733633078198478,-0.0297017938178424,-0.00329966754563614,6.02958394220346,-0.00288298914054548,-0.00191283411020044,-0.000688029700213756
0.68,0.639148837841622,1.12754736816406,1.72195976915484,-0.0759376140106599,-0.0339054979486887,-0.0218216072260492,-0.0412643004531569,-0.35605517522952,2.15762314807207,-0.166892693036222,-0.0949398609707228,-0.0316197132231966,6.00197340871488,0.00200617880572911,0.00151947410038198,0.00253662329182562
0.69,0.646166104489798,1.14397608766546,1.75414725642115,-0.0871693301772276,-0.0343757927974125,-0.00622028515235143,0.0146409588444518,-0.328056451410501,2.17319558308821,0.0528801631268819,0.0610316483917818,0.059228854521546,5.96087782416565,-0.00323578204601222,-0.00228754153415463,-0.00249583348927925
0.7,0.683579196967512,1.16496528939313,1.79242075879504,0.0166397758865146,0.042527771532392,0.0450791279358687,0.0414048059536797,-0.310683361877672,2.15883635729423,-0.147957281597913,-0.0742544814073863,-0.035012197315919,6.03893951312088,-0.00320191949224925,-0.00247586902151201,-0.000408977458906161
0.71,0.67222666159824,1.1473618259511,1.78218872766758,-0.0846960333743861,-0.0289261004157286,-0.0122637500713897,-0.00649808125303997,-0.327005727315026,2.22937871508945,-0.16291189970604,-0.0974019922255199,-0.00667757016610472,5.89411711695518,0.00173115297846481,0.00142188729566714,0.000906411589123779
0.72,0.66412122078782,1.15667037752232,1.82485162542671,-0.0806551895400267,-0.0289370736484354,0.0104256436519831,0.0230721816599812,-0.325132712542058,2.10413714767904,0.0461546302599473,0.0602458707014974,0.0299801812184827,5.96369888130014,-0.00365073775704078,-0.0026106348315495,-0.00189298371581741
0.73,0.661430678294796,1.13448632525974,1.7825666990028,-0.0107080493777919,0.0197632214668262,0.0107091573941784,0.00504701965422361,-0.36341449364817,2.16965891185925,-0.184695697095475,-0.107587169413069,-0.0413169418041357,5.99058277130837,-0.000967242375330009,-0.000788835244187614,0.00148749574391284
0.74,0.699077117322998,1.16326555467113,1.86070174198783,-0.065688571589618,-0.00789973163169373,0.0205294314939866,0.0630079379847107,-0.29279118315151,2.23361179822101,-0.044174879190987,-0.00419427685243427,0.0629520692048483,5.84509892531346,-0.00256225064841897,-0.00186862064629187,-0.00392526966530264
0.75,0.693709900672132,1.16506238889936,1.87192578579311,-0.0292753388426723,0.0115035625556901,0.042400273935719,0.0307885186364495,-0.330074790619939,2.08166867965439,-0.12637900507292,-0.0657355186814723,-0.0692526593180689,5.98218351328988,-0.00194824789678778,-0.00139193887534348,0.00130975433783245
0.76,0.626686355615065,1.09031400710946,1.7773618995718,-0.11591441570423,-0.0644231535650203,-0.0624447266838826,-0.0565366266092014,-0.425960314764533,2.18046247006918,-0.147590882698045,-0.0867551584724684,-0.00193030232235155,5.89870856601522,0.00333516755222165,0.00189604387575865,0.00305056958308161
0.77,0.635256306389892,1.09602710949509,1.86171511876418,-0.0898018953647876,-0.0387887700669092,-0.000791888279279493,0.00999316219846325,-0.381161711001467,2.1683386231723,0.09784411661036,0.0662121360467281,0.0646655274896854,5.86106238847296,-0.00441674168110408,-0.0029107239119052,-0.00300213204158083
0.78,0.622027596408248,1.06483144823159,1.8426820134443,-0.0254277006348921,-0.0130008918246557,-0.00823166263038475,-0.0448283843612994,-0.44523284426947,2.09103769651869,-0.245934766605974,-0.148454656992326,-0.0927012997487026,5.96863517705755,0.00159633298152033,0.00110278518137705,0.0048011563033603
0.79,0.661564926001615,1.10287507222509,1.8759474571382,-0.110872054885574,-0.0461434667534938,-0.0183710882271561,0.0462550377601303,-0.361778827216559,2.24237532227574,0.0392429020501727,0.0560624822141432,0.117516120251629,5.77834801571191,-0.00232546100139482,-0.00218763309945287,-0.00468100326169481
0.8,0.678180752556379,1.1173981726922,1.93009412093514,-0.00729639011585921,0.023706160106432,0.054816702583954,0.025140794687223,-0.378219014561307,2.07420121279623,-0.128364207908075,-0.0858256809850559,-0.0932701031614415,5.95206339903032,-0.00283166560013779,-0.00197023237028428,0.00187829734067302
0.81,0.677409012663258,1.1114204868001,1.89016318873918,-0.0733137034410891,-0.0259939914160744,-0.0257485720989678,0.0362815767858882,-0.387108758997376,2.24146772197447,-0.146161384472747,-0.0720588723654362,0.0493052643311363,5.77964897173266,0.00040916434124031,0.000150797565954852,-0.00109985952327002
0.82,0.684087132095372,1.11457494600242,1.9645647036958,-0.0756980960387063,-0.017489398980805,0.0358353429479489,0.0416860481208612,-0.374809936447914,2.08459012774784,-0.00887497544468095,0.00770551288478228,-0.0100363070078032,5.85416019979464,-0.00291197572986406,-0.00234704199996294,-0.00119356598208
0.83,0.705961074778914,1.13283064076085,1.93750648643773,-0.00455253641298329,0.0312684551319933,0.0289554794398035,0.0733040658895357,-0.359594467465559,2.18246419694127,-0.131024036731622,-0.0731169294478837,0.00169943410797944,5.86042979995333,-0.00333911329281642,-0.00260736430301059,-0.00137709779563987
0.84,0.673551566606265,1.09127036277948,1.95050222671815,-0.0932802039014291,-0.0411371446118397,-0.00617200190217533,0.0107301534866176,-0.434228344976552,2.16343950436419,-0.182469569155146,-0.116747951056085,-0.03532509488472,5.77600527937776,0.00238761958505151,0.00163276861957704,0.00197756115675793
0.85,0.654997166095507,1.06979105678104,1.95276425550593,-0.111063694098943,-0.056699055056129,-0.0172361460205314,0.0103227665820135,-0.422170263373271,2.09967521186269,0.0511580244170618,0.0516994254723625,0.0386545696735448,5.8148180516687,-0.00258719727158283,-0.00210188634603201,-0.0010025593587699
0.86,0.672661362125776,1.08438074443889,1.96238431372868,-0.00284077335652291,0.0255201846806024,0.0272786459393107,0.0390612872395953,-0.411241681733774,2.17048158161444,-0.137972812154626,-0.0823354763547882,-0.012345422578058,5.83867776929369,-0.00303330614312174,-0.0025808086930675,-0.000636231793846018
0.87,0.690801556818513,1.09199412368374,2.01228895698258,-0.0732026681002613,-0.0209388044445169,0.0124867179051522,0.0603770827115554,-0.417502412858051,2.18862364525125,-0.150939960842668,-0.0962762286834964,0.000905074516502492,5.71887686671515,0.000270703513254511,0.000252418150504005,-0.00061090743197051
0.88,0.651945736271993,1.0465265136808,1.98225449513029,-0.118872040852648,-0.0669660026193741,-0.0209511138839335,-0.0126620783262338,-0.472433097487516,2.04216072762082,-0.0508800279101137,-0.020108548147891,-0.0318536051958896,5.82326474932266,0.000462516071473571,-8.08058720103915e-05,0.00250228701677721
0.89,0.640317147239307,1.03539660791628,1.95398499126657,-0.0683470681116931,-0.0262650844041899,-0.0234386193820653,0.00836754418833774,-0.469500412073014,2.19131330692321,-0.0340323989901859,-0.0237312361885905,0.0434281534562625,5.74674380971107,-0.00243086376298135,-0.00198727268576092,-0.000923717717890995
0.9,0.661460207930935,1.04349485518597,2.04200178472055,-0.0501722499517275,-0.0167390438254967,0.0180176567261175,0.0326666959193327,-0.458509456983242,2.10485811305271,-0.141738615995583,-0.0898149262623216,-0.0197129364899162,5.76687976633204,-0.000752569763322108,-0.000589756404639,0.000111240375335625
0.91,0.615277269720953,0.993034333416434,1.96717299206245,-0.142460769991881,-0.0913217875552631,-0.0550875320641586,-0.0414459518548874,-0.550431822932204,2.08869903143025,-0.115811817344108,-0.0736362597831913,-0.0378947776336671,5.77485932880243,0.00367711248213906,0.00167009839057648,0.00440371876888039
0.92,0.666449359998492,1.03629843253174,2.04053774072952,-0.0632804579804201,-0.0172753122843683,0.0055728641651459,0.0671216112416875,-0.431379392775704,2.21926525471224,0.122571877872546,0.0705136565633439,0.111266243484417,5.66505120539101,-0.00686297693740311,-0.00508578070831444,-0.00546707545647878
0.93,0.659832073799374,1.02303614337998,2.0736331992321,-0.00597018966679505,-0.00361791407573747,0.0262357199210202,0.0131154136556502,-0.517086676456598,2.02679179790714,-0.34026345906147,-0.224116834318994,-0.132638710458939,5.82829756892148,0.002498916286119,0.00177511828994275,0.0050891847169403
0.94,0.684993980128295,1.04105786118465,2.04311637430146,-0.153220451628421,-0.0803159913912893,-0.0318051014458336,0.0871798779913951,-0.471107612273936,2.23562889988926,0.0665823072660504,0.0831794510207583,0.125036152656727,5.59496462088549,-0.00144733866818064,-0.00214246607986718,-0.00440561194725869
0.95,0.669576063404157,1.01308321782722,2.09541691970409,-0.0268745759162693,0.00845711394432057,0.0360976615884821,0.00657470687710171,-0.489017255234072,2.03143103571121,-0.118671766308225,-0.108677848493227,-0.106300566772843,5.79942575261538,-0.00240142345873067,-0.0017891795595636,0.00337353762238536
0.96,0.673581029008052,1.0311018330831,2.07034207004211,-0.0774350447565883,-0.0400080987321469,-0.0308355301599206,0.0812767250014068,-0.501386800243935,2.21091307562362,-0.136283360199542,-0.0709298267472572,0.0809085727273299,5.61454040522967,7.51838134674465e-05,-0.000131534128529606,-0.002350946177919
0.97,0.701812547923878,1.02989454095569,2.1453654903903,-0.0804464747579713,-0.022487733444137,0.047513148059244,0.0716527578949808,-0.475552978120493,2.0431743729202,-0.0292535348805847,-0.0113228192898741,-0.0373892457420901,5.70162526704731,-0.00251695056506823,-0.00250518713770399,-0.000445670305935824
0.98,0.678344980131782,1.0140073896035,2.07632435301347,-0.0576332132664781,-0.0174541121905449,-0.0186276569941909,0.0511285198012426,-0.522404758455577,2.11904895370927,-0.152239932784211,-0.115362952846797,-0.0129725921863005,5.69343617248881,-0.000308915110690216,-0.000312781680628752,0.00152303906765339
0.99,0.687405754309661,1.01023960700422,2.13441641961702,-0.0931340884550141,-0.0463737136316294,0.00473467578283185,0.0790794502723845,-0.511953144385533,2.12599534235704,-0.0517560096253631,-0.0196299302888255,0.0404157984723338,5.61960005168367,-0.00134194764789956,-0.00135212673008321,-0.0021171839501833
1,0.682627610230689,0.996132947299712,2.13420131900025,-0.066089654126536,-0.0212102580699318,0.0135922235301446,0.048053471777123,-0.524468584329549,2.06010801811102,-0.104311890880586,-0.072232480134481,-0.047602276921839,5.689237057873,-0.00116091349631427,-0.00140178207169838,0.0016386497283391
1.01,0.686939657287236,1.00279925722827,2.13654749820747,-0.0754636256157461,-0.0296152806349821,-0.0093896473189639,0.0838738326517006,-0.525586203886129,2.13717787221799,-0.0878028239559043,-0.061682146879099,0.0427036406775723,5.61321556074452,-0.00129749224582906,-0.00120204673023343,-0.00155137349521552
1.02,0.664773211480721,0.964075987711186,2.14620143455179,-0.100159857161825,-0.0571551132915487,-0.0039862086285242,0.0311074964309125,-0.577229839957497,2.04319640589806,-0.118440689409219,-0.0831089673904071,-0.0510382433820377,5.6568743607554,0.00101887191849541,0.000272480806969902,0.00261440041053703
1.03,0.654829218008079,0.950999705711815,2.12907696986246,-0.106133668956668,-0.060104240219948,-0.0350589977158761,0.0382020632697698,-0.56963259005276,2.11305187354246,-0.0210499150770666,-0.0171165104501723,0.0431457333916917,5.60755992896743,-0.00122094386770489,-0.00143646513134163,-0.000373767593875205
1.04,0.702530690413721,0.994640252891189,2.21237716213242,-0.0263943910763565,0.00715191839195237,0.0438141965474028,0.106615607330075,-0.502544628178625,2.10872500880103,-0.0763739607075696,-0.0523348879650949,0.0139064477605558,5.62447766848309,-0.00399139845406597,-0.00349099485126898,-0.00265267334264105
1.05,0.683699236987087,0.970727996781643,2.1855751844846,-0.0876939615691441,-0.0456185172648434,-0.00657331056924434,0.074402846024984,-0.611060450407392,2.07939695698905,-0.221760076041505,-0.16453332822225,-0.0667971153922266,5.59150321009036,0.00294844812347904,0.00180095903128825,0.00349201510444624
1.06,0.691172799577499,0.949172197263595,2.19459046946252,-0.130267111660349,-0.076831369787375,-0.0236475203544219,0.0791719492516637,-0.560017312154897,2.07601025012451,0.0695812462608691,0.0577848824893221,0.0768594138177397,5.57076149414241,-0.00260343029974831,-0.00251988832583628,-0.00250557021554274
1.07,0.654896276727119,0.923892797004804,2.17693299295639,-0.0479397924200704,-0.0209296995188072,0.00119058133917746,0.0172043721277493,-0.611254721143743,2.05789809295543,-0.18146542992234,-0.142192093452378,-0.0787180130114066,5.64198140146748,0.000172034995710871,-0.000451758936334368,0.00369770540128806
1.08,0.659232699103161,0.927555335167049,2.20965568798393,-0.127792304458638,-0.0795348914330773,-0.0404364252950031,0.0832091784326034,-0.622953430323804,2.11861606370902,-0.0538390299058505,-0.0396821544538779,0.0714244588674701,5.51317940260356,0.000545056985758903,-0.000117340170951183,-0.00146337212027122
1.09,0.673980431891144,0.912148934161176,2.23023860226594,-0.0841746051692674,-0.0441132254009017,0.0137896495258133,0.0467156640365286,-0.595289142265859,2.02588121118181,-0.0400275561537851,-0.0389491532107542,-0.0433882848373224,5.59672744838308,-0.00191466960891728,-0.00189532007736716,0.00142315313076632
1.1,0.672471976800146,0.928337198839439,2.22416268357518,-0.0697519784325027,-0.0348522190135891,-0.0226336202341262,0.0861370375286785,-0.619955338618828,2.09517057380044,-0.133425254675003,-0.0976619113816037,0.0258494470018715,5.5462210537185,-0.000295210713436353,-0.000746915029167761,-0.000129347825537596
1.11,0.712272125686972,0.942273380676401,2.28285448561752,-0.0837036782750818,-0.0356436584041864,0.0279279252055906,0.132330374160756,-0.590601851156942,2.06626579974567,-0.0472495900426133,-0.0362852149742388,0.0125768456097097,5.51926142856985,-0.00207072833765773,-0.00201209707767805,-0.0018853174638127
1.12,0.728565460078183,0.948327448288787,2.28237089111999,-0.0495561697511243,-0.0113757828803682,0.0234098491623623,0.132549344068421,-0.589490816846846,2.04824358503249,-0.120274223176892,-0.0847691031012811,-0.0247540309641111,5.55795166915674,-0.00187512131567465,-0.00192892403611206,0.000112692460610747
1.13,0.733441694619872,0.949070895506834,2.29268504963684,-0.0762438658596921,-0.0274283038056044,0.011417700177911,0.156773328419793,-0.61192482067796,2.08952686577467,-0.110613077120774,-0.0783630547050586,0.0203933860924923,5.48843339109332,-0.000923225976292361,-0.00125270600908011,-0.00147343047761972
1.14,0.72172637355092,0.915775837411162,2.29890722952173,-0.0917989596382364,-0.0446529815138223,0.0105413173246763,0.116785178128271,-0.630551110567078,2.01257343438121,-0.0878367705557883,-0.0701086219428659,-0.0293641789906887,5.52894179359543,-0.000578769725040909,-0.000917002182443754,0.000910927497994168
1.15,0.715890740975355,0.91311436318713,2.28989044106192,-0.0770430498168746,-0.0354137547817845,-0.00289945709338003,0.122076493218076,-0.622422294776366,2.07084227804692,-0.0697429625528206,-0.0506874138599643,0.0265350312642395,5.49640855088875,-0.00181418803328942,-0.00200340145038715,-0.00108833311124117
1.16,0.685775208924827,0.878726289616031,2.29724091126527,-0.0993647804716806,-0.0574298429019397,-0.00976453570922253,0.083446246982436,-0.687033555169151,2.01256487142129,-0.144045115830239,-0.119129475530062,-0.0404491067033433,5.51272365840912,0.00150304935814906,0.000428372547819659,0.00238667778010181
1.17,0.685950961398884,0.865604229292656,2.29621390998288,-0.118453537382406,-0.0748156560835948,-0.0261045493145642,0.0948260542654223,-0.664752284941053,2.05488857584805,-0.00214696046665717,-0.0131479990642072,0.0428002647824417,5.46807839691339,-0.00132008595122434,-0.00154935357009638,-0.00078215725347537
1.18,0.72621173334128,0.905321857614242,2.36049950894568,-0.0287514009532349,0.000676171013433336,0.0413524613139873,0.141887838954589,-0.603026174757804,2.05738388331739,-0.087437434672712,-0.064985388223208,0.00317285979015478,5.49832611370117,-0.00373923545438097,-0.00365151023567613,-0.00202677425496586
1.19,0.734894679785144,0.914329026354137,2.36877796441714,-0.0708497455083816,-0.0273384529592408,0.0176867245795192,0.181516367241882,-0.684232724443808,2.06031488535327,-0.192358640259068,-0.153181259745804,-0.0294416039163764,5.42989140485574,0.000951266213950159,0.000345369283890333,0.000588097826974349
1.2,0.740963934213514,0.871536373005507,2.3637851444612,-0.12266541065728,-0.0725831352966019,-0.00464395565696633,0.148187193198224,-0.671559407676308,1.98942330428092,-0.0114781804641373,-0.00472083179094672,0.0183649081660076,5.45592014081172,-0.00110828679127376,-0.00154314342454274,-0.000637763631380653
1.21,0.694571893175378,0.836782488148231,2.32001585101652,-0.0824205867989083,-0.0447493039233233,-0.0163027715974444,0.0745845656498112,-0.704577414099105,2.01868976004661,-0.120321723737143,-0.106453487699263,-0.0340311183497509,5.48342494363073,3.78409644250704e-05,-0.000906269069110391,0.00239500178249375
1.22,0.702627968787495,0.855140005890953,2.37956140048674,-0.0970933951080554,-0.0565919347837147,-0.00880440175467927,0.147510548037946,-0.691212028787653,2.05499572173074,-0.0503852067618558,-0.0558990923130039,0.0551884399288666,5.39761709044463,-0.00131223868683294,-0.00136940639791296,-0.00217720083187965
1.23,0.7298976718116,0.855804561455759,2.40310985586229,-0.0676634435395264,-0.0352247489491736,0.0293846699731069,0.141861386615923,-0.680740751129961,1.98159894058995,-0.102336797517456,-0.0756692493033663,-0.0406046279706712,5.45704629679086,-0.00142652038874826,-0.00181854467515983,0.000566149458669533
1.24,0.711691642761431,0.838623675341669,2.37198779860651,-0.104868764149562,-0.0586360682048081,-0.0246685021514189,0.138120390842649,-0.741794441429494,2.02235468284696,-0.122134255216621,-0.103440333454603,0.00476053123191667,5.41064299608131,0.00106221037223287,-0.000193318832558131,0.000949403611653898
1.25,0.726463004558253,0.827319528535003,2.41013568885367,-0.0998769216688211,-0.0571407029637797,0.00606239086862147,0.148820249090038,-0.695773229413696,2.00487874215538,-0.00913596606420339,-0.0317634664936203,0.0240394468790503,5.4019102423882,-0.00224600315657493,-0.00208025733992741,-0.00140347657766073
1.26,0.778110423498835,0.887378108524034,2.46359030027947,-0.0113115855319707,0.0142441660318417,0.0586587323192451,0.221724793923617,-0.636128624425659,2.03628856717421,-0.107250692805573,-0.069191210694531,0.0101770554805006,5.42679164690434,-0.0042445190740279,-0.00435875527082047,-0.00314413956844093
1.27,0.740641823693478,0.838752131930993,2.42929869565486,-0.108644064893259,-0.0584882015637494,-0.00563563374406801,0.186212752594841,-0.807707595077817,2.01198347827258,-0.237621580611337,-0.206305265898155,-0.0751064672704389,5.3541350101929,0.00431110998515882,0.00247556775111657,0.00383843202244338
1.28,0.707971991920314,0.74921639129829,2.40046326028453,-0.182477408951144,-0.139538795929283,-0.0632927086264712,0.096475555074922,-0.771815857704837,1.9308659187845,0.084649798856729,0.0464688931895402,0.0543594271946306,5.42743648496567,-8.23367138946365e-05,-0.00104455951620548,0.000417480220483337
1.29,0.653851406982602,0.736870289803095,2.37043563785653,-0.0749032358026225,-0.0543568850837484,-0.0284885587187599,0.0389689757994427,-0.785594857991234,2.07471990089292,-0.10291405822103,-0.113360028408428,-0.0339340613981351,5.37205527487524,-0.000502020396884703,-0.00134975771043001,0.00295664624425422
1.3,0.674509857446659,0.767569043386078,2.48579532889382,-0.114670192338299,-0.0835847322838872,-0.0292430362204912,0.146001950695289,-0.800463555196119,1.96017603105305,-0.0915921356647325,-0.0935874962141851,0.0502972589825745,5.34537094202629,0.000931354569909684,0.000118995113073895,-0.00099513656248237
1.31,0.713343679040022,0.758340790092934,2.43986621642338,-0.109146807602984,-0.073461659042905,0.00645012077720148,0.131989119146744,-0.773349730775832,1.95887243485851,-0.0293453126770477,-0.0387912947498736,-0.0319055588784601,5.37763149837186,-0.0010186484265068,-0.00168455521659972,0.00121287635522169
1.32,0.698240002842975,0.752998187656072,2.44640456750812,-0.0938862839768977,-0.06210955241189,-0.0353497816878512,0.131592341631332,-0.810848127860769,1.98030837812565,-0.118109660691078,-0.114438266882738,0.00715303737841878,5.35783460952206,0.000660496545429016,-0.000497879156936823,0.00133647760819392
1.33,0.766111522197475,0.802944585716065,2.52717526436993,-0.0688845426647612,-0.0322057581227129,0.0399561891201133,0.24601533589534,-0.724210999212408,2.00811671742258,0.00189194676163548,-0.0198049966892729,0.060633600513459,5.29960628181976,-0.00412087463012635,-0.00376984652353907,-0.00470487291805526
1.34,0.784414922595604,0.804020864152855,2.52861158276842,-0.0398436088598649,-0.0159302835529608,0.0434248696636816,0.236622611561687,-0.787222974566896,1.92624325151012,-0.209589828176616,-0.163439772560387,-0.0845409453170922,5.37119444385806,8.76471151342436e-05,-0.000674219896872582,0.00199275681386507
1.35,0.777247184153825,0.770682206002193,2.49867219951344,-0.132661001143004,-0.0796176520377202,-0.022555089927206,0.2473613473116,-0.831376819609227,1.99743959547573,-0.0487557137657897,-0.0440186044866755,0.052156640845998,5.26497349430564,0.000488354028075661,-0.000793146838585687,-0.00139856284963383
1.36,0.778182150653861,0.743704151076898,2.53085178824213,-0.0730583719564936,-0.0356435900344484,0.0284314155197566,0.18843913582619,-0.755798263217709,1.92058429952909,-0.0319214860600554,-0.0590129155741254,-0.0233601089923668,5.34894839782787,-0.0029073438513306,-0.0028550869449032,-0.000205337455164613
1.37,0.688244628362435,0.698030586376968,2.46036682620836,-0.129542092852148,-0.104807436787659,-0.063876726776615,0.13135159484687,-0.935018422372219,1.92378261859855,-0.223922250928917,-0.189545903800327,-0.050321048707948,5.33873808820281,0.00576956560569445,0.00264429063013706,0.00540757641695071
1.38,0.766826113588678,0.726458400555918,2.55300322864381,-0.119960990482384,-0.0741568532960977,0.00737981436293476,0.227478871342306,-0.743761137040365,2.03112412743764,0.199085068422963,0.0971260300788367,0.141015172443047,5.20836944320343,-0.00654358826924118,-0.00559554449607774,-0.00697562215895511
1.39,0.763793606168547,0.752324804206203,2.5830531697291,0.0222425062720575,0.00682632819362751,0.0600255130364475,0.194327168155489,-0.808655192046364,1.85790840692243,-0.326489776710329,-0.244009165986643,-0.147650833452621,5.43542140782154,0.000381011244428254,-0.000604500049363927,0.00423150506733083
1.4,0.734370470818819,0.706163169092711,2.50597326763964,-0.210661064288948,-0.146498150844758,-0.0773662084305843,0.249893997242263,-0.979693846043517,2.08106654199267,-0.0707115862302812,-0.0588175419829077,0.0742881378957777,5.15939290622044,0.00544930539436916,0.0016248474260999,0.000146923493766984
1.41,0.735054317850961,0.610796543732131,2.5680743519323,-0.132446145238272,-0.0886755790849769,-0.0105699521952982,0.095314129848435,-0.801352900439141,1.88587788096256,0.130399363037673,-0.00791060969205037,-0.0293603706151954,5.30017070426603,-0.00385895776057641,-0.00274141859213778,0.0018902928056042
1.42,0.722801536354741,0.720845673112423,2.57335242956441,-0.0106511486661487,-0.0297818661858086,-0.00838169419042464,0.211789827428836,-0.837423486578431,1.96817755418125,-0.214028243712497,-0.141474410960956,0.0417824270112866,5.28950701538073,-0.00108201489715397,-0.00162163796782188,-0.00152704867081683
1.43,0.806101350444005,0.742989859663525,2.6445892247498,-0.110594147059082,-0.0468749991855222,0.0545680843393135,0.330418301437847,-0.894286637943633,1.97067884601997,-0.0687153365094089,-0.070294028115729,0.000703028891213292,5.15152798240246,-0.000100633499510529,-0.00166463941654629,-0.00260038079382581
1.44,0.81450029632445,0.675128567927754,2.6080643091557,-0.0861338782769766,-0.0514307810284495,0.00642445975037055,0.252667886763307,-0.846790402105051,1.8079685722903,-0.0584258310874426,-0.0965031801833471,-0.0495438792956861,5.3162656551737,-0.00137529184704276,-0.00115990422324205,0.00205511773172495
1.45,0.798689115152897,0.701884277059722,2.5770946204089,-0.0733477255026333,-0.053456205379783,-0.0039055354250775,0.281355529930447,-0.8785399372569,1.97768372935074,-0.103922697526081,-0.0689129946185284,0.0567049214410228,5.19852384053916,-0.000874629555725591,-0.00192033873730876,-0.00247728596498037
1.46,0.789061720306768,0.661754620674813,2.63375580358072,-0.111109131455996,-0.0621256730293807,0.0184480146126911,0.248095192991507,-0.922630572521883,1.84494297847331,-0.0980718107539874,-0.118136215679766,-0.0557559397968541,5.24350076711181,0.00105712462644965,-0.000455962583709342,0.00176582637416671
1.47,0.804242553896748,0.6665427222881,2.61296750820618,-0.0868207878121676,-0.0604823436508454,-0.00445512258539035,0.282574481820324,-0.859426078258888,1.92184568986065,-0.00339800002212497,-0.0391459867188616,0.0533173888766558,5.20374505518372,-0.00282273721031487,-0.00251908587777157,-0.00229108577623275
1.48,0.763988848213555,0.629446820339072,2.61155910206552,-0.0970062715931641,-0.0772228120154288,-0.00727485062951554,0.212680111282225,-0.971643915540998,1.8357710755323,-0.198897304397283,-0.162347269633421,-0.0731050070882727,5.25364414478548,0.00329523687666642,0.00082120247654587,0.00380295679304745
1.49,0.793734968245354,0.637653475468348,2.63257549506912,-0.128976436684923,-0.0821476734182162,-0.0139522565151645,0.281716435811843,-0.894184484100361,1.93599170767801,0.084332294615002,0.0108563259528807,0.0953901684849298,5.14948421522512,-0.0028861759705234,-0.00311832715913273,-0.00384691477182168
1.5,0.808857950781612,0.64865202078385,2.67665953332138,-0.0224340121094152,-0.0201915887365331,0.0496534413916398,0.265462427885463,-0.874963212121302,1.83902222203464,-0.169554415625813,-0.151404027941786,-0.0734424751102826,5.26573502719823,-0.00150608104001929,-0.00186945492914142,0.00117393292885489
1.51,0.78985420659376,0.636532960276346,2.64034385748489,-0.140384037540058,-0.0986579721027679,-0.0336616398035006,0.315146209594092,-1.0269836061754,1.92903557034301,-0.129348154312407,-0.112746236642854,0.02121636585082,5.117326234607,0.00351550729379334,0.000905737018171915,0.000583456300078127
1.52,0.820495381955313,0.579732512238684,2.68085224134581,-0.117492713524804,-0.0756906497880516,0.0100779651897676,0.249515856335946,-0.883163716963404,1.81828560426325,0.0846359340988132,-0.00456415908549665,0.0150544788055901,5.20209149852652,-0.00340809243856651,-0.00316659834259668,-0.00117961495503446
1.53,0.824115171479479,0.66011818334017,2.6900947723344,-0.00485053223930094,-0.00670028670199932,0.03793734755679,0.323321534540346,-0.888222732931917,1.90724245629167,-0.174407051419032,-0.138926606221089,-0.000225387694258491,5.2016724990189,-0.00231291780909303,-0.00280344392368937,-0.00171447743781709
1.54,0.819810375193329,0.617369924034538,2.7037659077803,-0.139205316181659,-0.0907101116219951,-0.000560411664312665,0.354138336742444,-1.06394740953552,1.88306762412009,-0.156012454660621,-0.151239314392987,-0.0367647352399579,5.08862551620398,0.00421400054732415,0.001683581114729,0.00176703890962555
1.55,0.855257861417424,0.561612885894895,2.7072363414715,-0.116014184609617,-0.0815687487873336,-0.0009237589910931,0.287843190153911,-0.886147249162421,1.80192645985455,0.120946277904675,0.0371525920637442,0.0506275142495474,5.17455664759912,-0.00441818788521611,-0.00393099076641409,-0.00233395937731711
1.56,0.782865411336119,0.579076589045391,2.66127825681467,-0.0457736579771409,-0.0470135337840877,-0.00298565169028085,0.2468298869696,-1.00609495644532,1.83759978050037,-0.261810525877903,-0.216063077652571,-0.070741437284323,5.20417766450125,0.00249930620411069,0.000412647393340155,0.00349484534405923
1.57,0.823130899343827,0.583533418037384,2.73110368153329,-0.153685365131515,-0.103582239744574,-0.00916046477933036,0.366280478544852,-1.01126056768972,1.89569069335052,0.0531696595989458,-0.00507086705280252,0.0916897426617691,5.04649275863422,-0.000661087843074601,-0.00169243148886296,-0.00391038939311388
1.58,0.881306928079992,0.58317694004754,2.76786465173813,-0.0148148347429699,-0.0054097075333061,0.0719902756163495,0.321118360571045,-0.862542148611198,1.79350993349895,-0.0601786423215224,-0.0806640907630051,-0.0548222458056187,5.20952196935493,-0.00468711964680882,-0.00460341327148601,-0.000734006504351071
1.59,0.814049392311806,0.584543628619914,2.7066657456894,-0.108094182569957,-0.0809291985857709,-0.0326290666306047,0.368152104435843,-1.11966266399233,1.88602632069997,-0.264191968245488,-0.231875597543857,-0.0260222094167732,5.05759403736928,0.00577263386126342,0.00282437301518516,0.00278149426809175
1.6,0.830620067680352,0.471410454927065,2.729229127372,-0.197472576809452,-0.153056774061379,-0.0340156842437652,0.273473077863089,-1.02113489071768,1.72827813502554,0.15144753507458,0.0503525748128885,0.041440974227643,5.17194384463073,-0.000585151167771556,-0.001582008996495,-0.000359984599393116
1.61,0.795433834460722,0.507005852811083,2.68963189744181,-0.0302483500714937,-0.0369357700240341,-0.00102151382315055,0.233239635668791,-0.963015801677111,1.93662141996915,-0.101145731519349,-0.122019015256174,-0.0234955465808402,5.10832469567625,-0.00251495680681336,-0.00298038995116561,0.00117264803443369
1.62,0.815340776687843,0.559189975282831,2.82821416165035,-0.100874216778376,-0.0756891163623127,0.00336579469470801,0.395421659569663,-1.09248981899076,1.80118756199102,-0.15438972686845,-0.150931699414954,0.0350662903546533,5.03291908506446,0.00237890709259068,0.000627892064448032,-0.00182107272034839
1.63,0.847990942804992,0.46687034307752,2.73409229313799,-0.150728541760504,-0.114614986495632,-0.00243826190772538,0.305979993925397,-1.05561218988796,1.70653836919695,0.0226314878617408,-0.0367563545750815,-0.0515304143986646,5.15809315325222,0.000491861410107854,-0.000889279532912577,0.00254213972503622
1.64,0.83020221225233,0.492810502089456,2.72863993788963,-0.0669318994474702,-0.0581857862795784,-0.0231400678322611,0.305462758211581,-1.00654382557201,1.87871202822109,-0.0446744798295695,-0.0834807878456964,0.0517829814089718,5.06412111344864,-0.00209450046472237,-0.00266028504697493,-0.00135463402555179
1.65,0.803066005367951,0.477350118866407,2.79031656595937,-0.11845554557342,-0.101621228358731,-0.00610063005622702,0.329245493419308,-1.14150620807401,1.72125484664153,-0.168377716758864,-0.174745047854222,-0.0515015238931496,5.0966970722378,0.00415433141594116,0.00170441404975608,0.00271887174950694
1.66,0.867360499920228,0.470879940834265,2.77326904577788,-0.122455173354258,-0.094813068355383,-0.00457078986600729,0.361373587964069,-1.01510842281421,1.81628881879816,0.119924426638101,0.0361605731091635,0.0733442953428585,5.03386587172567,-0.00359531522616139,-0.00378839364987872,-0.00324895815509792
1.67,0.839784409166235,0.47255547416702,2.79439702398009,-0.0398439626271423,-0.0433606333379589,0.0165295050668015,0.319623202061274,-1.07349051568112,1.7220107326868,-0.219717146777812,-0.206229386502013,-0.0812620375486198,5.13401564013403,0.00145611771367893,-0.000230583241586468,0.00306331731934138
1.68,0.861970394859805,0.481589051427549,2.79927716910289,-0.146784481352206,-0.111384192366063,-0.0185101323011494,0.441220396119861,-1.1364997849662,1.83365606978014,0.00566850407457706,-0.039694306916725,0.0779494490021198,4.96654982728599,0.000779822806500153,-0.00070561114390687,-0.00282353070283233
1.69,0.90804107326369,0.442516288717329,2.84116184409271,-0.0589581266079083,-0.0444806064977502,0.0453793490949847,0.355955573746073,-1.00010171149711,1.70009676791675,-0.0172173559051797,-0.0658425842389104,-0.0482083690834572,5.10040724635989,-0.00312510628174116,-0.00346114491150721,0.000152342125951186
1.7,0.8563314485858,0.472374216213899,2.79535210073348,-0.0867018648269453,-0.0735431832264803,-0.0219849229950384,0.419089728596668,-1.16602288446838,1.78056167240596,-0.192871692461501,-0.186456565025747,-8.0523837819509e-05,5.01507933590508,0.0031887815286037,0.00105994215632238,0.00103642227289434
1.71,0.895655852845178,0.410455311356799,2.8348212220379,-0.14844444210283,-0.114329617466266,0.00263295700348996,0.403917486537304,-1.11292801700167,1.70690847869704,0.0711911479723186,-0.00522629133087583,0.0258436073196423,5.02874318021605,-0.00070851618824138,-0.00166549721991571,-0.00135670264506198
1.72,0.877468400839683,0.411009054882141,2.80780310941447,-0.0544034040009271,-0.0534141017237668,0.0044630132039605,0.345151794688709,-1.07446380908718,1.74598820800427,-0.0955447513196813,-0.120789095604918,-0.0344110157435716,5.06158851517475,-0.00102231474121201,-0.00203807758736584,0.00141268613731756
1.73,0.855631284884002,0.420968422359247,2.84122635894596,-0.122612560973882,-0.101796674550353,-0.0216645926414093,0.426233806774579,-1.20219133399574,1.74128883127123,-0.111110561321077,-0.135292071466019,0.0234161295746343,4.98227497455644,0.00303950046366283,0.000832895581738023,-9.62404132850344e-05
1.74,0.92252180176917,0.393705929113067,2.86570004222036,-0.100727958227144,-0.0787219445915277,0.0286052965129375,0.417044265208826,-1.06572519008149,1.70598119141491,0.0804425056308431,-0.00299585894037487,0.0155319977834731,5.00677653064732,-0.00338015945798914,-0.00349330397397304,-0.00208196918876306
1.75,0.894559246568003,0.416117089118933,2.85041284412452,-0.044381543584047,-0.0476255095788556,0.00835025051348261,0.416424267312801,-1.14869580717409,1.69810697671311,-0.198163288630574,-0.187007036011822,-0.0441226388099853,5.03966572509136,0.00137752334569495,-0.000355149846382445,0.00168951412906982
1.76,0.874786608898766,0.354171038196028,2.83227264719451,-0.178306939437519,-0.144947194738186,-0.0407148704110847,0.432552926045853,-1.26354853460675,1.71054445477918,-0.0274280126488939,-0.0808418623340507,0.0173446148977338,4.98875613216067,0.00406961544899292,0.00111886901838983,0.00109696960196042
1.77,0.942136295698758,0.357947637169639,2.89062940478518,-0.060048290887806,-0.0508168520958983,0.0342896522951648,0.411006718726449,-1.01111488618688,1.77398324144939,0.129006248939935,0.0142376028712255,0.0475934163640501,4.95253706419388,-0.00659058919352404,-0.00578975204534323,-0.00383482362396981
1.78,0.87550063451897,0.393215251003735,2.89609884799029,-0.0451154415537135,-0.0643866776107531,0.00233107738667297,0.441497185781275,-1.2615784593689,1.62015464721106,-0.345066125702016,-0.293812547931835,-0.0985427975549382,5.02955946796117,0.00581324690198715,0.00285010309219774,0.00455985972230769
1.79,0.925923483292591,0.321248697082257,2.85530226195936,-0.207403280051063,-0.164948723131607,-0.0357899623222594,0.481329605483772,-1.24143757270064,1.72646994327985,0.171088611128848,0.0724220669738021,0.101802059582639,4.94296911230759,0.000320747191158012,-0.00167858689758795,-0.00313109356292907
1.8,0.91479571170784,0.29132475484291,2.88160572820008,-0.0262610806467802,-0.0358810553667294,0.0260375414796757,0.340796420993461,-1.08213062231227,1.72333903282801,-0.0619866532758136,-0.130011494131072,-0.0802287100450923,5.00684391140122,-0.00292451552497255,-0.00319359470779965,0.00255990349068162
1.81,0.8734932039185,0.36464526745121,2.92523747486028,-0.11094816758862,-0.108452312472724,-0.0375732414070643,0.513547769371974,-1.31299368939732,1.69555943104214,-0.188049943190585,-0.18165344059024,0.0486947761965791,4.89405342241115,0.00494997420934599,0.00224988553059781,-0.000532720520387542
1.82,0.960394641534655,0.275357378671917,2.91120451164922,-0.149024282008555,-0.114752580348441,0.0235080531567362,0.444015815579186,-1.16894340967073,1.60019960737864,0.148211792283196,0.0348750326428235,-0.00566577748717957,4.98309037869121,-0.00218830915046994,-0.00297647418631109,-0.000850796164363786
1.83,0.945361577464825,0.34061377451865,2.90718582492506,-0.000903661204184142,-0.0173894120549444,0.0194277768720802,0.466535758369268,-1.1306806833825,1.71588831852566,-0.132459717487611,-0.153945196987116,-0.00191597133530234,4.97390427415421,-0.00227728992061858,-0.00288624579277831,-0.000813006674676924
1.84,0.926674907102575,0.318857363793368,2.94193237673543,-0.13992240692063,-0.120476748445881,-0.00757049932733777,0.560615331507749,-1.37172894889306,1.67714837996491,-0.159117771499979,-0.17379048526498,-0.0235114563356144,4.86370808933589,0.00595359772374909,0.00282727721521181,0.00147475175500544
1.85,0.986961347405466,0.226696121924748,2.92947117509758,-0.138103354800226,-0.117814157059553,-0.00734834345231109,0.443219630677411,-1.15852411875018,1.58254332102564,0.18444685706593,0.0591559316883418,0.0357142455811174,4.96555461210808,-0.0034883520426529,-0.00374139838808823,-0.00134600895894478
1.86,0.926479999544964,0.296078835342349,2.90958473405524,-0.0102500417553629,-0.0341395155284626,0.012081221941218,0.452659922203622,-1.20663253791005,1.6694471371176,-0.205078123735561,-0.203922035561499,-0.0326153566964755,4.96763688889842,0.000436545086746589,-0.00112347710373169,0.000962628517502038
1.87,0.93849433695681,0.27630711318601,2.95885103980092,-0.163133395402971,-0.136361369882393,-0.0147906804198339,0.574518359814996,-1.37590652815436,1.66759221686009,-0.0449200189815996,-0.0989086484945462,0.0196333755362186,4.84132102341494,0.0042119997406732,0.00154031990882134,-0.000234486749427868
1.88,0.96697891260975,0.169552253975794,2.92708769602247,-0.122815723038222,-0.116306577324539,-0.0178005771923468,0.40441866366113,-1.20300800744453,1.55118350637225,0.0923617895755112,-0.0177207903756509,-0.0244441164433419,4.97712464891272,-0.00152837636158272,-0.00230462403284182,0.00198011181169282
1.89,0.922883111418295,0.26121225766286,2.93201316837309,-0.0470842027554134,-0.0646127491226529,-0.0118874061820892,0.486120918278676,-1.25235445481186,1.67186293990179,-0.123383871545056,-0.149735507399145,0.0395853276355619,4.89132646518207,0.000297876569102566,-0.00114648460769822,-0.00132982114783824
1.9,0.989768025308489,0.265750513277118,3.01506766523576,-0.102995185514541,-0.087206132391223,0.042707381065435,0.602275886003854,-1.30518697374529,1.59551766304372,-0.0216182114777195,-0.0816705818951658,-0.00514043805145761,4.84221649124082,0.000437618166213357,-0.00084685215829129,-0.0017869916572845
1.91,0.989380586200633,0.180938687596802,2.93892324190974,-0.106812948663529,-0.105074825401321,-0.0189036192773489,0.497381345976895,-1.30979709929324,1.50930767761918,-0.0550754330693578,-0.10512776660609,-0.0517824641439097,4.96256329577727,0.00194362290514538,-0.00018337504826141,0.00332579376252424
1.92,0.944079520000872,0.167925602859413,2.91202639740769,-0.128564465805396,-0.125246886582091,-0.0476613550720702,0.488819565387135,-1.33475933933946,1.62574742589441,-0.00312553090184089,-0.0853730575488513,0.0493864838205675,4.88395375153941,0.00179428004412832,-0.000253093454212278,-0.0001042486582307
1.93,1.00358487670201,0.212485654450518,3.02439173628973,-0.0538656793928719,-0.0610660570608834,0.0481967040714188,0.555643377066257,-1.20841203165896,1.60698623287826,0.041188381419203,-0.0449375190116527,0.022548149284948,4.84340322546308,-0.00360458231535766,-0.0037407923106872,-0.00334143011778676
