time,x,y,z,roll,pitch,yaw,xdot,ydot,zdot,p,q,r,thrust,roll angle,pitch angle,yaw angle
0,2.01841953230695,2.01841953230695,0.0184195323069548,0.0184195323069548,0.0184195323069548,0.0184195323069548,0.0184195323069548,0.0184195323069548,0.0184195323069548,0.0184195323069548,0.0184195323069548,0.0184195323069548,8.89442287037517,-0.00528916520267527,0.00252694157446001,-0.00177338948258217
0.01,1.2193717654818,1.2193717654818,0.0193717654817975,0.0190905934235464,0.0186643005004458,0.01839188669856,-0.0586806916288222,0.0952551035426519,4.03944700441754,-0.205618930708925,0.108205504844605,-0.0278801985576451,5.85713749933227,1.0843013944994e-05,-0.000425638272963727,0.000430886918457359
0.02,1.3087085606296,1.37086974089959,1.64164512897507,-0.0820051060638531,0.0454294548367979,-0.0103432297953987,-0.0225339104521736,0.026816174983269,1.00394920868479,0.00031571348633142,-0.0128211128368437,0.0101650409782183,7.14956997044206,0.000283129297027729,0.00124351703157034,8.35301334912005e-06
0.03,1.32895887687366,1.34915034387086,0.438671120891056,0.00556289271755359,0.00216380179187678,0.0107007195585791,-0.105681446943915,-0.179947348703983,2.33335278912762,0.0149970936525801,0.0546817436083734,0.00545443629781356,6.9422497945969,-0.00326844623513124,0.00118093459959604,-0.000774788339522867
0.04,1.27272061702187,1.24285085030841,0.980974212010128,-0.00830154628889529,0.00955360343310659,-0.0122467595393237,-0.0387247990049365,-0.0159625768552383,2.11819290017756,-0.146041603697844,0.0361132971991893,-0.0278055498047407,6.73535192860314,0.000709921373841394,0.00164335572723384,0.00188701078034144
0.05,1.35253646449656,1.36215539948442,0.936086944911827,-0.0279646794722356,0.0478221974602979,0.0218279452666718,0.0222803076320124,0.0320396488999538,1.96796788615359,0.0525966839794851,0.0925376396927426,0.0666376494632361,6.87589603155909,-0.00373663774903131,-0.00154364271814812,-0.00418409703403704
0.06,1.3375887836317,1.34210869201193,0.859488130834027,0.0211745203066014,0.0381257727863752,0.0262251396384876,-0.109455658144941,-0.0646952146897131,2.10567285854238,-0.155683832829722,-0.0557860650768824,-0.0883042727204283,6.83308638748822,-0.000501065659363099,0.00217798576265187,0.00293083823329249
0.07,1.32425642458998,1.34307294672913,0.968230266211442,-0.0297274105196373,0.0138269056774517,0.000430171404140881,-0.0402047048697798,0.0858265086347659,2.1085899142951,0.00304058247285591,0.116883521556771,0.0899035585290485,6.74985199942711,-0.00286242118397579,-0.000822607137098944,-0.00428141371704161
0.08,1.31624419732933,1.36824397324379,0.945020721410259,0.00422928681509207,0.0519473515640206,0.0389276086580755,-0.0432911653586621,-0.0558926565439931,2.01797640017832,-0.119668632589605,-0.025023156109242,-0.0873697460613095,6.83318131806733,-0.000809419302260989,0.000854555050486584,0.00229000060869295
0.09,1.33096594676113,1.3268997781962,0.935820235744848,-0.0340390076914287,0.00910421235264521,-0.018090933037369,-0.101731250491158,0.0199349319041959,2.13269404458544,-0.025309553972708,0.0514566353533932,0.0613533638269624,6.73949224461699,-0.00172728702725431,0.000800980231671942,-0.00205644315448766
0.1,1.25662841292617,1.30765310131804,0.95108721624271,-0.0414788634517769,-0.0051045575990613,-0.00290994519083888,-0.0977857276582913,-0.120298892647678,2.01711853357723,-0.0998042371814253,0.0102736225108209,-0.0674018026001575,6.81383085817968,0.0012688294044253,0.00230455884131573,0.00332658205031733
0.11,1.27880403697219,1.27104064799313,0.930553576403319,-0.056069097297937,-0.00757201458612423,-0.0387287463426809,-0.0478424827319682,-0.117800519110568,2.1237336703393,0.0336897956698297,0.0832693027393885,0.0586330316426308,6.73848273770349,-0.00137600601779953,0.000801131674179954,-0.000946234098393766
0.12,1.33807641802901,1.31114029548114,1.02203056218022,0.0332705891311622,0.0589258803212183,0.0461158605089416,0.0139354505587576,-0.0841510870696631,2.10103774671224,-0.044409186215855,0.0554102500116768,-0.00095617976385215,6.72817964205483,-0.00405869286349625,-0.00155858376541233,-0.0021343016540983
0.13,1.3191642900724,1.2800920779477,0.991341416077473,-0.0338064886470772,0.0131718099022171,-0.0142296466320875,-0.163297834251662,0.00612097309476994,2.07987051688237,-0.182177498946001,-0.066356691680721,-0.0562232977498153,6.73444753713158,0.00221301736072772,0.00307075834674967,0.00333338109325045
0.14,1.27641463326022,1.34686836845281,1.01595268965064,-0.0660237424569721,-0.0136805324711986,-0.00944539469127342,-0.0482551187256181,-0.0664188910193715,2.11896313040988,0.0899833331143814,0.133865440402856,0.0789611691837648,6.68096980211166,-0.00298196738583648,-0.000385698158329406,-0.00329085895360744
0.15,1.30040931666663,1.29449323478434,1.0286572061021,0.0247513612505743,0.048626494793777,0.022664917102991,-0.0327531396880419,-0.154635164290024,2.07305813046924,-0.137046724265712,-0.0144931184060512,-0.0763048280372531,6.73129350181325,-0.00117313721834519,0.000465431660535894,0.0025350607784867
0.16,1.31339071507439,1.26481683016792,1.02785041302382,-0.0623869881303409,-0.00453019159326127,-0.032819300438483,-0.132354017727474,-0.00113633626638843,2.14278572958025,-0.0590962138242626,0.0232816694100436,0.0507554231360389,6.64722041558457,0.00030602280046373,0.00168418637492115,-0.000854149262925783
0.17,1.24599066560899,1.30164902379276,1.04184442390363,-0.0556664182541504,-0.0124562455693528,-0.00425540453673123,-0.0869564345621616,-0.181451108052389,2.05689556696722,-0.0183542152470662,0.0479589643429818,-0.0400958882406505,6.70127161691349,-0.000260209571188545,0.00143892370471634,0.00209655696956954
0.18,1.26859393503025,1.23120050126085,1.02596781495004,-0.0368693586067557,-0.00101698976007854,-0.0399512098357952,-0.0674930147806354,-0.177901876100472,2.12940507236018,-0.0394242173250363,0.0416092913100757,0.0238468655540771,6.65556479371817,-0.00053692246606767,0.00114251170198793,0.000755166596135354
0.19,1.3233088653334,1.27971739805854,1.10857284478387,-0.00328731980779222,0.0393424472788583,0.0281153089786056,-0.0167554116763535,-0.0788359255439479,2.13505934223756,-0.0161163996602714,0.0655867190678909,0.0313651660745882,6.61149617457484,-0.00344634829363041,-0.0012573453255011,-0.00281509478621848
0.2,1.31695877010234,1.29285253855043,1.10302301573172,-0.0132027286469741,0.0292822711959454,0.0102358616492953,-0.10932688000023,-0.0637977594396447,2.09142066866486,-0.151091058024933,-0.0432995948678777,-0.0608322679425565,6.6445657734518,0.000234492566210613,0.00164042500976887,0.00238989968410233
0.21,1.26485916090686,1.28540995894548,1.08464212991681,-0.0819328750733486,-0.0285239214782732,-0.0380713979551706,-0.123154004610507,-0.102489767959953,2.12836861875677,-0.0148953629018562,0.0596649259076066,0.0374884720001996,6.60651317800415,0.000317649837728796,0.00155413100536428,2.53795053067944e-05
0.22,1.26130069045829,1.2714492767786,1.11279398531088,-0.0280011373130641,0.0140456671256083,0.00101742885951033,-0.0408107388018528,-0.209668926285923,2.1188489508319,-0.0104791672968284,0.0545558700394874,-0.0117832496218634,6.5953953715566,-0.00195486886051878,-1.09860160538303e-05,0.00050549027377495
0.23,1.32910337691394,1.26053115320666,1.1547167858288,0.00486518852781263,0.0433923507143791,0.0107638381241145,-0.0461993527619901,-0.0830767351005499,2.13998166337733,-0.0766332673923667,0.0203275549099876,0.0241671873029451,6.57605231363342,-0.00254804720899541,-0.000543565386493948,-0.00165568613538257
0.24,1.30316953604497,1.28927541761993,1.15629834820766,-0.0393597646391024,0.0118485953703774,0.007995018250011,-0.119389238608768,-0.0677341251197123,2.12424961096865,-0.116327252301562,-0.0153346414029018,-0.036280872574313,6.56300319377618,0.000341261784207101,0.0015279744680763,0.00133399049880687
0.25,1.28670134143968,1.3096126163036,1.17324320696181,-0.0449324949353207,0.00857322625089655,-0.00407437958873269,-0.0602768234428522,-0.111619298060977,2.13608190351183,0.009404571398789,0.0752289931987724,0.0360622198391392,6.53585888638823,-0.00244090037393336,-0.00047906156747192,-0.00151814995112303
0.26,1.30709371599128,1.28685659445035,1.19016509181194,0.00309470470588605,0.042465891703788,0.0208808294130504,-0.0611630786781226,-0.126285763640578,2.12385856713867,-0.106330900170918,-0.00474293772736572,-0.0262759940780398,6.55525110499749,-0.00177005987203245,-0.000116796229149273,0.000253991415391868
0.27,1.31427006017508,1.28817227431165,1.20525930429204,-0.0372285823910675,0.0182209208586627,0.00338119398183574,-0.0973785269086582,-0.056035772097161,2.16574493119193,-0.0734944737256181,0.0152631003174109,0.0168611372474782,6.49288261219299,-0.00113705354253554,0.000413380246573309,-0.000963789723758872
0.28,1.29036696030944,1.30893125004488,1.22635795952556,-0.0312741717106796,0.019126584692905,0.0142797600634535,-0.07919545612594,-0.118413987658557,2.112423384595,-0.0542230084758212,0.0292612649429998,-0.0146518950852235,6.51761760591451,-0.00168319278903393,-3.1533861257823e-05,1.35299307510271e-05
0.29,1.26185648418682,1.24625972765116,1.18654916040813,-0.056876031411634,-0.00792646718318958,-0.0314200041725853,-0.137431687596498,-0.171375917002953,2.12364732659958,-0.104173767370441,-0.0145166479408573,-0.0215722937639043,6.51991955628978,0.00124240414919445,0.00197277851955548,0.00250431597189336
0.3,1.2776340409322,1.26432264139327,1.23605116111838,-0.044715780627016,0.00668411021452278,-0.000737732034869699,-0.0532209850141,-0.153814002751271,2.17413744681701,0.0412351329264844,0.0903854140993356,0.0586246195621423,6.44925075076478,-0.00325547030711412,-0.00106879344307362,-0.00274113521154219
0.31,1.32383061836411,1.28226262478058,1.28352542879478,0.0283200252062106,0.062269393226015,0.0433197616600939,-0.0449400125599771,-0.117153526391578,2.12882823107941,-0.131247421392702,-0.0147198708545792,-0.0407873536135771,6.50350797451535,-0.00267658005910114,-0.00108282852587946,-0.000109810118801735
0.32,1.31658269199462,1.28681475362587,1.2706094842565,-0.0498652181603054,0.0146668174042153,-0.00366962758856971,-0.129589159421588,-0.0494761488910243,2.19904230670682,-0.113570749588024,-0.0215230983569236,0.00846901738246536,6.40632379299856,5.14457907757205e-05,0.00114561751979316,-0.000232048598761179
0.33,1.21584598725149,1.25112069037388,1.2507261226707,-0.102273098359961,-0.047755050120269,-0.0405114775310809,-0.173099360222868,-0.234285268322567,2.05870610549866,-0.0526810162362538,0.014562787069106,-0.043311567103971,6.51253853388772,0.00228367827492893,0.00252448309161964,0.00397175808101376
0.34,1.24979063539323,1.22425894859335,1.25118929959873,-0.0375218567546801,0.00586500832253275,-0.0216738137241644,-0.0367022609870222,-0.247616040409228,2.23599465622187,0.0716675832278044,0.102197159587695,0.0795245373142291,6.37537602937716,-0.00404064504670088,-0.00155923918876294,-0.00273743548991588
0.35,1.30036966884805,1.21086081559892,1.33362961714789,0.0118574525425465,0.0394020227162138,0.0241265713116687,-0.0947638122205298,-0.171551596978603,2.09080237960551,-0.187618127670402,-0.0557412534683368,-0.0634267473475819,6.47219696421749,-0.000316901427372863,0.000680814902114095,0.00186209384772702
0.36,1.28839458703933,1.25629731949266,1.29826045681156,-0.0813358204258487,-0.0100425713911934,-0.0190225641935359,-0.114317028688989,-0.102896714313193,2.21587362046023,-0.0264667948347973,0.0425426665051258,0.0441119208729391,6.35054923752694,-0.000531033732022007,0.000460355854068776,-0.0011922305545234
0.37,1.26039349360985,1.26577111129038,1.34355750682102,-0.0331489974697505,0.013721453819849,0.00812406120384781,-0.0904656653373869,-0.225485458092501,2.10196245831163,-0.0480926357321464,0.0178108067793762,-0.0336034761930763,6.41750866359749,-0.00171448838700268,-6.61198774782698e-05,0.00120341288229918
0.38,1.28314964113186,1.22498834539912,1.32644973610482,-0.032402071387914,0.0141145597404355,-0.0138682789327211,-0.0968415029497921,-0.170379015648702,2.18260242714007,-0.0878487448940381,0.00650099133826065,0.0252385788876454,6.36815644129092,-0.00102300522335571,0.000182232376355844,-0.000542576305921075
0.39,1.31221640720964,1.28091619121613,1.39889927191067,-0.0181630798505111,0.0395935144868812,0.0401030498036397,-0.0481925524651772,-0.12025904882528,2.1743811195149,-0.0353446425862558,0.040193088734818,0.0137302566389908,6.33812097146922,-0.00344806161708785,-0.00181738743744549,-0.00253938561573047
0.4,1.31206077920872,1.28099191276239,1.39403538854319,-0.0116305951128893,0.0388492649918877,0.0201829425339085,-0.0966460112769392,-0.135093704373799,2.14748744853986,-0.146546827802779,-0.0487039676260124,-0.040934704139157,6.36533328330979,-0.0010108063911368,0.000323928333253294,0.000985277175983422
0.41,1.28077000168789,1.26406801899746,1.38670755575182,-0.0682032696535095,-0.0075431234979635,-0.0111990165350262,-0.120270740926473,-0.148898097003399,2.17936151329005,-0.0580106764673675,0.0262562961094052,0.0244081181153987,6.30867359986222,-0.000527532512079049,0.000445233101666151,-0.000630220822263929
0.42,1.24695261533014,1.23405207930521,1.38884399161562,-0.0558351485684066,-0.000223273174825164,-0.00746142488081204,-0.118092354269635,-0.239530960143247,2.12167515768041,-0.0572490660546966,0.0104142087472029,-0.0285869403808543,6.34775108363882,-0.000601478093271988,0.000351953912290994,0.0017027196547112
0.43,1.26902842734841,1.21515587077148,1.39642248014701,-0.0396044228247922,0.00978634329241173,-0.0128897958249115,-0.097064882498248,-0.210200893785607,2.18612314810182,-0.046815337465498,0.0213074755771657,0.0344715698716004,6.29877437243544,-0.00183550959843032,-0.000323926930669389,-0.00102397228053088
0.44,1.27942730248609,1.22921372441875,1.43866484505879,-0.0314586050794093,0.0180127754135089,0.0162285436350423,-0.0991259553940414,-0.192168563114342,2.15204490641853,-0.0941944888381255,-0.00234852510931524,-0.0198129935929865,6.30212601297294,-0.00124386515809164,-0.000156063946059018,0.000169958420369811
0.45,1.26232254334089,1.22069440975607,1.4236181602111,-0.0644897365021736,-0.00440259748690748,-0.0186586612991832,-0.128753058211942,-0.21237301996292,2.15701913239011,-0.0817807898240797,-0.00589990386837118,-0.00574881912238891,6.2871422456702,8.24031325414939e-05,0.000786114593377405,0.00115127553795614
0.46,1.25560046126978,1.21788626803485,1.44274469425903,-0.055791108926863,-0.00184847911248909,-0.00845813968005726,-0.10600588142375,-0.236508691237813,2.16424359518876,-0.0247723126681563,0.0336032726781999,0.0186805858884329,6.26737518212733,-0.00170566072559475,-0.000321446472769005,-0.00048631477198954
0.47,1.28008099587663,1.22128855005414,1.47465215967322,-0.0188213824394338,0.0283329634456485,0.0149157965827627,-0.0836537387367054,-0.211000304333756,2.16859667593651,-0.08588386562948,0.00241405045313601,-0.00406798493961691,6.264533799015,-0.00214391844994083,-0.000904698924782262,-0.000507824545572157
0.48,1.310873613514,1.25343753161086,1.51019984906352,-0.0222145154755137,0.0378112515773694,0.0268425462880245,-0.070399225138409,-0.152010984310404,2.19527494603674,-0.08611189780152,-0.00234306886160726,0.0134429708391245,6.22305504527058,-0.002460415536682,-0.00119297728392574,-0.00189690513688264
0.49,1.22804796925007,1.19073607408772,1.4565096750618,-0.0987041303596919,-0.0402133280394463,-0.0411671576620929,-0.206369910847525,-0.282801050572464,2.10111782984382,-0.163092296827406,-0.0767965821687853,-0.079573181780113,6.28541860094231,0.00413888496803097,0.00335494798782056,0.00572313435700589
0.5,1.20898565808189,1.17324063970263,1.45933149823377,-0.103094534922086,-0.0477013073505834,-0.0518095974373679,-0.110319077024849,-0.308293462304678,2.21834341281838,0.123802220119853,0.124563080588103,0.103569021642014,6.18478589073448,-0.00286405921198264,-0.00100602700873744,-0.00245005694909573
0.51,1.29308848650448,1.20307548581075,1.56243892416016,0.0539435271134479,0.0761796749122132,0.0618385084378493,-0.0370820988183632,-0.240693499448596,2.17136772898651,-0.126345873033339,-0.00869625554521015,-0.0342676791316168,6.26214095122855,-0.00446642962519098,-0.00328254796629701,-0.00125249995706471
0.52,1.30623333310917,1.21261981803111,1.54590779543965,-0.0588654309555234,0.0155905544370151,-0.00552591717358376,-0.137585118540751,-0.161247862881455,2.25199748098348,-0.197466745069763,-0.108554508457277,-0.0176873372884351,6.11878165630144,0.0018110088299037,0.00213429799179556,0.00110350489932876
0.53,1.24428162091509,1.2323320517092,1.57027797403972,-0.104004040844281,-0.0421916617681557,-0.0115507764060523,-0.123778465862007,-0.25365531283073,2.08618902663456,0.0423678803337621,0.086813473020543,0.0185853800586768,6.21011635004577,-0.00155739175525819,-0.000271009561541368,-0.000334889005901503
0.54,1.2674476956957,1.2059477415468,1.53643369490483,0.00508667815618172,0.0496620729203469,0.0148381985426904,-0.0668906796420199,-0.275839615492892,2.2216659604371,-0.0832566531923464,0.00425813994006518,-0.000843563768457309,6.17855545919873,-0.00345821719132098,-0.00241255475669106,-0.000636842675730536
0.55,1.26125220980525,1.16330188248056,1.57574456819224,-0.0721685578389329,-0.00954265718616977,-0.020190937959569,-0.165083808295082,-0.25814172933876,2.1615400498928,-0.182771437300173,-0.100913662613015,-0.0293320411062005,6.14671852168881,0.00261947466239738,0.00265302902277212,0.00234804373428077
0.56,1.21948177476931,1.17526680746952,1.56125021751967,-0.113382146025979,-0.0538304164590214,-0.0303164152620062,-0.135937353717279,-0.304968035566041,2.14237607654863,0.0616097308033306,0.0958251209141486,0.033276508367373,6.15708212674624,-0.00134555002637665,-0.0003174733544078,-0.000141558540957676
0.57,1.26063529677675,1.18034169180633,1.59498810675839,0.00983692708942023,0.0513204676660764,0.0190935385042071,-0.067622018340125,-0.297866118079476,2.21088035998201,-0.0775439469865736,0.00121800581008995,0.0020246063488339,6.14233930900927,-0.00384372694831298,-0.00265398452202676,-0.000967721039006873
0.58,1.31127473955856,1.20289874313837,1.65847231556728,-0.0236470149360441,0.0364656103455982,0.0277730489701861,-0.0816651177012857,-0.200385553461218,2.20441509207093,-0.159949767993298,-0.0714685576330925,0.00339416786231966,6.08719603658723,-0.000962937879961382,3.95644997589445e-05,-0.00146062743328758
0.59,1.28289025344211,1.22675283298206,1.65085276853287,-0.0722191617666265,-0.00747201652847287,0.015379327804442,-0.101444230880465,-0.239593279003326,2.14298561686893,-0.0561007274302323,0.0198184217226463,-0.0195222232921645,6.1022220506308,-0.00119990758404466,-0.00033627252966651,0.000196833696287657
0.6,1.25014969423808,1.18331169130334,1.6178755208208,-0.0549382670165827,0.00532310344898875,-0.0176582695242687,-0.12387454924732,-0.306264705505864,2.1539444950337,-0.0860779313879686,-0.0137361415530954,-0.00430459482917652,6.1145772078288,-0.000822173708269604,-0.000391896664928397,0.00104205105437544
0.61,1.27406973026095,1.18532807847336,1.66262503811003,-0.0409986782071697,0.0181840381386732,0.0144723738773175,-0.0865467365032564,-0.261426164847133,2.19704670530275,-0.0492500298946204,0.00546516630104241,0.0357607327021217,6.06100927452936,-0.00272093817603371,-0.00139782767568596,-0.00236531538902829
0.62,1.26117269212014,1.17568598591026,1.67084194753752,-0.0476954881468012,0.00396241927213843,0.00914965460124166,-0.1272183788018,-0.294994202223182,2.13430363554245,-0.144898995627863,-0.0521511202101099,-0.054540749147233,6.09461214873894,0.000125396217103679,0.000548445390956034,0.00215340788085291
0.63,1.23594262466102,1.1534895516327,1.64919431436433,-0.0959998952316211,-0.0284526127139954,-0.0355089860600582,-0.138407726291267,-0.319048331537474,2.17233416751961,-0.0384995292319904,0.0185018587664141,0.0336110087874748,6.05039835637078,-0.000137011430445376,5.28700315804465e-05,8.7064111073441e-05
0.64,1.23810287480539,1.14888692875531,1.68189640277057,-0.0484814427356149,0.00567910690889666,0.00511629847155002,-0.118137822868825,-0.334213628211735,2.15924323063031,-0.0439172160956098,0.000847597229720593,-0.00543888166554985,6.05627654497355,-0.0022273349990289,-0.00106282331786354,2.38759956872818e-05
0.65,1.2423090476331,1.13488252980118,1.68932163284489,-0.0542389433902064,-0.00446806584226283,-0.0141450376652418,-0.132806282048559,-0.330188792031262,2.15816992772073,-0.131625474563072,-0.0444966077125306,-0.00942920316842293,6.04618169515155,0.000167666477105017,0.000488943001815514,0.00111898299118522
0.66,1.2431403575085,1.14580529171768,1.70702147079329,-0.0823827956074506,-0.0153855004874253,-0.00779238214406805,-0.117381882978161,-0.324205324047842,2.16726823214126,-0.0287304172994757,0.0220176923665818,0.0202460128565283,6.01056260807191,-0.00123587632009311,-0.000694354925429848,-0.000587650189121603
0.67,1.26425473362247,1.16168676356237,1.73793295505979,-0.0266350527001339,0.0259680347320926,0.0184790403451314,-0.0894561006531669,-0.312875841900719,2.16291157920557,-0.0736899886900426,-0.0122319346752894,-0.00363051830110359,6.02725161639497,-0.00287595748829361,-0.00173194771868984,-0.000680506482664326
0.68,1.23942300447793,1.12728287469654,1.72043281797543,-0.0760870565493892,-0.0185114268532397,-0.0222084675521582,-0.151839189040555,-0.356424540338298,2.15407860599391,-0.166560465236669,-0.0779391878491529,-0.031465042546464,6.00575708856065,0.00202491434070575,0.00167466060109588,0.0025438371398847
0.69,1.24515306455953,1.14358593444408,1.75470769112607,-0.0870746530766791,-0.0190704659067097,-0.00599339291006299,-0.0971047417194167,-0.328634697923941,2.17473527243603,0.0537992318894874,0.077043702637219,0.0593918990757984,5.96055723723862,-0.00325212817493482,-0.00209690535273467,-0.00251922944704387
0.7,1.28142895463912,1.16459200691321,1.79209628603396,0.0170089981374006,0.0575228747460099,0.0448398433097962,-0.0712817460301723,-0.310954852719898,2.15645312575636,-0.148985268478957,-0.0567653401168355,-0.0355378434664619,6.03433769608886,-0.00319264375673511,-0.00231944746815234,-0.000385246543584323
0.71,1.26897571060282,1.14712541869037,1.780096503407,-0.0851430862713297,-0.0132201757907221,-0.0129066192735814,-0.121946913019644,-0.327470891987726,2.22471416105119,-0.162370608768028,-0.0810870917261593,-0.00616814642025369,5.89886448598502,0.00175895655545831,0.00158137936398669,0.000907975134032667
0.72,1.25906474942781,1.15637783240751,1.82718015392262,-0.0804750309864221,-0.0135960162183531,0.0107394866056855,-0.0919336953402027,-0.325931883516707,2.10694808560299,0.0472958480780894,0.0766132859675282,0.0300232024814421,5.96069067195493,-0.00367649201855196,-0.00245241007231514,-0.00191580462937666
0.73,1.25592543016092,1.13397081345973,1.78307871771608,-0.0102435717583033,0.0352071595790628,0.0104380675852518,-0.112869520106693,-0.363572409418603,2.16450990337736,-0.185890225559491,-0.0911705585508345,-0.0418269634886495,5.99017849395972,-0.000950121367775694,-0.00065886687143856,0.00151650266579944
0.74,1.2918785771763,1.1630245308618,1.8578514055388,-0.066214237412925,0.00766215943984634,0.0200182055330017,-0.0564060015040418,-0.293151837850784,2.23309202018588,-0.0433712198812685,0.011268505429295,0.0635768813455282,5.84625862729697,-0.00254778260219381,-0.00168671091415091,-0.0039395531886188
0.75,1.28514148332882,1.16471648056956,1.87420089372297,-0.028940797446846,0.026775647412281,0.0424086185688685,-0.0883144468064135,-0.330620469251718,2.08169026421993,-0.126166162032136,-0.0482684819954905,-0.0695657482901995,5.97734256716777,-0.00195960286867516,-0.00128518732130854,0.00131515639931544
0.76,1.21746540886578,1.08978505103315,1.77798414079285,-0.11589344425197,-0.0482394088517637,-0.0627617233338249,-0.179793124568782,-0.42637575679027,2.17412239703693,-0.147575615980757,-0.0721232853273616,-0.00180747838928622,5.90494295176627,0.00335674665064005,0.00201926553829339,0.00305873651931027
0.77,1.22387523586422,1.09558410754297,1.86114104786551,-0.0898278489165332,-0.0236395853940605,-0.000487690038157021,-0.113773348173675,-0.382034742849725,2.17091503276123,0.0987489403958737,0.081454036529062,0.0648459425688927,5.86017682617284,-0.00442230300872052,-0.00274743176199362,-0.00302968086620247
0.78,1.20942610925524,1.06458586248248,1.84091730777995,-0.0250211676364102,0.00246320780905178,-0.00838518178050007,-0.169939977318104,-0.44549862751053,2.0875241535289,-0.246415129968363,-0.1315716388669,-0.0933159074903659,5.97087450514424,0.00160721766196383,0.00116944513516135,0.00483270600145856
0.79,1.24798313874756,1.10263083266833,1.8730810345408,-0.111168709424531,-0.0299409809539375,-0.0187464723541897,-0.0812603040824926,-0.362172769360734,2.24340243200587,0.040140934047626,0.0693405962275599,0.118207986336723,5.78123702926761,-0.00231974777436472,-0.00202641372693114,-0.00470009332619674
0.8,1.26297265308837,1.11703580234199,1.93069392881556,-0.00687795127733347,0.0385619301410252,0.0549751052116775,-0.101557492492037,-0.378785654988759,2.07466236962802,-0.128713325712235,-0.0688958942451902,-0.0936969511534093,5.94643285248511,-0.00283176254101055,-0.00187291165424515,0.0018827354298255
0.81,1.26153484662861,1.11109492381115,1.88860345815955,-0.0735436765987932,-0.00956821159891944,-0.0263460341336665,-0.0942586647493511,-0.387470906884315,2.23533967665468,-0.145676842391741,-0.0575084288262178,0.0494045262013675,5.7855556619228,0.000425929330809858,0.000247543047897477,-0.00108172931821473
0.82,1.26610050637994,1.11417967488942,1.96483831343473,-0.0754799058411865,-0.00191847903036659,0.0357889993505925,-0.0879070047084448,-0.375619168624571,2.08879875427569,-0.00847241319681628,0.0222072719760357,-0.00964419753775664,5.85009932772199,-0.00291587182851842,-0.00222254814301037,-0.00121582115360668
0.83,1.28754918310698,1.1322729764532,1.9388167651916,-0.00438406078783294,0.0468992881400827,0.0288386510999513,-0.059093959700502,-0.359733578093569,2.17727715058274,-0.131183846193759,-0.0575122175325414,0.00121289907605984,5.8595056015094,-0.00333493454659538,-0.00252394614777983,-0.00135873768809746
0.84,1.25322149540579,1.09094210074954,1.94814955309058,-0.0933540612029373,-0.0249613461702922,-0.00678907609008731,-0.123892534825364,-0.434631889867382,2.16210300522747,-0.182301563315806,-0.102626012339049,-0.0349284739516765,5.77912659803676,0.00241049510473406,0.00172252080939388,0.00198429160861102
0.85,1.23298061300037,1.06939159775998,1.95556485223061,-0.111042543155124,-0.0410290834293543,-0.0170100535159516,-0.124633789049851,-0.422852117427425,2.10041724865457,0.0523091310362606,0.0659996639165321,0.0388132142901189,5.81416795182072,-0.00259926858919804,-0.00200712400190233,-0.00102359432754978
0.86,1.24974816174608,1.08396015448236,1.96113128417519,-0.00233547238823832,0.0413407684749239,0.0272256220210821,-0.0983637810795804,-0.411553907456294,2.1673655280633,-0.138664249077194,-0.0677612433288351,-0.0128135409605965,5.83811984023723,-0.00302781778392314,-0.00251439683355318,-0.000618378820704175
0.87,1.26605422495704,1.09186465364707,2.00837068704209,-0.0734953198674707,-0.00491679827237955,0.0118374904458845,-0.0786306916087774,-0.41792672414853,2.18798936113191,-0.150693193923588,-0.0827046030820879,0.00129053939258179,5.72141740008637,0.00029885317295299,0.000349290404973835,-0.000603961879691988
0.88,1.22577324070163,1.0461307753644,1.9848190494084,-0.118771731539502,-0.0512624904849903,-0.0208479355157021,-0.151862515497629,-0.472927003684789,2.04288848060638,-0.0496702751206608,-0.0054155489454175,-0.0316930664044516,5.82307147157612,0.000447636412013273,-3.00248693144531e-05,0.00248823526654246
0.89,1.21332759516759,1.03491215594809,1.95402735295393,-0.067899457417731,-0.0100179842262654,-0.0232885492356136,-0.134584936688123,-0.469820140924636,2.18825922389799,-0.0344152280308345,-0.0107957981100506,0.0431282024987444,5.74894638007222,-0.00242737966135184,-0.00192490367635557,-0.000919353145977375
0.9,1.23201688168974,1.04345621017138,2.0374180690218,-0.0502624288191641,-0.00112731727996291,0.0177105439211102,-0.109993973437985,-0.459187087552123,2.10535054093819,-0.14178548656347,-0.0763847261573586,-0.0196275796559503,5.76831243336269,-0.00072530350131307,-0.000511259882715872,0.000116553259291607
0.91,1.18516926305504,0.992549545419981,1.96663765786862,-0.142484414679939,-0.0754396114446025,-0.0551556667194046,-0.186769995462336,-0.550768288764141,2.08828846286835,-0.114490057712528,-0.0595546204129009,-0.0377693149210107,5.77820979057483,0.00366798643558395,0.00169981863605674,0.00440129019077768
0.92,1.23468951156074,1.0358693983032,2.04040929581652,-0.0628045239001871,-0.00102437478936127,0.00582095591420492,-0.0798709732670692,-0.432092581214419,2.21954359985357,0.122413259420979,0.0826903156917972,0.111221398167694,5.66454029309417,-0.0068664602601766,-0.00501499747204031,-0.00548161139018403
0.93,1.22595754301528,1.02311889484287,2.06901461118991,-0.00586973695156767,0.0119128643792635,0.0259193758550252,-0.133448816089971,-0.517420222855988,2.02486109000919,-0.340846694820131,-0.210323264673227,-0.132975845555096,5.83084762800624,0.00253042632620694,0.00180388005308367,0.00511558798416687
0.94,1.25088223058786,1.04062725233593,2.04227952307843,-0.1536368234762,-0.0640951109730871,-0.0323019892035147,-0.0633415043046854,-0.471332371327798,2.23767552903392,0.0684478776021485,0.0955655481458251,0.125632668391451,5.59706737899826,-0.00145590207125876,-0.00208293007568864,-0.00441202615042714
0.95,1.23307634093265,1.0127273239373,2.09702723654768,-0.0259534374292137,0.0242315340742956,0.0364243058027004,-0.142998468116228,-0.489395523057009,2.0307366255433,-0.119573248992459,-0.0951737751665965,-0.10645531944295,5.79650602749188,-0.00240697944885975,-0.00178414860617234,0.00336389096687477
0.96,1.23611821170784,1.03117895142667,2.06611899836591,-0.0779500927440865,-0.0237088739782512,-0.0312900264411327,-0.072069741962076,-0.50167546024661,2.2077890380084,-0.135988809894346,-0.0595224263346067,0.0807108686342708,5.62070236233095,0.00010942212658904,-7.75911036273967e-05,-0.00232391338063232
0.97,1.2623577392222,1.02946453657525,2.14566413071608,-0.080210215899908,-0.00693714819029832,0.047275211972686,-0.0802609887870339,-0.476215677480928,2.04807509894643,-0.0282182248195115,0.00194091020505431,-0.0368062765408824,5.69738340430895,-0.00253266519503772,-0.00247990974712008,-0.000465551197837086
0.98,1.23840641740903,1.01352430676292,2.07682267201002,-0.057237411633745,-0.00109219114666489,-0.0185558764128606,-0.104461673752407,-0.522210181444209,2.11387772435923,-0.15263019483318,-0.103245433338795,-0.0133959495465568,5.69743921984417,-0.000304690796158262,-0.000318415517259767,0.00153767686728812
0.99,1.2451973573501,1.01001444804572,2.13165431710604,-0.0932974421529379,-0.0303979331658107,0.00430755279582538,-0.0774995394159894,-0.512666447969925,2.12926503869144,-0.0515213898375913,-0.00863606054824485,0.0407393461224783,5.61996237738016,-0.00131864224943176,-0.00130238696235112,-0.00211544077673225
1,1.23907864927994,0.995557542003142,2.1354016436444,-0.065908011461648,-0.00560641680677377,0.0136236513066411,-0.109517420854862,-0.524612169480996,2.05910421989178,-0.103489157452393,-0.059140634077408,-0.0475638125762108,5.6889935043566,-0.00117303599363559,-0.00141394437236365,0.0016334966696248
1.01,1.24199377331518,1.00257054369965,2.13406587936349,-0.0751912241333504,-0.0130996021801008,-0.00959843335034046,-0.0762522259243504,-0.525820604856838,2.13630745394778,-0.0880229995961989,-0.0509658247600178,0.0426043690594552,5.61639150179505,-0.00128736569833963,-0.00119672598855971,-0.00153838473998098
1.02,1.21791416434894,0.963683139884803,2.14531057523441,-0.100146094761722,-0.0415259918314555,-0.00417639454510906,-0.12951655933769,-0.577823880929577,2.04506827942679,-0.118137209362386,-0.0717151931144458,-0.0507551337744515,5.65734464964855,0.00103302258065491,0.000284903832677203,0.00260918678965661
1.03,1.20680476019673,0.950496189566016,2.12893607832999,-0.106068374359323,-0.0441379913606954,-0.0349877691779613,-0.125297610460184,-0.56986576772241,2.11211213883246,-0.0201507457542976,-0.00546855619070433,0.0430484205687527,5.60995735011369,-0.00123060060838929,-0.00145483216417709,-0.000372778023752548
1.04,1.2523838811176,0.994458953557732,2.20917273009556,-0.0259219705693377,0.0232924435721125,0.0436916182975425,-0.0570950510567594,-0.503209222858797,2.10994622535238,-0.0769502031618783,-0.0418511704784677,0.0139252065080108,5.62445963198905,-0.00397765267606967,-0.00349240182976782,-0.00265110891224843
1.05,1.23231808887169,0.97041793149482,2.18310981189575,-0.0878596188551132,-0.0298848997372053,-0.00691586269035837,-0.0913826354709419,-0.61112233178107,2.07925530240767,-0.221193177170752,-0.15339437099933,-0.0667572137412078,5.59447297862077,0.00296125467282351,0.00178872660955084,0.00350530715303191
1.06,1.23822842121367,0.948791452641007,2.19612706366329,-0.130134471343824,-0.0607712441859237,-0.0238019178883779,-0.0877810335109473,-0.560385638966022,2.07821847275336,0.0704545051462691,0.06850711779486,0.0771691796066084,5.57062082207772,-0.00261461715085158,-0.00254245161322289,-0.0025136835618887
1.07,1.20033506027276,0.923557887736453,2.17571916545918,-0.047400137252886,-0.0049671220436245,0.00139841542795255,-0.151931113495719,-0.611462195439013,2.05585668705302,-0.182161052118567,-0.131870081942563,-0.078899362437441,5.64461673585021,0.00018017743552308,-0.000491712097824415,0.00369780308524708
1.08,1.20264522120366,0.927603124663854,2.20482324377991,-0.128191659329661,-0.0636871316430495,-0.0408161022838014,-0.0877943228513491,-0.623406859780953,2.12095465712495,-0.0531208954221911,-0.0299923902237747,0.0714472974365167,5.5168455519869,0.000564179627726711,-0.000121106506093104,-0.00144662532089586
1.09,1.21595446414442,0.911663386075436,2.23071035641407,-0.0837194682373138,-0.0284284436195428,0.0138256761010593,-0.124446434657889,-0.59582233624824,2.02822971878483,-0.0394588014947617,-0.0279352972739362,-0.0430252124231097,5.59568882167977,-0.0019299180567184,-0.00195135606128051,0.00140464432277405
1.1,1.21299761165803,0.928239295686583,2.22106446278937,-0.0695667609335151,-0.0185887957050168,-0.0226184536473397,-0.087677300548018,-0.620018450053606,2.09369116275524,-0.133763606945047,-0.0887041491296061,0.0254635408887879,5.55089638729777,-0.000281832011722926,-0.000783869067000046,-0.000111567915090134
1.11,1.25099929484399,0.942041177024749,2.28016454793129,-0.0837472539301788,-0.0201482042583814,0.0275099683019591,-0.041544505005667,-0.591220492446263,2.07092803880955,-0.0467839832873195,-0.0265579497007483,0.012969249421084,5.51851741948096,-0.00205761348524747,-0.00203204280847827,-0.00188561334792976
1.12,1.26620831628049,0.947805907887419,2.28298205374358,-0.0492951785095751,0.00448775612509826,0.0233929714755657,-0.0430930539895607,-0.589166079994853,2.04778806696639,-0.119744677609679,-0.0744353474676832,-0.0247524427232098,5.5588634982467,-0.00188573537665501,-0.00200409937804438,0.0001124576438745
1.13,1.26930085130013,0.948924033528072,2.29098606987522,-0.0760418740031384,-0.0112606480561401,0.0110639933552484,-0.020728710098682,-0.611938767973252,2.09104140980081,-0.110904366430364,-0.0701503946808375,0.0204062207378507,5.49008501466011,-0.000908837272883252,-0.00128957394753166,-0.00145847177246554
1.14,1.25582388504947,0.915404142589932,2.2997207626485,-0.0918279114168884,-0.0292812137482948,0.0103167030980226,-0.0613278817052215,-0.630711001502307,2.01434573380137,-0.0872661487376797,-0.0604515574383938,-0.0290303314607125,5.52885252052456,-0.000574947240718573,-0.000969663141685585,0.000905426518330554
1.15,1.24863288950527,0.912732735825148,2.28978486182463,-0.0768295749950655,-0.0194054923773145,-0.00292884756177527,-0.0588264376158098,-0.622362081532904,2.07100114008007,-0.0693930491814675,-0.0416785770151665,0.0264350464115897,5.49828092992394,-0.00181886952361636,-0.00208362960404318,-0.00108201446849114
1.16,1.21624376627775,0.878547269324965,2.29516299720047,-0.0991092334266193,-0.0416324452175048,-0.00997399808476541,-0.0984201203718435,-0.687345254487147,2.01431245806409,-0.144239627474972,-0.111196135944431,-0.0402997752020089,5.51502522581199,0.00151291518052911,0.0003732824429179,0.00239063932326089
1.17,1.21503035523725,0.865207123573313,2.29557137385598,-0.118569153531361,-0.059399583839379,-0.0262173653924845,-0.0890280253344607,-0.66520906911315,2.05702279343401,-0.00150339666227256,-0.00426485169310549,0.0429073815245208,5.46937217918997,-0.00131500171624049,-0.00161727133561964,-0.000780976782425871
1.18,1.25333912912047,0.90502264974096,2.35854000395145,-0.0283448200735408,0.0165351552476005,0.0413683604018155,-0.0429232701977118,-0.603371976714056,2.05896219718174,-0.0873513687180118,-0.056628894395646,0.00320525361121946,5.49911097332603,-0.00373921986460585,-0.00374389523925517,-0.00202813943971418
1.19,1.26032160397568,0.914245308839191,2.36547869921381,-0.0707510896927017,-0.0116526726308588,0.0173272947949315,-0.0048295801031889,-0.684078927517025,2.06216791768822,-0.192316512248597,-0.145786552204588,-0.0294527620450155,5.43268747353149,0.00096252341384836,0.000284119930549642,0.000605607800114469
1.2,1.2649522068683,0.871222142657412,2.36564822897302,-0.122660250994981,-0.0572360905522638,-0.00499091758162085,-0.0388541789467685,-0.671619902975104,1.99295756620738,-0.0108689752854487,0.00387930302022527,0.0187665771651324,5.45515657998721,-0.00110920889459363,-0.00163330315267339,-0.000640206063075413
1.21,1.21704103793578,0.836438035659691,2.320545529428,-0.0820768942110008,-0.0288515035957623,-0.016119751584187,-0.115547509240536,-0.70452727240722,2.01810724598159,-0.120311050362992,-0.0990632906857384,-0.0340685400193621,5.48620016946567,2.99990537271759e-05,-0.00101858990890356,0.00239086917704021
1.22,1.22257833118784,0.855209564436244,2.37547864403975,-0.0971155982979562,-0.0411501821137263,-0.0090627664143312,-0.0434813349480488,-0.691831261055076,2.05839907361749,-0.0505078272553303,-0.0493709495191241,0.0551249693087757,5.4001646945805,-0.00129024076408576,-0.00143149810684214,-0.00216096459220589
1.23,1.24852550506323,0.855335874413798,2.40252311734826,-0.067530730418363,-0.0200773047145505,0.0292377906467882,-0.0497292676626613,-0.681025038550403,1.9849487342062,-0.101557807724166,-0.0672513132556468,-0.0402426148816901,5.45701727759479,-0.00143279815579651,-0.00193651748455493,0.000557104472763054
1.24,1.22878322909817,0.838373854269862,2.37054946487901,-0.104600284487472,-0.0426916091751737,-0.0247755746690575,-0.056283763584999,-0.741528881095762,2.02330816639122,-0.122124422291399,-0.0972247807118415,0.00459556787474534,5.4143157008276,0.00105819216609853,-0.000303494628892999,0.000964055006107855
1.25,1.24145545283082,0.827134453278258,2.40908361757618,-0.0997984914491139,-0.0420373314451656,0.00578892485831683,-0.0457719817673218,-0.696577062455762,2.00922489531393,-0.00924107453089824,-0.0252648999936143,0.0243768204896078,5.40203010972405,-0.0022274934205853,-0.00216484099286765,-0.00140518739119291
1.26,1.29172373849807,0.886934762312188,2.46261935929247,-0.0112330705340521,0.0295001911782856,0.0586902366898822,0.0255206885560326,-0.636135771444121,2.03815061901507,-0.106537424949121,-0.0617699696738099,0.0101565977756191,5.4274211725156,-0.00424405196071985,-0.00449131378059611,-0.00314371180855089
1.27,1.25227220438363,0.838629791659951,2.42707546372646,-0.108265820532131,-0.0428250139959306,-0.00604496224901972,-0.0124820234568435,-0.807056449658299,2.01366173709723,-0.23754578229876,-0.200741053136437,-0.0750683511581175,5.35819353050921,0.00430161226357364,0.00236285387064475,0.00385713872135611
1.28,1.21761455658686,0.749113654269315,2.40330980978651,-0.182574093874132,-0.124572224877624,-0.0636375424220511,-0.102510174840637,-0.772550652711353,1.93555479739461,0.0845853273700119,0.0527966487258448,0.0547970352088383,5.42609922862108,-6.96607317442733e-05,-0.00115544070660184,0.0004145283232392
1.29,1.16195758141326,0.736486117747409,2.36942903667177,-0.0747401722836464,-0.0390077000252422,-0.0279809853255596,-0.165027206029494,-0.785829891327852,2.07401861051129,-0.102465724555615,-0.107054414087573,-0.0339836729630234,5.3765677709975,-0.000515623651491009,-0.00150991216192961,0.00294007604937361
1.3,1.17870969513672,0.768478855015647,2.47797639723392,-0.114520262010858,-0.068259046478371,-0.0294888063498053,-0.0562673184823618,-0.801160938953949,1.96611631404631,-0.0919303877042617,-0.0892513307951671,0.0499757756541566,5.3496113841507,0.000946771250532605,1.98360864380527e-05,-0.000966040661394267
1.31,1.21781460433818,0.757864143223989,2.43970623415139,-0.109088972912033,-0.0588919151196965,0.00617656984688415,-0.0715675340313571,-0.774122069785682,1.96450243231281,-0.0287788299973576,-0.0321416805509833,-0.0312604737847259,5.37712639645334,-0.00101657111322824,-0.00182881177631701,0.00119759409696646
1.32,1.20067753805107,0.752779055901717,2.44424457628158,-0.0936826382455038,-0.0465709761609313,-0.0351213828787594,-0.0748258164329658,-0.810588888822225,1.98187208332739,-0.117777838887442,-0.109620253509781,0.00685511260915125,5.36255594741982,0.000645831908343092,-0.000656798271949916,0.00134298095094639
1.33,1.2663374531551,0.803037652346658,2.52389759617402,-0.0686580484791833,-0.0173796331043969,0.0395682691761611,0.0401932122559121,-0.725101421707325,2.01511747520278,0.00132190047169516,-0.015555444577425,0.0608028562937602,5.29979355747929,-0.00409054570888619,-0.00387892284242449,-0.00469309966349985
1.34,1.28359291010393,0.803530304339056,2.5284714628476,-0.0398495736123918,-0.00129610464233209,0.0434010041604413,0.0292911327348209,-0.786636551196079,1.92892506352896,-0.208450852365132,-0.157358716580465,-0.0842688208095206,5.37319827573252,7.40119346523212e-05,-0.000846249327622624,0.00198305378703119
1.35,1.27467744628299,0.770586757555973,2.49857420062765,-0.132383288592328,-0.0642118095648623,-0.0229806539943653,0.0371973593263147,-0.830666590431786,2.00177086036743,-0.048976401246558,-0.0403467127808253,0.0519963508263683,5.2668714101037,0.000487191278673619,-0.000944544454354331,-0.00136967605946143
1.36,1.2733071139556,0.743610927762763,2.532657904912,-0.072933006766948,-0.0211677240532056,0.0282887748344565,-0.0212673614324285,-0.756447555439775,1.92457218517153,-0.0320200103701929,-0.054670392565255,-0.0227178231352661,5.34884249796904,-0.00289277597028893,-0.00300064941755583,-0.000225981767637351
1.37,1.18171858718908,0.697896699789463,2.45785605946825,-0.129574161918614,-0.0900645814856655,-0.0637091573159731,-0.0823743881101266,-0.934516565209021,1.92569626160771,-0.223110549825292,-0.185056520523789,-0.0507279266731957,5.34442265337226,0.0057444867170532,0.00247073431399626,0.005420467874133
1.38,1.25798106404157,0.726349908047919,2.5525408768647,-0.119696519767143,-0.0593269500839497,0.00680375884287969,0.0135668895682186,-0.745237577941299,2.03975013765127,0.198235016002226,0.100585857014628,0.141334948220996,5.20636689398527,-0.00650799500198623,-0.00574988069367596,-0.0069611591451659
1.39,1.25290347109774,0.752060267158771,2.58102537162586,0.0223694139387803,0.0212993480694177,0.0605782112302408,-0.0195908361554268,-0.808355945496485,1.8588485958894,-0.325386103121506,-0.239869809865216,-0.147331896522564,5.44071679710921,0.000364594310831358,-0.000795277731716736,0.00419499603163706
1.4,1.22230522614821,0.706311913889075,2.50245788099986,-0.210618951282499,-0.131707474551759,-0.0781190999897743,0.030398532316319,-0.97878879617839,2.08819760131254,-0.070972738341563,-0.0560197860356108,0.0735701055530879,5.16120342955506,0.00544933024227001,0.00146210599795067,0.000216613222464604
1.41,1.21995853592324,0.610884306333613,2.57288836796023,-0.132275956699947,-0.0744150163848363,-0.0108854788955122,-0.122535314919328,-0.802622458919518,1.88974776922215,0.130314129249171,-0.00429633001447277,-0.0278454517516125,5.29906603842108,-0.0038542144586947,-0.00292955345795864,0.00183727212076717
1.42,1.20576424184189,0.721543591929913,2.56756902878918,-0.0106859972461567,-0.015243479998775,-0.00743466344462319,-0.00845305669225216,-0.837421544747209,1.97087940140562,-0.213646961281212,-0.138870013379259,0.0406810223442299,5.29727432252301,-0.00108079344831594,-0.00181533952539023,-0.00151539009195764
1.43,1.28748968792672,0.743180027514619,2.64100473204058,-0.110244674253658,-0.0326946761707602,0.0535148210549578,0.109954407031773,-0.894098233724813,1.98227918601179,-0.0687848248152363,-0.067863144902154,0.000995807917483618,5.15039113344187,-8.95858582961308e-05,-0.00183017655900667,-0.00256285856686367
1.44,1.2948720108786,0.674851466556808,2.61198106997901,-0.0861002056222748,-0.0372837458778977,0.0063837741768128,0.0320347166264817,-0.84590497371867,1.81071591033365,-0.0578729539564263,-0.0932413176922608,-0.0487087304112663,5.31829647269367,-0.00138704177510825,-0.00136959817674666,0.00202012963116289
1.45,1.27732516130028,0.702055554228683,2.57602219089285,-0.0731906158295419,-0.0389749555776327,-0.00372470900067324,0.0570813095867384,-0.878383983619383,1.98377231753567,-0.104151919018784,-0.0674428804903365,0.0560030398421437,5.20126391962356,-0.000865677882861316,-0.00211436550892023,-0.0024502185359689
1.46,1.26498040373573,0.66161110859125,2.63398382068869,-0.11094598326973,-0.048359731259703,0.0178828388915612,0.0242476461077431,-0.922770456875033,1.85150427481804,-0.0977565737439999,-0.116069070421799,-0.0551405606421245,5.24472020829286,0.00105686865297323,-0.000639198492733226,0.00176554070998923
1.47,1.27896162207612,0.666259163636265,2.61339015359994,-0.0867902033349686,-0.0464471298041267,-0.0044383731213636,0.0561303842484251,-0.859263869392728,1.92766665251663,-0.00316775180949358,-0.0367882431739121,0.0533556650692407,5.20589093809988,-0.00281774925192628,-0.00274107649997075,-0.00229100827146713
1.48,1.23605659253398,0.629447372263797,2.61086380575162,-0.0966491538827126,-0.0630707566665459,-0.00725843035653254,-0.0147901744580625,-0.971634928880578,1.84195370857817,-0.198705751502139,-0.161559596741783,-0.0730645193897163,5.25676858743395,0.00327929370952596,0.00061982042012089,0.00380220482864935
1.49,1.26417160396022,0.637494666779863,2.63244330169118,-0.129045085158721,-0.068615710824578,-0.0144593256185485,0.0528215351755575,-0.894758642680894,1.94395817116572,0.0838784937416549,0.0124496507102396,0.0954236579457382,5.15007975780931,-0.00285613745456676,-0.00331620010862827,-0.00382229325307193
1.5,1.27713758336444,0.648404215942246,2.67605036198107,-0.0222457871704648,-0.00629336922950597,0.0499107947449706,0.0357158913351578,-0.875002050686208,1.84481064681063,-0.168453228562955,-0.149823646544335,-0.0728855606971243,5.26940638684494,-0.00151975600085516,-0.0021160824694319,0.00113904535977173
1.51,1.25618561736699,0.636641742400797,2.63865983604849,-0.140118103528418,-0.084779876332537,-0.0339401047634875,0.0826605246231222,-1.02621363995462,1.93655888330011,-0.129655482841092,-0.11312584479264,0.0205288356393193,5.12009918048768,0.00351038002152975,0.000712561601509931,0.000629908146942846
1.52,1.28485369392621,0.579691129098979,2.68407070699473,-0.117456692671894,-0.0626117020465403,0.00945370628943001,0.0177853540900681,-0.884255079670694,1.82619854032444,0.0844460082393813,-0.0029305234612518,0.0160873128332738,5.20118860802687,-0.00338587421332072,-0.00339271874973024,-0.00119647003147309
1.53,1.28666644994802,0.659986927766023,2.68844417078093,-0.00478952404983923,0.00718680887107784,0.0386032039489775,0.088561315615482,-0.887873835049817,1.91239452644496,-0.173433387022746,-0.138685098381794,-0.000543589434111424,5.20767364569269,-0.00231651684962975,-0.00306254274659886,-0.0017272453394695
1.54,1.27985887911739,0.617561551971999,2.70213233587503,-0.138730195132857,-0.0773706806736972,-0.00121032506560793,0.118392559570422,-1.06313695769776,1.8929247031605,-0.15611378390043,-0.152300659785137,-0.0369822826198233,5.08995753586724,0.00420159487821247,0.00149071790850941,0.00180837451691406
1.55,1.31393626435106,0.561598154190997,2.7125234954811,-0.116080777118739,-0.0687402813938054,-0.00144443351979081,0.052096310432216,-0.88682353836479,1.80926617371686,0.120553422413475,0.0385424138133819,0.0515559299322944,5.17343785845627,-0.00439049735777434,-0.00418235965991794,-0.00235091536022507
1.56,1.23933120406542,0.579079535439283,2.65966025728289,-0.0456618667062079,-0.0332070607968066,-0.0022247824064868,0.00761776064271169,-1.00574690364502,1.84264240724231,-0.260693440907615,-0.217036495231137,-0.0710605281805678,5.21162504808264,0.00246974490800513,0.000149687159953212,0.00347613163148619
1.57,1.27702217022034,0.583752812571443,2.72930488962309,-0.153388264728104,-0.0907255775942072,-0.0100814743926161,0.127175480281484,-1.01147602244083,1.90874506254281,0.0520393063271831,-0.0064482788736032,0.0913508501218193,5.04542990204707,-0.000631457236524152,-0.00189275565954553,-0.00384989217065542
1.58,1.33408922560302,0.582804376214206,2.77168923090253,-0.014927736797807,0.00733215639075012,0.072016267197675,0.0814436368862034,-0.862928929675056,1.79960349013663,-0.0589960808638,-0.07992139702604,-0.0534927737840301,5.21157064624313,-0.00467865369026448,-0.00488980917133523,-0.000794724027397123
1.59,1.26427914032648,0.584848848527359,2.70391895994915,-0.107719208284345,-0.0674169756549997,-0.0322609428353592,0.124493848980658,-1.1182373427032,1.89192187488156,-0.263584886147725,-0.234582320738277,-0.0272553675074942,5.06481374493424,0.00573278459497297,0.00258902203650265,0.00282240747235405
1.6,1.27858897255404,0.471638004273856,2.73308315936423,-0.197158569558989,-0.140973988892915,-0.0353464414144869,0.0318981083767169,-1.02274322908339,1.74153541718672,0.149709048328974,0.0498455881816732,0.042365538212186,5.16720103662221,-0.00054434952395939,-0.00181576577399244,-0.000340479900306049
1.61,1.24226876801166,0.50639826275853,2.69148797573789,-0.0307669638938139,-0.023843889662244,-0.000165243485252063,-0.0140144238092752,-0.963357613243705,1.94100284582705,-0.0994737558808271,-0.122771146421243,-0.0230354399913562,5.11509288678218,-0.00252069317325862,-0.0033009936348913,0.00111292526852397
1.62,1.25745686009931,0.560356766575782,2.82215550908352,-0.100202084982214,-0.0627760157882762,0.00326375066358418,0.150266181138924,-1.09172477033979,1.81372337182564,-0.154469130572696,-0.155214917854767,0.033857094837584,5.03717900767967,0.00236076634095236,0.000421490725032272,-0.00175831314339803
1.63,1.29066090765301,0.466859592729747,2.73860660844537,-0.150548129692492,-0.103181441401819,-0.00341678132208312,0.0602827005282268,-1.0565666368408,1.71767534189638,0.0218533156948832,-0.036594448498366,-0.050146114196353,5.15616578984286,0.00051407991492189,-0.00115680138373758,0.00252331120928269
1.64,1.27078112598994,0.492406650694301,2.7298820719644,-0.0673531961471382,-0.0449033695145622,-0.0224817702298581,0.0550045811386138,-1.00665942104357,1.88626608260219,-0.0435251842741944,-0.0858965211243811,0.0514384541087554,5.0694955729551,-0.0020956196452112,-0.00298292587802942,-0.00136803463875909
1.65,1.23970159845877,0.477872363277723,2.78759082903795,-0.117689133423418,-0.0894262596841828,-0.00634977761328223,0.0809844239515324,-1.14137191743483,1.7331302182613,-0.168389283148591,-0.179383538176651,-0.0517301248554077,5.09995560070611,0.00412722336646345,0.00150110101738623,0.0027414698166997
1.66,1.3040522386634,0.470708436320261,2.7764082274982,-0.122529854827886,-0.0835269267309623,-0.00520990007645779,0.110723621729708,-1.01644058065262,1.82832474282014,0.118884826768106,0.0361015432692681,0.0738797971912002,5.0326829650431,-0.00354338333008124,-0.00408903124485785,-0.0032427336673669
1.67,1.27337753650105,0.4722738767954,2.7943859135978,-0.0399039244167436,-0.0302037558036792,0.0171716508299104,0.0669316920676822,-1.0731899441135,1.72994091207494,-0.217637603049915,-0.210199926405181,-0.081078895190016,5.14158155640216,0.00141959380879464,-0.000547355124618657,0.00302427779137803
1.68,1.29323139724264,0.481915637170544,2.79823907986579,-0.146160550746009,-0.0998217545212609,-0.0191639524420385,0.188681879235804,-1.13604104418914,1.84819503490715,0.00426732908832998,-0.0443487184462824,0.0771834014092536,4.96627687787415,0.000793774719160719,-0.000923379240928726,-0.00275647212186366
1.69,1.33835852338912,0.442391455182247,2.8463728852937,-0.0591952530453001,-0.0332115550398772,0.0450521272279417,0.102236534329907,-1.00120970416651,1.7094203609814,-0.0165841855849503,-0.0668909154234713,-0.046729847608339,5.10193674344031,-0.00310097396019844,-0.00378903464275387,9.88417939423143e-05
1.7,1.28368199725041,0.472407037294981,2.7939623143393,-0.0865371852277774,-0.0608970548883489,-0.021403470195676,0.162168033661431,-1.16473540685281,1.7894370485241,-0.191651570812104,-0.191881749931761,-0.00115425671470254,5.022494507448,0.00314932838588742,0.000767232039482796,0.00105889574161325
1.71,1.32087967424454,0.410707332525218,2.83755966706181,-0.147809884620978,-0.103485306675474,0.00150148255719081,0.149048160318991,-1.11386901336307,1.72264839866904,0.0695365343577908,-0.00920274486193585,0.026380297787829,5.02568311471661,-0.000677792117089769,-0.00191320351151114,-0.00132872735405625
1.72,1.30167340366917,0.410532863572924,2.81166280983982,-0.0549226863025929,-0.0419349028028815,0.00488672228211082,0.0861433070801829,-1.07487990666255,1.75382403970495,-0.0941897352233186,-0.123308239085451,-0.0337586509001697,5.06707726272254,-0.00101839264671756,-0.00238833204008512,0.00136145576832747
1.73,1.27597532504008,0.421334040414273,2.83904267037315,-0.122095579550937,-0.0897905919339576,-0.0217068484227857,0.166761261281167,-1.20133437451521,1.75478242548746,-0.110787651124302,-0.141903273883418,0.0223942953012466,4.98615859888012,0.00301018475615599,0.000561953243226455,-4.71331367544416e-05
1.74,1.34182761739332,0.393801961019049,2.87007507478756,-0.100405000478305,-0.0684162456777057,0.0277427198236856,0.158526599328295,-1.0671740811205,1.71987608084094,0.0792915983233223,-0.00656467502748894,0.0166336171990448,5.00559851550395,-0.00333638129077023,-0.00377551595876323,-0.00209293024349208
1.75,1.3120254258644,0.415780631928357,2.85184368606568,-0.0447042190975717,-0.0361000243876548,0.00910207187038397,0.153967735384378,-1.14831110790293,1.70714950434908,-0.196255740627249,-0.191181929313313,-0.0442933982949758,5.04706847985221,0.00135696944294824,-0.000708138125089297,0.00166053813996012
1.76,1.28918699693383,0.354334620995603,2.83291569243484,-0.177591426459231,-0.133688727620753,-0.0415073596360942,0.169983496558599,-1.2628774769264,1.72594838193083,-0.0282416881332932,-0.0877846434465416,0.0167970322029455,4.98847301543999,0.00405291208946525,0.000849158912373133,0.00115827367073025
1.77,1.35529836233943,0.357928578623893,2.89638308211772,-0.0602254876779407,-0.0406789585970028,0.0338102402388769,0.147853468137258,-1.01306205685203,1.78586769538212,0.128440967912502,0.0102898400603801,0.0489565521914298,4.95364879269448,-0.00652763038211615,-0.00611141626163498,-0.00387656762991336
1.78,1.28546587990992,0.393462160002921,2.89447524847769,-0.0450573141357829,-0.0531277494602866,0.00345102515413111,0.175975160665355,-1.26038181800301,1.63001961806763,-0.342408559518694,-0.299803466666271,-0.0993650565721275,5.03919406275065,0.00574334887319933,0.00251990263315003,0.00454288456806184
1.79,1.33434137318994,0.321476648535945,2.85850518554612,-0.206551589886712,-0.154499466671931,-0.0373753552029073,0.215934922596103,-1.24151543571623,1.74582459026678,0.168008359966406,0.0663028529133813,0.101509952338039,4.93710691942818,0.000366476331221617,-0.00197815388424574,-0.00304404166962611
1.8,1.3215933065123,0.2910423358938,2.88789029586771,-0.027100888971343,-0.025393092803183,0.0264102654485877,0.0730759014140749,-1.08326711263865,1.73139756767581,-0.0600688309713662,-0.135476671187269,-0.0783173915677534,5.0138732280059,-0.00290875890626335,-0.00354773607948052,0.00244869505041968
1.81,1.27619889048093,0.365689209354374,2.92119423385565,-0.110397498262044,-0.0978844235321743,-0.0369124166853394,0.244781142670148,-1.31115496544508,1.71048814949391,-0.187169839195701,-0.189427924425207,0.0464040840021844,4.89985779248579,0.00489421317195746,0.00195522180184234,-0.000458117073724852
1.82,1.36258162370883,0.275794416876391,2.91787786396264,-0.148320694677301,-0.105267540148877,0.0218027980987432,0.176386801367151,-1.17094839263858,1.61825190198774,0.145837289539646,0.0296315860377636,-0.00402178610038656,4.97862686748467,-0.00213054214554765,-0.00330235760913994,-0.000848967901935884
1.83,1.34557970517559,0.34002508624162,2.91045095283462,-0.00181356458207452,-0.00679127780675166,0.0206150763873863,0.195188452540268,-1.13075567050118,1.72543181734942,-0.12997431713541,-0.160701450130206,-0.00180808347708001,4.98313180087745,-0.00226615486461904,-0.00326282781370853,-0.000878430094871685
1.84,1.32344422624456,0.319369656129056,2.94101712872852,-0.138804574349371,-0.110540067526373,-0.00789508100252183,0.289134292176593,-1.36970487720999,1.69326873519616,-0.158571990154221,-0.182708650526152,-0.024831346333243,4.86602981447226,0.00588831955072404,0.00254703012960272,0.00154948691485765
1.85,1.38293926223841,0.227190667917288,2.93817534167309,-0.13782461138801,-0.108831760027773,-0.00864818427188086,0.172069463175059,-1.1607338365769,1.5984909592003,0.181710689306399,0.053973892928978,0.0373615089310343,4.96238767495388,-0.00341100455764222,-0.00409033398025167,-0.0013634656686079
1.86,1.31979127481522,0.295696984845066,2.91125647828702,-0.0111073482521893,-0.0236328590904546,0.0134361239409682,0.177895506595468,-1.20671836493172,1.68093141852631,-0.201852735012813,-0.211916589237699,-0.0329159386566258,4.97785523280988,0.000419599184454372,-0.00150561232951561,0.000907217588076732
1.87,1.32870633810378,0.276749989453243,2.95905930263671,-0.161861861381033,-0.127038575151704,-0.0156398302735448,0.300447328662406,-1.37413803732579,1.6863146455357,-0.0456295237955133,-0.108341244442136,0.0185256721976009,4.84080274655913,0.00417253969543467,0.0012559072370049,-0.000144731775536164
1.88,1.35660832787096,0.169941032810313,2.93590450693009,-0.12292748783496,-0.10763404669154,-0.0186772517149926,0.12948534625336,-1.20530609431772,1.56566679093682,0.0907819156701959,-0.0235783414813272,-0.0224765262244109,4.97707667385833,-0.00147230279364974,-0.00266955193222365,0.00192653335486235
1.89,1.30916012721052,0.261094440822716,2.93247598568242,-0.047702447420269,-0.0545486756592939,-0.0107661926694094,0.20839413666622,-1.25240421404509,1.68708642542418,-0.120924413675915,-0.158823756162659,0.0385202914740226,4.89922592563224,0.000282875481991879,-0.00152090414163321,-0.00133701261633218
1.9,1.37358832710857,0.266101646204147,3.01725891477526,-0.101731928220135,-0.078508139920611,0.0418712894441213,0.326434171744543,-1.30434724809949,1.61487422806396,-0.0221262355632112,-0.0911982011934344,-0.00522494533625661,4.84232391232654,0.000419637514201904,-0.0011450940746199,-0.00174562081717869
1.91,1.37270611442307,0.181034538473032,2.94618416564339,-0.106966128970657,-0.0965716125960108,-0.0190815337512768,0.218981658766128,-1.31072263242294,1.52307163854563,-0.0557036979924042,-0.111959148887031,-0.0508379873855789,4.96505198498417,0.0019671167023555,-0.000555638802555744,0.00328663969832614
1.92,1.32420704315974,0.167586524043075,2.91510587396998,-0.128883247893839,-0.115701053342657,-0.0476042542074195,0.208279037451779,-1.33487915871771,1.64312500985612,-0.0020539191172349,-0.0951932998961279,0.0486250564337124,4.8870603526921,0.00177977739903179,-0.000619876613014999,-7.40131672523415e-05
1.93,1.38108066581419,0.212624505536724,3.02844453416565,-0.0531237420001415,-0.0528013849325467,0.0477586071179055,0.276992159325434,-1.20923821917034,1.62583857953495,0.0407895737606049,-0.0546650622275856,0.0232606198494649,4.84542001612533,-0.00358448460752493,-0.00406396268042197,-0.0033574947938024
