time,x,y,z,roll,pitch,yaw,xdot,ydot,zdot,p,q,r,thrust,roll angle,pitch angle,yaw angle
0,5.01841953230695,2.01841953230695,0.0184195323069548,0.0184195323069548,0.0184195323069548,0.0184195323069548,0.0184195323069548,0.0184195323069548,0.0184195323069548,0.0184195323069548,0.0184195323069548,0.0184195323069548,9.14162381373256,-0.00528729949705269,0.0084866182742855,-0.00171622280859397
0.01,3.0193717654818,1.2193717654818,0.0193717654817975,0.0183641240994847,0.0186646853191745,0.0176655794189896,-0.0632958415618673,0.0997168173790273,4.28903743474159,-0.205531410334212,0.339692762639067,-0.0266617515172864,5.7401372050124,-0.000110275187204807,-0.000349124904525976,0.000472857265225074
0.02,3.30485901354334,1.37282497972952,1.74669075469907,-0.081950226258791,0.139425694929818,-0.00992645579196012,-0.020393027650486,0.0239803574441508,0.888240274615475,-0.00295872625221684,-0.00760940243877579,0.0114338377087525,7.09137076806823,0.000110222716282678,0.00231578830850782,-5.58127420350146e-05
0.03,3.32549775529374,1.34799021545656,0.39699736185895,0.00408062065097342,0.00566703777757627,0.0112378171106981,-0.32815760938787,-0.176300073607093,2.29724148251729,0.00788773235057552,0.098643555853731,0.00410788211751225,6.99287617440799,-0.00309513239354433,0.00408327108307612,-0.000727741957252465
0.04,3.17315829658769,1.24113393706503,1.00600608928674,-0.0112708264769993,0.0288546270366335,-0.0136263630624367,-0.0597143414301272,-0.018911133834555,2.16933496355872,-0.138929546976026,0.151597119072015,-0.0267929484036628,6.69024452648292,0.000641007965856936,0.00319048792279704,0.00194083926722991
0.05,3.34063221266747,1.36103519274333,0.959254468066607,-0.0248617606545656,0.0964053732848354,0.0235573956968494,-0.0271792782135925,0.0273262563822841,1.92449076087948,0.0497446755991397,0.156277981642054,0.0679059559758895,6.8462547103964,-0.00398790700792157,-0.000122173115941886,-0.00430866853301066
0.06,3.31344235145425,1.34009525978334,0.851293114500632,0.0192992711039507,0.0662071321570139,0.0243616973349633,-0.224613090397901,-0.0607940232426254,2.0844933160384,-0.16674947675907,0.00370451216295833,-0.0909505790576763,6.80460455119893,-0.000208412239581707,0.00433341547693603,0.00315164924259414
0.07,3.2711642964879,1.34397122751102,0.985412706499665,-0.0328762140167306,0.0405387776471324,0.00126959157694832,-0.116834576230394,0.0804207717687052,2.08349339511419,0.0157906129020501,0.205506337201136,0.0946752927165406,6.74602595397575,-0.0031692335288093,0.000820655077066345,-0.00451847911811333
0.08,3.27973384329936,1.36635420897431,0.952434370999425,0.00824119904067797,0.0906486775002542,0.0385162347354838,-0.120388980773035,-0.0623372032177701,2.01506637691131,-0.134026787397241,0.0448187948448769,-0.0923904827836802,6.77847715668535,-0.000732681547700358,0.00243813603504777,0.00255377017922326
0.09,3.29461171426222,1.32388658394382,0.94700630916264,-0.0387759082374494,0.041021632408073,-0.0192353635068392,-0.203895356306559,0.0238000505357921,2.08369209827742,-0.020897051201073,0.119686860866559,0.0670383546896045,6.74328051260454,-0.00174363408881347,0.00259721834629197,-0.0022505250572942
0.1,3.20794638856866,1.30932123056304,0.954066507511114,-0.0406989742365205,0.0265427620742316,-0.000926266481927909,-0.193398877865007,-0.128766206790121,2.02018179412922,-0.101585258811932,0.0870589376626953,-0.0714601525022415,6.79165526921676,0.0012403752232704,0.00380668329866773,0.0034462413110413
0.11,3.23417795975351,1.26708740654074,0.944975947694093,-0.0560726284766797,0.0280204009799435,-0.0385236537295401,-0.147424729480903,-0.116547052277039,2.09923558612997,0.0337350413733863,0.149310238275229,0.0612592969314999,6.73541157304383,-0.00148003395424292,0.00242525064444751,-0.00105980749112508
0.12,3.2918757416767,1.31122690298482,1.02164361320348,0.0325009140931004,0.0905637383777046,0.0459427004283849,-0.0938627343201427,-0.0825762307321993,2.09661115556273,-0.0499733280107883,0.126788845390928,-0.00335763332632882,6.68595396887391,-0.00407696281678273,0.000277558853351999,-0.00201524330265073
0.13,3.26876780557973,1.28014991457247,0.999850028896446,-0.0360724363690792,0.0475327114707957,-0.0164760022123262,-0.265770271758947,0.000435096827871462,2.03978383626417,-0.182661265660284,0.0140384175349794,-0.0536365048142988,6.72097740057426,0.00229322104898571,0.004399120449966,0.00333245481276241
0.14,3.22623595145491,1.34515325867607,1.02232587144033,-0.0659697701154237,0.0247245110380015,-0.00587525546723926,-0.161455336524889,-0.0701667437204058,2.10483188088667,0.0939186579433876,0.194600164441382,0.0790934758482418,6.67672466872845,-0.00322948619153587,0.00122171939464097,-0.00344394044009406
0.15,3.24663387366961,1.29239701200128,1.03687549689866,0.0253957295164156,0.0793497147794942,0.0204315375395306,-0.155429495688776,-0.155209873422366,2.06495909769872,-0.148058663128786,0.0579474723652054,-0.0795692856077594,6.68686778306206,-0.00101887333140191,0.00215982314992377,0.0027938599622903
0.16,3.25568908673763,1.26387436161557,1.03417205044818,-0.0660533654487765,0.0313610882656032,-0.0330571637898269,-0.245264520048512,-0.00300729038815023,2.09866231300806,-0.0516039684115332,0.10004280227917,0.0563622307879271,6.65320728063119,0.000200470243049467,0.00299526543086507,-0.00108828218446685
0.17,3.19051315062232,1.30127647729563,1.04328942577676,-0.0533679629672789,0.0256930085183649,-0.00125802543841385,-0.213342371749182,-0.187394740496097,2.05913692174659,-0.0239180600658107,0.110244514424762,-0.0449786394284254,6.67922366460998,-0.000302550520731865,0.00291381358126,0.00220273210501574
0.18,3.20816353146044,1.22792518858854,1.03792772793998,-0.0387631761504368,0.0317559035710707,-0.0414419800258362,-0.202369946054305,-0.174405949698816,2.10175172745064,-0.0404396149423762,0.110947805881791,0.0261416160604787,6.64967219015484,-0.000500771183866167,0.00266344759031704,0.000732291370594989
0.19,3.25922366296912,1.28052120590956,1.10667015724938,-0.00412079082253912,0.0753509802204345,0.0290644093986514,-0.145211683591896,-0.080854668494782,2.12602678258321,-0.0156432013701603,0.137147292050709,0.0309334045718541,6.58271410039704,-0.00358414801616003,0.000223556332979896,-0.00283656450463458
0.2,3.25461339606055,1.29152186860941,1.10950272316143,-0.0134070986589323,0.0666065135702241,0.0085023621658385,-0.244052244224226,-0.0680020677060609,2.06220336727297,-0.157283171498434,0.027346634668925,-0.0612479717469941,6.61844848772658,0.000320945755616236,0.00299778880116174,0.00249434371486037
0.21,3.19811592155427,1.28343368299292,1.09179778995511,-0.0841211280364452,0.00882456149734027,-0.0366856900868271,-0.26591031956945,-0.104537652837205,2.10004472292247,-0.0104874941394261,0.125949261565511,0.0398327220837194,6.60991313822136,0.000222860212569078,0.00290511953212865,-0.000131451539430544
0.22,3.19102883477846,1.270228804193,1.11849585458787,-0.0267839909815722,0.0500619353219332,0.00231091580277672,-0.187961442437426,-0.212832807777604,2.11502842381637,-0.0153271489845048,0.121231905554955,-0.0150652243664124,6.56786525969906,-0.00199284316805824,0.00143063552261596,0.000608298545702461
0.23,3.25754195178071,1.25850130652294,1.15944822725402,0.0028700037707651,0.0800510908958317,0.00860923630048032,-0.192841263454285,-0.0826600330584477,2.10914744298965,-0.0781893708681429,0.0910648236264734,0.0263808176773695,6.55284661501537,-0.00255574944436869,0.000845654883658162,-0.00166429123117111
0.24,3.23035976425696,1.28892343346295,1.15705826792918,-0.04039112017864,0.0504766681794837,0.00831799975178055,-0.270969377243,-0.0725112564479744,2.09945043024703,-0.117420752183336,0.0538742328502567,-0.0363789419863019,6.54626362940871,0.000329151795495738,0.00277932227879278,0.00133099673211288
0.25,3.21032722079372,1.30753104845609,1.18291022497683,-0.04533646996179,0.0470474121968399,-0.00321301426490885,-0.218485167952038,-0.115048182309765,2.11526542226388,0.00908640745783479,0.139552834907703,0.0360991728599206,6.51920160509538,-0.0025352053585482,0.00088889862717975,-0.00155212028327382
0.26,3.22806822745395,1.28465174942801,1.19544120171164,0.00245075666482035,0.0793309539045325,0.019743888569487,-0.222571132574015,-0.128263154464004,2.10230329152451,-0.111047102484713,0.0646547459315661,-0.0269690906247172,6.52257314415651,-0.00174278925772304,0.00121465224486836,0.000331713768457387
0.27,3.23326658102121,1.28653121133884,1.20940375938059,-0.0391492919375007,0.0575625682417194,0.00296183648743355,-0.260268504166784,-0.0599229610667325,2.13062099997362,-0.0723538933718264,0.0838465851845013,0.0186068378405765,6.48192306297986,-0.00118230406896362,0.00163659148163639,-0.00102362601540453
0.28,3.20706848862115,1.30714785966006,1.23116962231381,-0.0312034597414296,0.0585359185897315,0.0149022596624508,-0.248916676521401,-0.123177911133734,2.09685566040589,-0.0568794106294745,0.0940733948821214,-0.0158411957709458,6.49118088879046,-0.00172894831180208,0.00123593808441826,4.11576334049839e-05
0.29,3.17540077317578,1.24341762444103,1.19502596809765,-0.0580873147291883,0.0303915533317178,-0.0319252333495111,-0.31260764035031,-0.173984338456021,2.09081370463453,-0.105890017605782,0.0525542139142284,-0.020911813928793,6.51107889380689,0.00128197859017783,0.00311876436354642,0.00250614525245043
0.3,3.18840127496884,1.26248478621068,1.23768538570248,-0.0455803607965597,0.0463006461928422,0.000739643096381699,-0.231713113106738,-0.156129525930468,2.15723202673948,0.0426573886534774,0.153057172137218,0.0587605053843274,6.43623979220416,-0.0033809058265438,0.000199780893758743,-0.00281242122133149
0.31,3.23296742002905,1.28044350971817,1.28595596063834,0.0282668775405854,0.100438746339181,0.0415962542208522,-0.225865678238194,-0.120547970932988,2.10949242146719,-0.137687244850661,0.0532149715337711,-0.0422950737956045,6.4616480913293,-0.00264917940750178,0.00019331294854932,1.37332108219577e-05
0.32,3.22335431203088,1.28450976916218,1.2749587197311,-0.0524512543689369,0.0554138140746933,-0.00477832760566602,-0.313270323363989,-0.0546186877169626,2.15455251727814,-0.112125468477217,0.0474250466249931,0.011201961617252,6.40111751847211,5.15984541278636e-05,0.00221525890623695,-0.00030894955592276
0.33,3.11864631239728,1.24932186243732,1.25539458029857,-0.102114498769217,-0.00618126473799191,-0.0383169156575632,-0.364865818988053,-0.240015668668778,2.04484215040616,-0.0529762314401588,0.075597277020055,-0.044818958969524,6.50281367210332,0.00223412761488299,0.00355315582167899,0.00395281802971741
0.34,3.15011436687816,1.22072145234343,1.25987009165385,-0.0377241010218237,0.04462238746992,-0.0208992036525269,-0.237446175868971,-0.247424565908834,2.21205400247653,0.0699154406032815,0.162222969669534,0.0791840991571944,6.36551300030906,-0.00411150955300952,-0.000284399952817592,-0.00275714557443362
0.35,3.19695804706678,1.21024129776197,1.32580625802766,0.0103831320156761,0.0780813949834073,0.0220987840306006,-0.290701709059327,-0.173665922269332,2.07209631771437,-0.191940181217823,0.0140942913219778,-0.0638478748426353,6.44263550433489,-0.000236492431670386,0.00171901622711962,0.00195983145684901
0.36,3.18535608016305,1.25462106684961,1.30189683417044,-0.0830534777612807,0.0329541219583069,-0.0185234998891992,-0.316613959668361,-0.108452764306571,2.18002913672633,-0.0224933533095794,0.103830043224978,0.046332193824965,6.35106501261007,-0.00063443180554853,0.00150249970321331,-0.00131375483074215
0.37,3.15281752163786,1.26329525340998,1.34698794336538,-0.0321194101673372,0.0536752018293438,0.00906707461126976,-0.299341782454395,-0.230016028875495,2.09169109052852,-0.0535408664754438,0.0796942701891035,-0.0361305262903618,6.38909912126483,-0.00171489360970466,0.00104441271360705,0.0012733979708178
0.38,3.17271155212945,1.22174613178486,1.33171855969116,-0.0347274070623392,0.0547471031338152,-0.0151899885230686,-0.308026818528212,-0.172280948216609,2.14507098707933,-0.0876481091280427,0.0715347481563138,0.0267821467757671,6.35875124523095,-0.00100994143236046,0.00117867850619625,-0.000559520987489252
0.39,3.19970910673402,1.2792520624213,1.39638198987401,-0.0185353619347127,0.0818522594723709,0.0404621175916336,-0.262811012623008,-0.125037336377536,2.1570634090573,-0.036073590181453,0.101110529964454,0.0134481889267118,6.31245258668934,-0.0035404953045358,-0.00071623602403708,-0.00256172537333172
0.4,3.19677369138368,1.27805161100525,1.40010028435597,-0.0123001568717249,0.0798413416430991,0.018764190471597,-0.315517883685992,-0.140173435911368,2.11552759380025,-0.150990690245738,0.0167152194346914,-0.041361177045713,6.34004926210946,-0.000958876236911273,0.00131402620117419,0.00105078088521213
0.41,3.16163085841624,1.26104151962474,1.39216277622711,-0.0702114841514534,0.0356238120039058,-0.0112161361200549,-0.344075862166971,-0.153611950007971,2.14627042195795,-0.0556903364735438,0.0877863577214508,0.0259169622271028,6.30355761393862,-0.000569190385751861,0.00136515321729649,-0.000700267293302622
0.42,3.12481260468304,1.23136081952772,1.39308130212977,-0.0553769469857534,0.041764026378723,-0.00659277898065781,-0.348143806026757,-0.244795074514009,2.10369111611374,-0.0598174646483317,0.069522984302585,-0.0300007722703112,6.32752930409538,-0.000627365196955935,0.00131551596139984,0.00172621520136518
0.43,3.14439574067109,1.21161897665665,1.39838245126749,-0.0408868172049695,0.051174165076345,-0.0133048526134976,-0.331123486975581,-0.21277171640801,2.15350389990543,-0.0478514836222871,0.0825372455988247,0.0350332200746555,6.29022826796134,-0.00183553346276096,0.000627670529540652,-0.00103921157230304
0.44,3.15190021850957,1.22695575796242,1.43521997900388,-0.0323639142101524,0.0606058428872353,0.0160063716695307,-0.335683585823079,-0.196620056106903,2.13217758511723,-0.0953509403709182,0.058746983834048,-0.0200777046101948,6.28269538681408,-0.00125525328404646,0.000745671824187833,0.000180117101487723
0.45,3.13225954133394,1.21773572645162,1.42715274830791,-0.0652538207426634,0.0385121706017325,-0.0187609234384366,-0.370854043426292,-0.217352843476511,2.12621290089859,-0.0823105347134319,0.0536447472542369,-0.00544651186106244,6.27840723799244,7.04062066102795e-05,0.00165171169477518,0.00113891074334432
0.46,3.12180765221532,1.21469643962955,1.44377864129697,-0.0563957403610115,0.0408061353111467,-0.00786638994548484,-0.353054963702744,-0.240450569073656,2.14182981935138,-0.0256844999938916,0.0920361470593677,0.0184962787118508,6.25527943452809,-0.00173177238377896,0.000570159750714108,-0.000511033391076658
0.47,3.14348191264879,1.21827754523742,1.47464747673637,-0.0196191829076498,0.0708917076071776,0.014366913932877,-0.33370277126635,-0.215083270495044,2.14335373462755,-0.0878256581532943,0.0622336326618794,-0.00455151101192477,6.244436713939,-0.00214431398062356,-2.01681570271394e-05,-0.000479771836488168
0.48,3.17176466494155,1.25042465796276,1.50927112712371,-0.0233756007982914,0.0812917221082493,0.0258920751642496,-0.323796836869804,-0.156998329106978,2.16532152818748,-0.08675474153962,0.0576044836979605,0.0141072489954122,6.20589256895237,-0.00248303582229849,-0.000317027540281516,-0.00190977236365707
0.49,3.08505401170005,1.18765171881044,1.45912895233415,-0.099402746989701,0.00365813851174263,-0.0411228571230535,-0.465966205767975,-0.288615123749201,2.07167888777441,-0.164401109625659,-0.0169092398037793,-0.0797563205405342,6.28100544378936,0.00418035465804942,0.00400835695873938,0.00573409865836774
0.5,3.06199330453441,1.16962337742727,1.46477347873327,-0.103981284922243,-0.00353149094603581,-0.0497545676376498,-0.378112354461211,-0.311742796741668,2.19478332662925,0.126534820313279,0.17588322168311,0.103922993706383,6.18666293064968,-0.00296686352954604,-0.000120659276874269,-0.00255979315207717
0.51,3.14320986030863,1.2003845645867,1.55494852009405,0.0543927428336338,0.11717098147377,0.060723412374574,-0.304194303678371,-0.244631275180171,2.15477505201241,-0.132686505218097,0.0520687484744814,-0.0366416985536775,6.22228908320905,-0.00444559920391522,-0.00236695947122408,-0.00114640197719102
0.52,3.15490687039539,1.20984560982666,1.53959337276322,-0.0617399287500843,0.0608664183014816,-0.00808987716283348,-0.408152704827161,-0.167942264138934,2.20351105720442,-0.196391838256625,-0.0458618595384408,-0.0153457791458939,6.12332914724851,0.00188443479325025,0.00275890805917114,0.00109935678092574
0.53,3.0869096861032,1.23024357274375,1.57483813831422,-0.104070990671098,0.00422606744051891,-0.0096457940342295,-0.398987448439816,-0.260472265503728,2.0775545649405,0.0451813587063277,0.137928112406693,0.0186427857237835,6.1974502754899,-0.00168337955219955,0.00047349968549161,-0.000425981708253843
0.54,3.10871275256894,1.20123373277212,1.54593824431992,0.00576494444483507,0.0917221412168804,0.0143914718755136,-0.35114324970992,-0.279415719433935,2.18932061191798,-0.0892234219763682,0.0605569159216287,-0.00277875851640173,6.15238766424009,-0.00342974510580643,-0.00156230117616665,-0.00056039108895708
0.55,3.09837348764035,1.16043223106769,1.56367942354348,-0.0750153153167316,0.0349625296597812,-0.0218591115455133,-0.449321229087155,-0.262791687520329,2.12310186433401,-0.181905105481136,-0.0400646981765048,-0.0276396407380548,6.15285085976164,0.00270371810770521,0.00319526778616661,0.00234033270615486
0.56,3.0532668804664,1.17268922808132,1.56374249926181,-0.113518556590469,-0.00714493966347583,-0.0283520532592351,-0.426696783529235,-0.311792575425254,2.13133085687524,0.0651859112212905,0.144590829595093,0.0332477150482006,6.14908004423838,-0.00147543140488813,0.000387717664970891,-0.000230413962941362
0.57,3.09181247301229,1.17571028265438,1.59790953011627,0.0108104643343088,0.0934221401430753,0.018728156232874,-0.364496395593267,-0.301386640161178,2.1811094613216,-0.0839005108993589,0.0568245149403951,0.000123840535967593,6.11869282001399,-0.00381218430910937,-0.00185237924825705,-0.000899416985316124
0.58,3.1387819218723,1.200125650211,1.6452416545201,-0.0266706849398653,0.0817004027395692,0.0255041837087151,-0.377910715835156,-0.205068604263633,2.16971078923181,-0.159333877608504,-0.0117226783442017,0.00489642293241745,6.08204408414638,-0.000891540117624052,0.000621862881672562,-0.00145614152655194
0.59,3.10687430299079,1.22418509456568,1.65469597344108,-0.0724288565660504,0.039734866194316,0.0156033860672496,-0.403129363455873,-0.246470260259552,2.12523549072821,-0.0539726682564721,0.0712155749956127,-0.0193178524561052,6.08749426090538,-0.0012864779684571,0.000282368551299172,0.00016366863723191
0.6,3.07041145709511,1.17880680096615,1.62679970558537,-0.0545433828480878,0.0495116619178116,-0.0177221741930673,-0.432195268932306,-0.311488503917939,2.12095074525584,-0.0897605329342777,0.0392951715607671,-0.00495821781095934,6.10195884027634,-0.000795247031380716,0.000253363595430348,0.0010600451059488
0.61,3.09138517055032,1.18121585693347,1.65672112484764,-0.042956817077093,0.0633343531493583,0.0139977652317013,-0.398113248690719,-0.266052616105737,2.16784076986548,-0.0487671578784322,0.0598085640611034,0.0362037989448291,6.05351889238475,-0.00269262579090881,-0.000794692893834728,-0.002387958862945
0.62,3.07516150641692,1.1720519228138,1.66778467701435,-0.047940822664503,0.049958374993667,0.0086180822093267,-0.442660213978207,-0.301425941309963,2.11073505199966,-0.144873632680455,0.000798499702211686,-0.0549751920783312,6.08202602217558,0.000110652078642187,0.00107721430439227,0.00218013327794388
0.63,3.04621986824518,1.14896492794233,1.65146206777803,-0.0964842631699385,0.0172920706313539,-0.0354692133492572,-0.460572501813914,-0.324643459378734,2.14148711054999,-0.0386467034615822,0.0687681364660756,0.0342742364002794,6.04996554855966,-0.000139820862021637,0.000621250878993545,4.79601866934229e-05
0.64,3.04438837873405,1.14479052493802,1.67832048155547,-0.0490078121251688,0.0506725774664626,0.00563235577535842,-0.443958675118028,-0.339770218219335,2.13733810241283,-0.0451472805917057,0.0528354815078151,-0.00622808122064629,6.04318498064868,-0.00220664478557297,-0.000516221178182831,1.80234584487122e-05
0.65,3.04570146938907,1.13069654155386,1.68291481279425,-0.0551819081398096,0.0415194119817288,-0.0149298306070806,-0.462631795382998,-0.335748640224872,2.12672707477032,-0.131141011326301,0.00692194875281895,-0.0095130163441837,6.04446055417233,0.000180628719124466,0.000967456229227516,0.00114355700697686
0.66,3.04267238382606,1.14162275344299,1.70294493632219,-0.0826713507957105,0.030678385174883,-0.00770422315759019,-0.452289604683875,-0.330135213946115,2.14643953900098,-0.028593564031811,0.0709555930695369,0.0208506620349652,6.00452087401201,-0.00125085899639574,-0.000159454008593927,-0.000631682787294622
0.67,3.06009274302877,1.15734787589803,1.73643726216983,-0.0270200359428026,0.0713386653888135,0.0184680616486355,-0.427322157925122,-0.3185499801959,2.1370137689735,-0.0752654591933776,0.0390902142968582,-0.00453746757689902,6.01200774683328,-0.00285542074963157,-0.00122275636745422,-0.000667544500813438
0.68,3.03204236884462,1.12283042454439,1.71418022097433,-0.0771960647967681,0.0281250148818658,-0.0232754023504993,-0.495493545211395,-0.362192864494319,2.12113541963379,-0.16603243878159,-0.027332558012144,-0.0311357607840504,6.00808121113909,0.00205804948003047,0.00206218043406398,0.00256729752963509
0.69,3.03286977594982,1.13940704630483,1.75397049981895,-0.0874100124298122,0.0275759735755763,-0.00537675233489587,-0.445084258250606,-0.335036165932657,2.15639570520346,0.055068373341957,0.122959694744319,0.0599868383642191,5.95332535020512,-0.00329431283341887,-0.00156806951244606,-0.00258951679248401
0.7,3.06637402029942,1.15984298295934,1.78862596059395,0.0171244072381688,0.102543150959684,0.0442614058311248,-0.421523128052582,-0.316722079377237,2.12887242632247,-0.152247350461409,-0.00513832118426183,-0.0370482201150978,6.01209343043875,-0.00315505560344455,-0.00185135669297302,-0.000335768519983141
0.71,3.05079582188736,1.14250738264249,1.772170037619,-0.086998893478425,0.0344254573138251,-0.0147433298777411,-0.479971862175876,-0.333718816663193,2.18695030676515,-0.160755405755304,-0.0313379360961757,-0.00503292775705744,5.90773389756468,0.00181208166944679,0.00193519662207993,0.000927053741630317
0.72,3.03375743011121,1.15280236330949,1.83055777097403,-0.0803582954425053,0.033620055478654,0.0114947625436218,-0.450145589512092,-0.333463500168731,2.09539906425059,0.0489197968920553,0.121746278198094,0.0305228793690983,5.94430751104133,-0.00374366134158756,-0.00199900141485663,-0.00199251257039926
0.73,3.0302471798018,1.12838338961725,1.78318053409458,-0.0099936853135234,0.080800885532122,0.00988980813655144,-0.47846851385206,-0.369048575594815,2.12651218989519,-0.18953784898401,-0.0419624818457102,-0.0434655947242098,5.97983188244538,-0.000889130703983712,-0.00028719078128017,0.00158605489645483
0.74,3.06158961928866,1.15836083381361,1.84662903003276,-0.0682750350812667,0.0551757583319485,0.0184662898273009,-0.427029165533032,-0.299221894608955,2.20648641429125,-0.0409979714801644,0.0577550790511222,0.0651468222674413,5.84807623546753,-0.00251449128395152,-0.00126124170776808,-0.00396665162932286
0.75,3.04936822276478,1.16058119148922,1.87673277546985,-0.0283329184004692,0.0734899323941441,0.0423500062935899,-0.458625988786042,-0.337746682380553,2.06462454736159,-0.126458526037057,0.000242901424566858,-0.0701096890416987,5.95387751380786,-0.00199516508994191,-0.000964297355359068,0.00130969217312453
0.76,2.97998595738999,1.08413270139351,1.77913589259743,-0.116662375459983,-0.000422007960338148,-0.0634960064817385,-0.561228567337444,-0.432654468368939,2.12994435275797,-0.148139030936569,-0.0274597666974621,-0.00184090126906996,5.91654997045568,0.00341241572632998,0.00228635080351382,0.00308984052438278
0.77,2.97986944991531,1.09082880944336,1.85517691781109,-0.0905802357712606,0.0229372219147194,0.000267327978539593,-0.498154944098183,-0.390082677681852,2.15608578441695,0.100525849975357,0.123952054056334,0.0655891589643415,5.85314962952913,-0.00442615972731381,-0.00233300628267255,-0.00311551724218324
0.78,2.96292484146837,1.05912396213493,1.83241376330898,-0.02458958972994,0.0483860992503197,-0.00857273301928024,-0.557440644486554,-0.451878125125853,2.05595432044827,-0.247825705084457,-0.083158067648559,-0.0951661003652368,5.96748437443978,0.0016330507950264,0.00134826743383127,0.00490632090145757
0.79,2.99826994934829,1.09745855833364,1.86162526191935,-0.112539836329996,0.0185696048481119,-0.0198857209056512,-0.476611241296746,-0.368578038576438,2.21943160454991,0.0420583080859627,0.109043128437262,0.119893720294595,5.7889114284683,-0.00229575937928222,-0.00165175423111522,-0.00473836432647895
0.8,3.00749149984057,1.11245509295817,1.92687294692594,-0.00628587971283464,0.0839004325124137,0.0553948397009766,-0.494588291182707,-0.386679772870038,2.058472580856,-0.13003001601003,-0.0217061087851926,-0.0945177362486632,5.92172677973936,-0.00282222903063244,-0.00160146469185035,0.00186440778435882
0.81,3.0046135775834,1.10506026056597,1.8825694972486,-0.0748290001511001,0.0390267299016272,-0.0278642318765723,-0.497615346651808,-0.393898956182818,2.1914611723106,-0.144317438852967,-0.014043440099052,0.0490857605863761,5.79938536065125,0.00047183334652511,0.00045654019654838,-0.0010151774466815
0.82,3.00159939346535,1.10952108656753,1.96024497902544,-0.0752809480533322,0.045495760738416,0.0353900324752789,-0.490501696697047,-0.383794675250043,2.08044351654109,-0.00795243579489556,0.0631934268221513,-0.00815594991781889,5.83388022253444,-0.00292104080992419,-0.00192325982152042,-0.00128896348013569
0.83,3.02199476403782,1.1261438944205,1.93984889672029,-0.00461091028101497,0.0935383602655725,0.0287109790625116,-0.468169005802391,-0.365944722698768,2.1399418279265,-0.131903101519428,-0.0130068388008422,-0.000326733923257001,5.85092224696741,-0.0033048585060535,-0.00228996858524696,-0.00132376331926439
0.84,2.98247016825598,1.08542287516932,1.93745024668529,-0.0941495587279818,0.0233909224615854,-0.00860638873517885,-0.540506265307553,-0.44133770586354,2.13367453459151,-0.181503621310775,-0.0603420071701806,-0.034114209088441,5.78561768318209,0.00246233552344443,0.00186790736696649,0.0020176584296565
0.85,2.95550632074422,1.06460360206314,1.95885997707902,-0.111342968823104,0.006688293698438,-0.016551590330407,-0.542488782384709,-0.431028606118599,2.08179212588136,0.0545303316520396,0.104668212661496,0.0396207197811913,5.80724427316936,-0.0026248577638524,-0.00178161223102275,-0.00109503686384412
0.86,2.97117791874437,1.07772892175434,1.95407712224181,-0.00175205382652194,0.0878351726133807,0.0273341809430713,-0.522683481624752,-0.418540919605485,2.13442793279586,-0.140785103152764,-0.0258375922352213,-0.0143418744305412,5.83117528838144,-0.00298350171448036,-0.00232938051462724,-0.000587376368509786
0.87,2.98262622992841,1.08629521558087,1.99185244192978,-0.0748858552555987,0.0431390228863206,0.00989283732713732,-0.508601513908535,-0.424790093309917,2.16132870500774,-0.149233296738244,-0.0420610936574072,0.00201754968439688,5.7286469012106,0.000371778819683248,0.000505203227762362,-0.000568318519546608
0.88,2.93568878616993,1.04125660289856,1.98683060122464,-0.118641612521915,-0.00347397879465648,-0.0207602838673691,-0.582572576089099,-0.480752897777527,2.02573544080994,-0.0470316492749187,0.0339270966405629,-0.0308490589753618,5.81625193332292,0.00039641369657154,6.36082651358073e-05,0.00243555770739305
0.89,2.92173450337255,1.02854188083929,1.95100775775135,-0.0674317248083267,0.0375127201161752,-0.0227008255770061,-0.575400040324062,-0.476879029730204,2.15325338853047,-0.0364009051219835,0.0261515170861006,0.0420500082831941,5.75244070481997,-0.00237678132745,-0.00177428859678763,-0.000913099945812235
0.9,2.93452736179383,1.0379367145569,2.01756430307795,-0.0513386271823508,0.0456530378440213,0.016772112754602,-0.551149915633097,-0.467256356993645,2.08446867490579,-0.140737012441574,-0.0371291337660205,-0.0194693489933503,5.76997979878442,-0.000649304060183806,-0.000392867783532699,0.000130669511805414
0.91,2.88420327961679,0.986331088870365,1.96020734406108,-0.142573910571499,-0.027542887221751,-0.0554343659801221,-0.635457765393589,-0.55791151478141,2.06442710643142,-0.111255095452695,-0.0214796690460972,-0.037386043386794,5.78400195322277,0.00361912790791221,0.00171076501289102,0.00439284310283844
0.92,2.928602695399,1.02994482356903,2.03488037501184,-0.0621528238277146,0.0467032811595569,0.00646700687598661,-0.533261386451105,-0.440851223993288,2.19591119371961,0.12050786493303,0.116538639709335,0.111102489521519,5.66221179995311,-0.00681098396528046,-0.0048221302078132,-0.00553076079306901
0.93,2.91526101317598,1.01731515589389,2.04903525904826,-0.00660447257991359,0.0581200324018926,0.0251587426489329,-0.585919333469693,-0.524688747137557,1.99817954044756,-0.340331607137303,-0.169426207444267,-0.134056927380523,5.83306275418263,0.00260321813861796,0.00177086798289762,0.00517573730356905
0.94,2.93754983875461,1.03442581255685,2.03521385001267,-0.154582787392892,-0.0149926392858026,-0.0340199462089944,-0.527908343304595,-0.477966762633637,2.21742368673909,0.0727164374083906,0.128415854592113,0.127063933740042,5.60531470420619,-0.00147695978583,-0.00198194583927135,-0.00440606363925448
0.95,2.91211153237313,1.00751376129265,2.0946147716063,-0.0241148597377427,0.0704635279862058,0.0373693069846259,-0.603720585724325,-0.498360901500102,2.00937152957088,-0.122487853642218,-0.0574654066099069,-0.106342848701311,5.78220729821329,-0.00237934724530738,-0.00177915460785119,0.00329349235747743
0.96,2.91431143463736,1.02460250598146,2.04936902654688,-0.0800861970967559,0.0246011328898409,-0.0323841273481395,-0.544290307448217,-0.508577786568748,2.17137429750984,-0.13378488559886,-0.0254752560070753,0.0792794852616548,5.64035012407299,0.000207509954934169,-5.49736897222931e-05,-0.00222246464732932
0.97,2.93239473593687,1.02369492683654,2.13873191187391,-0.0793680181161391,0.0402223890783003,0.0461911648234156,-0.549671858350492,-0.48504411484195,2.04315084647564,-0.025737069379834,0.0366081968396226,-0.0345872689578984,5.68312649023552,-0.00257211256965521,-0.00244836983221076,-0.000537453140947766
0.98,2.9074257170638,1.00655235642246,2.07388561326389,-0.0567681225376934,0.0464773379562499,-0.0180533772181865,-0.582536603810688,-0.528477262949604,2.07510747014261,-0.154023080956402,-0.0684522182617272,-0.014889085532365,5.70604851764095,-0.0002583741362388,-0.000381770043057101,0.00156758838620221
0.99,2.90791331356407,1.00378920513195,2.11699074013544,-0.0943642773495679,0.0174368253998577,0.00290854769784391,-0.560760123199487,-0.521112171104449,2.11405989840915,-0.0498634445072695,0.0227082938963141,0.0414493806261688,5.62274575996017,-0.0012434012527886,-0.00127929521754108,-0.00209827572609495
1,2.89664777901571,0.988747942051222,2.13189402606345,-0.0654126191766972,0.0410846673818532,0.0136635274341295,-0.594301425121943,-0.532175312943225,2.03608389825028,-0.101241682782708,-0.0246258689722195,-0.0471597773128467,5.68575183310904,-0.00120134311065747,-0.00148255319682026,0.00159692384964777
1.01,2.89656636614346,0.995937779314251,2.12150911902029,-0.0749441256724275,0.0350331011007164,-0.0100616672095806,-0.5687596209589,-0.533288392621978,2.10889491338314,-0.0888268857034061,-0.0199925319518345,0.041889784744361,5.62587285987189,-0.00122159274607736,-0.0012524967397669,-0.00149874861458753
1.02,2.86606065582736,0.957057660675119,2.13508457227973,-0.100616180963985,0.00539655505463739,-0.00491159401320335,-0.624573044501942,-0.58643510905236,2.02856256871584,-0.116202093365363,-0.0402418273943253,-0.0498582950770767,5.65841537547065,0.00107025256654328,0.000206915966773555,0.00259173259248235
1.03,2.85110897516096,0.943321411794683,2.12229667990135,-0.105962329575863,0.00315187511128647,-0.0348120718433609,-0.627498629877298,-0.577674498639905,2.08636200855452,-0.0181456474363599,0.0250320359301694,0.0427491416800668,5.61684546328731,-0.00123642163360221,-0.00154843320891112,-0.000375412162447253
1.04,2.89151306277596,0.987790644929889,2.19260233823335,-0.0252359136299462,0.0703991275977458,0.0433909539803635,-0.56060025317027,-0.512502592246257,2.09074389637328,-0.0780890957307347,-0.0119167817518387,0.0138937296359837,5.62426355023946,-0.00389547626840185,-0.0035518725154742,-0.00265965723668425
1.05,2.86744053345917,0.963170409040432,2.16857520262438,-0.0885982440735748,0.0171561152285513,-0.00791829465211711,-0.601505686904304,-0.617807530174305,2.05528941372643,-0.218208473468899,-0.122143301445668,-0.0668873267961049,5.60487920655184,0.00298336699929064,0.00162978513633649,0.0035473952581501
1.06,2.86677348048978,0.942577649937766,2.1932795240624,-0.12973185808278,-0.0130344107231573,-0.0245184427077991,-0.600914827590135,-0.568854000059205,2.06315791621562,0.0719607141613421,0.0959174335876401,0.0781720964414756,5.57066566425602,-0.0026146002076968,-0.00265018655460176,-0.00253543549713503
1.07,2.8254743048875,0.916355632006362,2.16519970940047,-0.0466576742587469,0.0414469711513025,0.00216557987474844,-0.670630046354087,-0.619818251542829,2.02678329937477,-0.183251585527368,-0.102564398517969,-0.07935774960108,5.65138012999809,0.000235475100460968,-0.000677427334731655,0.0036741089675278
1.08,2.82271384366392,0.920798297015041,2.18281880314351,-0.129506785586643,-0.0164392206122952,-0.0419886471872133,-0.613617133539841,-0.631344307383572,2.10312515843082,-0.0501075813412402,-0.00358612177605297,0.0710350124817531,5.53183390064709,0.000620436413934046,-0.000250170006678728,-0.00137836680572542
1.09,2.82974259617102,0.904746778749918,2.22359758970282,-0.0824052228274698,0.0179380667292609,0.0137439540468592,-0.649776894079346,-0.605625204780335,2.01549380529533,-0.0381453307024801,0.000426028508614621,-0.0415293143384523,5.59188336479373,-0.00194491305716599,-0.00214716705429039,0.00132917371867042
1.1,2.82405586298407,0.920740570469465,2.20517227257092,-0.0696243860139687,0.0286558494545399,-0.0223432095376411,-0.620574933557122,-0.62751348762342,2.06455510317125,-0.133972954701335,-0.0630850184832522,0.0239074992210505,5.56669224000366,-0.000208650645375147,-0.00097541846249567,-6.08523975507656e-05
1.11,2.8559891199481,0.935069995502452,2.26323525896213,-0.0840061480420674,0.0261785146165258,0.026065918841361,-0.576373300928187,-0.600121399776381,2.06277824350072,-0.044370061155778,-0.000668261032069309,0.0141152458826999,5.5192832102441,-0.00201005121329466,-0.00218328688137365,-0.00188458042228825
1.12,2.86689170568609,0.940166768479758,2.27713361151815,-0.0485365124099396,0.051080406295547,0.0234224611938921,-0.581331815903517,-0.595856605841137,2.02498200419959,-0.11816462447345,-0.0471999604332536,-0.0246842998428586,5.56215390504251,-0.00188860526197528,-0.00225607700564403,9.36236182836738e-05
1.13,2.86537536364922,0.941953051785804,2.27809814943066,-0.0758923180318162,0.0360225979233009,0.0100866273808882,-0.565463036345114,-0.619199486053251,2.07141442663039,-0.110933393633506,-0.0467976505449077,0.0200792840573816,5.49842694918668,-0.000835711804718421,-0.00148910084644494,-0.00140952071433957
1.14,2.84554715117724,0.908317444366151,2.29315813396747,-0.0920096262733569,0.0166119282580153,0.0094826267372621,-0.608020345649345,-0.638613789097849,1.99841120277002,-0.0846589222345799,-0.0351768954246352,-0.0279212235762632,5.53081667938118,-0.000556615186527184,-0.00120894137614994,0.000883049428391306
1.15,2.83453076158458,0.905133203034567,2.28173397416976,-0.0762714740399292,0.0274019469854447,-0.00295179839069449,-0.612624412122453,-0.629887247845103,2.0486434494512,-0.0684206894213324,-0.0181148399939939,0.0260286713269523,5.50614554223235,-0.00179592652394615,-0.00235899472245635,-0.00107086532883451
1.16,2.7962045487865,0.871234791733933,2.28001787822028,-0.0988092783533183,0.00462817071683326,-0.0106073859607639,-0.656059158181374,-0.695832259148189,1.99674392041954,-0.143616015998259,-0.089072127035404,-0.0400003967767534,5.525197629532,0.00156063837614683,0.000107638821201742,0.00240098258084541
1.17,2.79009720689921,0.857430264568953,2.28482214834412,-0.118885928856909,-0.0135988831471363,-0.0266995855773391,-0.652308675117966,-0.67426686904838,2.04168378941369,0.000825348088951128,0.0181524792591058,0.0432142300213984,5.47645831431641,-0.00128133202123304,-0.00188888630155662,-0.000777570137643259
1.18,2.82313899804399,0.89715209714496,2.34401755861238,-0.0273679026758463,0.0626389690893562,0.0415017757556175,-0.608326416724282,-0.612576901610562,2.04144865618069,-0.0865926536982788,-0.0345725435153258,0.00331706396998688,5.50392708918455,-0.00369291613799479,-0.00404345629503313,-0.00205079337197087
1.19,2.82561795304505,0.906548224709342,2.34635450122165,-0.0706894800829879,0.0343897066663882,0.0163577957414298,-0.576083162068059,-0.690735146614054,2.04421453633782,-0.190568451100978,-0.124885291775175,-0.0298650453395443,5.44622969556412,0.00100806447975353,-6.20876311586562e-06,0.000661122588940499
1.2,2.82355813257404,0.864297013778281,2.36154607823603,-0.12243241772984,-0.0115354736681648,-0.00627790343962382,-0.611992993336413,-0.679519059695999,1.98293431523666,-0.00885076950946977,0.025154870886754,0.0200495439584208,5.45609996830731,-0.00109505178627818,-0.00196498738219082,-0.00064621386696435
1.21,2.77181928901313,0.828630032469456,2.31347364053348,-0.0813601950893478,0.0171941983303831,-0.0154968177950233,-0.696109626014718,-0.712716528285615,1.99334040072082,-0.119879518162191,-0.0797279014829452,-0.0341395322955146,5.4977573242482,5.01244322346783e-05,-0.00139418987931894,0.00236287412136797
1.22,2.77149373308238,0.847722936573074,2.35326105381045,-0.0974457147432444,0.0041667653349257,-0.00984485992601728,-0.628430248033398,-0.701224206772518,2.0459504846568,-0.0493775859440853,-0.0317649269076969,0.0546154298353284,5.41348856993612,-0.0012015657822134,-0.00171553661592999,-0.00210547131240401
1.23,2.79201542359907,0.846992268838229,2.39097530252949,-0.0669083217633071,0.0247134369967214,0.0287084148298946,-0.635849461715572,-0.689923707399999,1.97465011077337,-0.0985108098977472,-0.0462644168717616,-0.0390001811919151,5.46025658042427,-0.00143291017177782,-0.00233584875996913,0.000516991659982582
1.24,2.7681413184376,0.830255589823865,2.35704918128368,-0.103911188378646,0.00352606265605566,-0.0249851727715803,-0.650130542228436,-0.748619815574872,2.00296819946229,-0.121621755127541,-0.0808904312971423,0.00383333832625558,5.43044653431574,0.00108254311817322,-0.000691780297055878,0.00100709397036865
1.25,2.77423663524096,0.819605751963977,2.3953201984116,-0.0997685548729404,0.00243289332227729,0.00481227889490722,-0.641336859790093,-0.707091214388897,2.00114370537292,-0.00829839340966027,-0.00854439163534619,0.0253785062459272,5.40739424888959,-0.00214484655327212,-0.00250046059639595,-0.00141081395264879
1.26,2.82030257620896,0.878000051236832,2.45011263482807,-0.0108606531781817,0.0742346541368557,0.0588908445895208,-0.573660098459397,-0.64420968716151,2.02220576265272,-0.103482476039394,-0.0432437264060558,0.0100955386813006,5.43356404940945,-0.00420809734802258,-0.00491075663114774,-0.00316048958292742
1.27,2.77536934067233,0.830727892026831,2.41010018121334,-0.10715695203913,0.00271959896767182,-0.00712447840107623,-0.61975021220647,-0.812483677812144,1.99570772597764,-0.236087825016883,-0.185513199104931,-0.075332332428452,5.37706535631297,0.00428656898592213,0.00193473206587855,0.00391651321542663
1.28,2.73265824956026,0.742480698617342,2.40083394988814,-0.182776058454865,-0.0802460730530685,-0.0649992666038515,-0.710856639001804,-0.783178818205146,1.92953506708749,0.0846697672183378,0.0677145514269781,0.0561851082653534,5.42720259058465,-7.37371792942378e-06,-0.00156681985723943,0.000411968785255297
1.29,2.6740145511272,0.72742527913144,2.35663633325271,-0.0744691565621367,0.00544982592166578,-0.0264025569072987,-0.785723054326067,-0.795698896031964,2.04951804719904,-0.100328483749638,-0.0918420895669759,-0.0339896630315255,5.39552065619882,-0.000505194367947484,-0.00201231889535199,0.00287024680574362
1.3,2.68162438529498,0.76198722158208,2.44298448827748,-0.114137738925955,-0.0237846990798774,-0.030173084040021,-0.674572319433148,-0.810893801082508,1.96244354339439,-0.0910684687364857,-0.0777840049913614,0.0485880498206206,5.36999753255501,0.00100906351200382,-0.000369636934458951,-0.000869289920915241
1.31,2.71864740435722,0.749146839764626,2.42839036569969,-0.108505963178734,-0.0158153713500711,0.00514228025305499,-0.69313721968684,-0.785042742308631,1.9622082595035,-0.0265650364266899,-0.0164156587712922,-0.029118799618229,5.38021264214798,-0.000988967484112232,-0.00231858043979643,0.00114434216691828
1.32,2.69624325221848,0.743902949672268,2.42762375975921,-0.0932080859516675,-0.0016949160643185,-0.0343180564277073,-0.703453835777935,-0.818385022226209,1.96351820985187,-0.116136766123157,-0.0981105810256679,0.00580791229478685,5.38362007554103,0.000652319564216862,-0.00116675032367106,0.00135560844276757
1.33,2.75558682773029,0.795192366489,2.50188122876342,-0.0680797086157249,0.02586305902755,0.0383263891270663,-0.588717909355072,-0.73580811150335,2.0158380943914,0.001555839598718,-0.0048282622104191,0.0611665329234384,5.30694829383386,-0.00397399501473651,-0.00427661959701375,-0.0046558427885699
1.34,2.76850183299608,0.794205331078874,2.51736230754861,-0.0394113927871823,0.0417419361988935,0.0434074953062159,-0.603044412982013,-0.792858221380916,1.91590328593016,-0.204079953641465,-0.142573753469527,-0.0834070295930237,5.38526897778727,5.20354987558902e-05,-0.00141171657109625,0.00193889719841363
1.35,2.75409717538221,0.762759569575202,2.48678139469109,-0.131519223927496,-0.0194852585811498,-0.0242400001077549,-0.60355507236934,-0.836575402477948,1.99290871315298,-0.0490421068335279,-0.0320524407628008,0.0511928882432824,5.28031718846076,0.000523364149435649,-0.00144803237233422,-0.00127448970985672
1.36,2.74537502507858,0.736037256708258,2.52601633601476,-0.0726352273002882,0.0210798263688297,0.0277174405933063,-0.660555587883697,-0.767224366906429,1.91664935003517,-0.0307625330473512,-0.04434555143396,-0.0206093111642844,5.35457145759032,-0.00281868423589086,-0.00349148196238823,-0.000298496380523156
1.37,2.65021738048619,0.688693092627113,2.43925066132121,-0.129359933027452,-0.0470473297934894,-0.0630777253954304,-0.733151315065828,-0.940931067322093,1.90935864897148,-0.21957996685385,-0.174539653503292,-0.0521719489640409,5.36999911031683,0.00568136376881849,0.00188110645062116,0.00545715645926746
1.38,2.71870080717299,0.718312278784322,2.53858741257769,-0.118807011016217,-0.0161731346907749,0.00482218400849327,-0.638247567912042,-0.758675811685328,2.04639095899829,0.196053600229502,0.107479280336913,0.14224773296256,5.20746030502842,-0.00634407950441829,-0.00623758428132695,-0.00691069144082938
1.39,2.70867315836143,0.742324403330552,2.56328217412608,0.0226011632455988,0.0632311043911374,0.0624195031586511,-0.67044696617074,-0.816167931717671,1.84078276967458,-0.319724999464614,-0.229245873825675,-0.146218842022954,5.46259167936218,0.000342976809629205,-0.00141969824546742,0.00405681131567088
1.4,2.67430179867608,0.698056844223968,2.47968657493938,-0.209897364420563,-0.0882523463807,-0.0803647303883223,-0.638722998580421,-0.982972218499695,2.08663106556925,-0.0707469606699275,-0.0506240142623432,0.0708050888612977,5.17828219632428,0.00544983810787203,0.000894515737495661,0.00044925047158658
1.41,2.66029407898402,0.604699995831096,2.57391035580972,-0.131633408674548,-0.0330353339372701,-0.0122494251724408,-0.78423962808617,-0.817380579176708,1.883897212419,0.130081579922999,0.00260678008242742,-0.0228050416067513,5.302296387447,-0.00377537225058984,-0.00350877401939012,0.00166716850903471
1.42,2.64433406933626,0.712740763581915,2.5386066028262,-0.0110140744642322,0.0265547456030862,-0.00429843130175228,-0.6779351934097,-0.846135477656875,1.95731267786929,-0.209989774029229,-0.132544606041717,0.0371456737400783,5.32823777089583,-0.00103591322545448,-0.00244761363884316,-0.00149427292629183
1.43,2.72004105782979,0.734769369944285,2.61678237428067,-0.108511052149218,0.00903624234090777,0.0502966237653047,-0.562688275583713,-0.900452856284619,1.9961838563732,-0.0672642094595689,-0.0634591493190037,0.0015759923325069,5.1575988080034,-6.02410882352925e-05,-0.00239484515127667,-0.00243952958714926
1.44,2.72206596111264,0.66708377483803,2.61079600410471,-0.0855697731137153,0.00375228385905192,0.00616369183492055,-0.638292002965164,-0.852882321316151,1.80066049455536,-0.056373557635228,-0.0870458023270389,-0.0459799053429063,5.33080852773701,-0.00136841048938529,-0.00201518840695793,0.00190209710028153
1.45,2.70083951034188,0.693387537009591,2.56058349040786,-0.0730172490371191,0.00275015275217615,-0.00306164891642002,-0.625069803026335,-0.886315454100237,1.979810198722,-0.102700299515501,-0.0646585283474138,0.0536140129418609,5.21885005070903,-0.000798807302181887,-0.00274905020418699,-0.00236850160313807
1.46,2.67992866613694,0.652699556484881,2.62055508573076,-0.109876163543816,-0.00797263449572879,0.0160956784542177,-0.657053433184263,-0.930903105765716,1.85213658352581,-0.0951175478402018,-0.112865464568071,-0.0532891424693952,5.25800928619677,0.00105408740273354,-0.0012492843204248,0.0017624171602477
1.47,2.69008139148312,0.65727510958657,2.60198867653292,-0.0862606971075627,-0.0058371522704664,-0.00438447612229918,-0.631619891206086,-0.867988692782778,1.92580286916773,-0.0025764933890666,-0.033088185550365,0.0534154852199335,5.22036808538716,-0.00274221395381961,-0.00342113123599547,-0.00229504619777509
1.48,2.63996498555165,0.620286297755655,2.5953706522957,-0.0958668162259971,-0.0222487723076532,-0.007186894185137,-0.706237888265715,-0.98011357109751,1.83994020136515,-0.195591797421723,-0.160776681783961,-0.0730409262436329,5.27630196804406,0.00325457627628538,-4.70114153902041e-05,0.0037970564820915
1.49,2.66274908272239,0.628320548520841,2.61808626750526,-0.1284917362189,-0.0289877030524945,-0.0160921252221569,-0.64293068796195,-0.904552000905278,1.94965277006705,0.0834707509749326,0.0137314765072007,0.095455875297235,5.16131549867628,-0.00275088789955995,-0.00394996907569633,-0.0037457486866604
1.5,2.66956171543522,0.638957481422757,2.66122220822627,-0.0215143140431089,0.0336798784853466,0.0507457983795657,-0.661444212378241,-0.884665444836253,1.84253706846271,-0.164364446694645,-0.147675479247176,-0.0711626702154294,5.28877602801619,-0.0015003176930849,-0.0028683648256916,0.00102037046279927
1.51,2.64321636880967,0.627302508662327,2.61939062335659,-0.139213947707234,-0.0445731221039321,-0.0347074089432965,-0.624150176854247,-1.03144884767797,1.93847564685496,-0.12809993707398,-0.1158487087044,0.0181570181296576,5.14063151873656,0.00350219425771691,6.15345327904897e-05,0.000775583781114378
1.52,2.66402633409786,0.57178157484229,2.67927124140732,-0.116577829175873,-0.0243819402781136,0.00738338631640893,-0.685676420027514,-0.896767925879692,1.83356849889352,0.0842721819097863,-0.0018575174573404,0.0193111709140329,5.20685029690296,-0.00328906184018584,-0.00409524053702359,-0.00124939499007682
1.53,2.66239669389173,0.649760691441827,2.67049146660295,-0.00461181013297397,0.0469267186280169,0.040752975425548,-0.623101627307384,-0.896067805667872,1.9071409445234,-0.169166327902056,-0.139995538539222,-0.00155420141418012,5.23500461771956,-0.00226399214694429,-0.00384804188012787,-0.00177935829936556
1.54,2.64797092850585,0.60859496895152,2.68188635947186,-0.136984590915811,-0.0385707621739247,-0.00310366835543744,-0.598609260009659,-1.0677793064351,1.90240858800621,-0.153714171545199,-0.156936102450816,-0.0379405089378215,5.10711220821524,0.00415442157083609,0.000831710952261922,0.00193966785186806
1.55,2.6754111645648,0.553964957012142,2.71373185111937,-0.115398305070801,-0.0312568781138555,-0.00320344646710616,-0.662676364519582,-0.898420056459224,1.81555170661596,0.11906821478072,0.0384665061694594,0.0544856380626752,5.17829708721097,-0.00426246175202085,-0.00494427370073869,-0.00240473136365323
1.56,2.59683621471311,0.569045153494699,2.64133896465772,-0.0455996875896554,0.0060972601485825,0.000186642857336973,-0.716884254234354,-1.01390520570086,1.83692072739373,-0.255347534457532,-0.221409170798043,-0.0720875203912995,5.24512836093851,0.00243604290822805,-0.000661654876447196,0.00340995791252363
1.57,2.62674578841939,0.5747290369492,2.70790773727186,-0.151893150849258,-0.0532081089897466,-0.0128841740566241,-0.59980816565736,-1.01925110701214,1.93013636294259,0.0509955948046787,-0.0126426790226986,0.0901083918271604,5.05466723054227,-0.00055162045345764,-0.00256321754037269,-0.00366034495710873
1.58,2.67863014297959,0.573495992260354,2.76901046703403,-0.0144746343814648,0.0442717191404498,0.0720485932533871,-0.644147032003888,-0.874058339634413,1.80115094662494,-0.0555610994983501,-0.0814908470982337,-0.0493440454852153,5.22631909793924,-0.00459354458051154,-0.0057368000190215,-0.000990667766061882
1.59,2.60346850606238,0.575266886870828,2.6810337074965,-0.106730230848093,-0.0289085282730365,-0.0309547891237205,-0.614024503707594,-1.12198730476011,1.88944334959518,-0.259237012913127,-0.243428687498272,-0.0312635321975382,5.09984686973254,0.00564317292889823,0.00183380570992674,0.00294548768490449
1.6,2.60860573967367,0.463920427842147,2.72847351150572,-0.195392029021355,-0.105516586273379,-0.0395539080647934,-0.701723962722186,-1.0357394142391,1.76634423147639,0.145846071768659,0.0452302597288425,0.0451346173002301,5.16362905950012,-0.000426359149084121,-0.00257370501821617,-0.000275355028584341
1.61,2.56978280067807,0.495120193686837,2.68328144084167,-0.0318770492023906,0.0136915471416158,0.00237187470611249,-0.760683241133458,-0.974620041231498,1.93505978251219,-0.0944036369246289,-0.128437011683456,-0.021524695461582,5.14660705665029,-0.00245644484752457,-0.00423425843307223,0.000920739876164867
1.62,2.57351486219703,0.552661171332479,2.78726913422776,-0.0982755018075333,-0.0259428747589895,0.00311350631626092,-0.593792166006089,-1.09710634471578,1.83376909714529,-0.151198230004787,-0.168196466277086,0.0299352762139092,5.0635440646143,0.00231449997683661,-0.00026142822163257,-0.00156839245212428
1.63,2.60482919305642,0.458272230670489,2.73692827411642,-0.148752762306344,-0.0694657924156606,-0.00648328356762604,-0.684741544412473,-1.06766621636231,1.73637168297891,0.0200667802534562,-0.0397738441194343,-0.0459694361644624,5.16044543937652,0.000580740089506367,-0.00200241612805086,0.00246795691739576
1.64,2.57967474904865,0.481680364740818,2.71919860468706,-0.0684604942432256,-0.00707316621241358,-0.0205443803005102,-0.701450362395828,-1.01700294466106,1.88969604295634,-0.0399150407198584,-0.096071965843606,0.0504143335534067,5.09814173105602,-0.00201046776312884,-0.00391969634168754,-0.00141363778101746
1.65,2.53848173859596,0.468745047473403,2.76198927929537,-0.11547249726021,-0.0545471150861055,-0.0070505401232544,-0.671950539753701,-1.14871315572821,1.75257435968918,-0.164541818149427,-0.193350947850217,-0.0525479736224595,5.12360987001415,0.00403645847790529,0.000815734136286609,0.00280886853972109
1.66,2.60066036629424,0.461060027248168,2.77088933424806,-0.121316771968879,-0.0502551054057724,-0.00719262155473029,-0.647987010755722,-1.02891657648752,1.85043239911925,0.115620427205301,0.0317030358681917,0.0754667127395123,5.03913325503189,-0.00336745946737336,-0.00500671587825552,-0.0032249088312015
1.67,2.56208618282671,0.46148982514532,2.7793210860724,-0.0402198733337315,0.00700383585614704,0.0191071403985933,-0.696108184405703,-1.08224936342807,1.73493402304297,-0.210223039077088,-0.224006636975543,-0.0805599506495224,5.17732108599716,0.00138781766239093,-0.0014769258557379,0.00290155042483121
1.68,2.57540291151095,0.472303825356757,2.77745116040294,-0.143876383279756,-0.0665360244869024,-0.0210665058056918,-0.577365501805744,-1.14174474765183,1.87597166775016,0.00343890516800034,-0.0588362057626838,0.0747464409640859,4.97967725771053,0.000817036652352753,-0.00165333825029535,-0.00255522572943775
1.69,2.61533072040249,0.433278352346108,2.84678649608087,-0.0586268323134273,-0.000234888029998569,0.0440263933014374,-0.664456413711791,-1.01406072948319,1.72358144339754,-0.0151037960157797,-0.0742125458806562,-0.0423082933024182,5.11690538890297,-0.00298489857919924,-0.00476679881696263,-6.51646893524648e-05
1.7,2.55406861713073,0.461734590745124,2.77395137370852,-0.086200538874608,-0.0252770022113803,-0.019596985795791,-0.613916132638042,-1.16985064676489,1.79844997930757,-0.185979756851549,-0.209227023049441,-0.00446989090563807,5.05888378319825,0.00308683677657105,-0.000111735537956089,0.00112319281924357
1.71,2.5838194608264,0.401679063574261,2.8283114251303,-0.145197029699546,-0.0720160794077241,-0.00190153774307327,-0.623533127497826,-1.12420080158621,1.75599463410073,0.0671301771765813,-0.0224839058305607,0.0279062606815433,5.02941489394628,-0.000602707870212935,-0.00272404757524239,-0.00124385817558768
1.72,2.56092614946916,0.399562851517934,2.80797912468209,-0.0554734421531052,-0.00869173628008361,0.00612422405050694,-0.69515688896741,-1.08579201283815,1.76214430695302,-0.0904575604375175,-0.134784477957378,-0.0317986772467796,5.09586309485548,-0.000945340988389636,-0.00341263989097924,0.00120281716941042
1.73,2.52572755043977,0.41148432117252,2.8153282224858,-0.120679761580718,-0.0560230774663393,-0.0217834358239803,-0.617625814276524,-1.20726656806823,1.77973662165587,-0.107042322472118,-0.162036560806447,0.0191995913274033,5.01267742198767,0.00295329224833994,-0.000274620605792059,0.000100270312393644
1.74,2.58674017634535,0.384350697336554,2.86635960096286,-0.0983914350849235,-0.0382877977844573,0.0251369106449993,-0.623678257362682,-1.07968614111673,1.74915134616799,0.077439816864471,-0.0194980078746932,0.0199231418240105,5.01377951907535,-0.00320540877397247,-0.00466992901758866,-0.00212895889705072
1.75,2.55192016217695,0.404468691418894,2.84057763533693,-0.0450008920594376,-0.00310108753194737,0.0113974532687298,-0.637469116886975,-1.15641745302568,1.71843657889645,-0.190151489291239,-0.206879648936882,-0.0448907372179707,5.08292225138474,0.00135703138847264,-0.00173517814919779,0.00156957166677012
1.76,2.52049703222754,0.34433617168328,2.81684635044224,-0.175297858388523,-0.101903860672006,-0.043861352672749,-0.624045197883003,-1.26872826575042,1.75809709123838,-0.0278843299270572,-0.108739343863345,0.0150413759386764,5.00334763057591,0.00401019601807771,-3.03485622858153e-06,0.00134413847395538
1.77,2.58139656229208,0.348318825523668,2.89707848574156,-0.0596574522185893,-0.0110247710287274,0.0323287287726256,-0.646324636572533,-1.02844629618182,1.81030119120777,0.127428475056184,-0.0045370156503777,0.0530682992458383,4.96810038121039,-0.00630652957136445,-0.00709068150720987,-0.00400796562055025
1.78,2.50407873485193,0.382662617549367,2.87349208964781,-0.0445488052988947,-0.0212539413683199,0.00690087612174112,-0.624627004694821,-1.26551188301862,1.64381257359119,-0.332656400091488,-0.319660522489391,-0.101981264539942,5.08320135565349,0.00557933801496796,0.00154783016451963,0.00448980788162974
1.79,2.54712493122396,0.312037874025679,2.84973533348299,-0.20327109360966,-0.124662027274408,-0.0420973699948262,-0.586772927277611,-1.24906744171378,1.79183226971883,0.160903898102151,0.0472063776886365,0.100562811714873,4.93430352190885,0.000494682186886112,-0.002925679232774,-0.00278337207706547
1.8,2.52871605129899,0.280708479356875,2.89045321847826,-0.0287436506399012,0.00502409684665365,0.0274070061366476,-0.733027655668756,-1.09715620593578,1.7428506887722,-0.0541753099592077,-0.155089150158234,-0.0726148347789456,5.04816084157401,-0.00279643428965409,-0.00459010980006685,0.00211376816632861
1.81,2.47378309055821,0.356536615745079,2.89143893123206,-0.108543348389153,-0.0682627412082923,-0.0348508664042565,-0.566328050957923,-1.31352690363798,1.74168689277596,-0.181527959208824,-0.213346960904123,0.0394785798619382,4.9331882069965,0.00474488330045965,0.00106411090355827,-0.000238697252364245
1.82,2.55600139222557,0.267393227476508,2.92037297616146,-0.145060394926187,-0.0777999621492075,0.0167277419836648,-0.631994359276135,-1.1850494943983,1.66240276424586,0.139844929719484,0.0122574784923325,0.000796957330492854,4.97783747944002,-0.00195758130622169,-0.00432218143036193,-0.00084336420424093
1.83,2.53385407037201,0.327713295339696,2.90373495502134,-0.00396929827161419,0.0235703931415494,0.0240827445703996,-0.621462925734648,-1.14080892959159,1.73965183829354,-0.122034599704637,-0.183997110395592,-0.00150390553943552,5.02577020111202,-0.00215705364859634,-0.00434835155444426,-0.0010798697731037
1.84,2.50258932000797,0.309362706078125,2.91936120376067,-0.135193401358982,-0.082733954612175,-0.00874733155856212,-0.53064462382918,-1.37060276367436,1.72972449149353,-0.153404873619118,-0.209142931815391,-0.0289286789258387,4.88946483627901,0.00568057686848331,0.0016708939759189,0.00177232255234505
1.85,2.55708974670898,0.219366864106597,2.94721024278881,-0.135550280152149,-0.0825426466382985,-0.0125171072879017,-0.645694677436647,-1.1761369892198,1.63739606840827,0.17343903776223,0.0356408699487981,0.0422544832879953,4.96510021536591,-0.00315786827695703,-0.00515778391854208,-0.00141881437770485
1.86,2.48786710759131,0.283365487365461,2.89944596362356,-0.0135643610359905,0.00598061924734117,0.0173783464644044,-0.648401507709287,-1.21679738296597,1.70109463467471,-0.19075001898246,-0.238122841139244,-0.0339025244522779,5.02447070135854,0.000443839943389444,-0.00259966532269835,0.000741548643950187
1.87,2.48825745385014,0.266450447203603,2.94019093740737,-0.157385879703526,-0.100799044204124,-0.0180541414232617,-0.527336908289568,-1.37523485377644,1.7318130510461,-0.0442708343436509,-0.136052789078182,0.0151864759359937,4.85618938446686,0.00402123028254704,0.000349417643077439,0.000117017064385405
1.88,2.51179163784692,0.161817506157183,2.94540219852977,-0.121805995197315,-0.0822075054337656,-0.0212633201261944,-0.698242424964567,-1.22190939009686,1.60086331091775,0.085186834844949,-0.0445884561989513,-0.0167556446808284,4.98970987889746,-0.00125670734690254,-0.00376102153975317,0.00176842023791817
1.89,2.45670500932602,0.248833340392754,2.91656441045043,-0.0497163076166879,-0.0265657176949198,-0.00759879338161665,-0.626614695056682,-1.26211646418834,1.71978945522341,-0.111107107007424,-0.1873670894272,0.0353546211264546,4.93930580801464,0.000299029902850787,-0.00259865269722329,-0.00135784088694134
1.9,2.51389181424298,0.255587050348478,3.00440964067804,-0.0969199953502791,-0.0537555230154521,0.0395314816059922,-0.506287724042647,-1.30822831595635,1.66370137073018,-0.020629898944474,-0.119404952064652,-0.00548734592188565,4.8585769202945,0.000330937522470743,-0.00210238715046986,-0.00163321207729872
1.91,2.50949244805348,0.171597307865677,2.95093932174133,-0.106082617392246,-0.0717616816085811,-0.0195459732561959,-0.618717005399299,-1.32259851791048,1.55562872416375,-0.058453086410905,-0.136261348011235,-0.0482778552982337,4.98671068597059,0.00209243244402577,-0.0016485328158521,0.00317530700069761
1.92,2.45278663335382,0.155274079826902,2.90644693249694,-0.130005213425893,-0.0894685187643702,-0.0476769938514372,-0.635106057738639,-1.34437687887023,1.68456385241559,0.00380872010383637,-0.125082874640118,0.0464372192848544,4.91362352816202,0.00178171889084415,-0.00169435793087751,2.14689622959388e-05
1.93,2.50219735081466,0.201607144460741,3.02172649893196,-0.0497576012334911,-0.0290255604083095,0.0465431336438648,-0.562714867923953,-1.21943550726507,1.67554380082443,0.0420089739642739,-0.0841895416341839,0.0254746128840275,4.86583779870705,-0.00353604685643541,-0.00508458738334514,-0.00342180781077172
1.94,2.51188629913331,0.230770899074786,3.02080791241591,-0.0421353871396204,-0.0224396579084002,0.0354782676740522,-0.501924203575785,-1.35400584024978,1.58536516692354,-0.180938572136418,-0.222417220466031,-0.0543155046962072,4.9088200499671,0.00218874113179734,-0.00123727688370843,0.000862558551829157
