time,x,y,z,roll,pitch,yaw,xdot,ydot,zdot,p,q,r,thrust,roll angle,pitch angle,yaw angle
0,4.01841953230695,5.01841953230695,0.0184195323069548,0.0184195323069548,0.0184195323069548,0.0184195323069548,0.0184195323069548,0.0184195323069548,0.0184195323069548,0.0184195323069548,0.0184195323069548,0.0184195323069548,9.32037427609852,-0.0108644040793622,0.00656341319663393,-0.00201127350744654
0.01,2.4193717654818,3.0193717654818,0.0193717654817975,0.0185980553855456,0.017956447266968,0.0171924220760542,-0.0666363205962488,0.102945701321312,4.46951562517759,-0.432644714670255,0.264979812107584,-0.0329484756104747,5.72601128435755,-0.00031265773958824,3.36487873477857e-05,0.000471086601486838
0.02,2.63768106890864,3.37220017671338,1.81514876196537,-0.174077895704276,0.10911516901644,-0.0120646232690231,-0.0194288963118977,0.0240283921519058,0.875731800771688,-0.013652112168613,0.0087396847383853,0.0116780219142598,7.04157719568886,-0.000946809568787093,0.00184057338050709,-2.10814965827761e-06
0.03,2.6606420682965,3.3437739480403,0.387962475807014,-0.00160347533094951,0.0116494919047218,0.0113050475002566,-0.255283988579943,-0.393062589222035,2.26886693512191,-0.0375531224910021,0.0795458693362263,0.00519074206056502,6.99899662531462,-0.00581713366077141,0.00307209296193164,-0.000858492707483132
0.04,2.53521345526016,3.14086181103923,1.02324062922589,-0.0311398701648492,0.0206389494398963,-0.0132770968610146,-0.0685976006703516,-0.0443368901468365,2.17602546574374,-0.252608023540858,0.111650111602612,-0.0296046239855038,6.69826434019197,-0.000828999714602293,0.0031067012617436,0.0019275773061265
0.05,2.67152404329925,3.34737817300818,0.965154612413572,-0.0726870426405603,0.0800096076294614,0.0229854777967049,-0.0089125774860771,-0.0238056337262024,1.9340916414386,-0.013950467476394,0.151958256307483,0.0676235429057113,6.843505021618,-0.00540017222342452,-0.000744467357442132,-0.00435545318097427
0.06,2.65536170792232,3.31527457194175,0.860745066536226,-0.00865656005128742,0.0630532877365866,0.022766111476641,-0.183929428674978,-0.174220504335439,2.08462922139768,-0.228403303931141,-0.0225650506778164,-0.0919552760728937,6.82539786575581,-0.00225942371943292,0.00382800200742481,0.003158764410157
0.07,2.6218790017042,3.29209213775845,0.996453421188605,-0.0609083071760321,0.0304645655367025,0.00198452067595359,-0.10357735571382,0.00337461094726152,2.10475647028151,-0.0730434406498423,0.185276311984867,0.0947136154198418,6.7381205058555,-0.00477939430798563,0.00031765972809234,-0.00467876038686996
0.08,2.61986245160637,3.3304122724585,0.962196390704705,-0.0305700866322378,0.0804962365751597,0.03713743086019,-0.09351840501976,-0.141538616064025,2.01038327227921,-0.204702180257945,0.021815349882009,-0.0957709012562458,6.79660169238878,-0.00225088016681032,0.00208692569287997,0.00267390214799164
0.09,2.64006589725238,3.28621197755025,0.956566509597368,-0.0712713060971758,0.031771061806123,-0.0202040088020326,-0.173989452622808,-0.0800770779155907,2.10164721556707,-0.0895895608869269,0.10582642055341,0.0694775851223349,6.72090670095217,-0.00357162290453851,0.00200529223983136,-0.00242161642612873
0.1,2.55508726318511,3.26112409634567,0.964909323445615,-0.0724151554314086,0.0188186199977514,-0.000114466529739232,-0.166325169895214,-0.224151675936234,2.00148446031385,-0.182934360016169,0.0611130433316631,-0.0751620360156526,6.76875248189043,-0.00026505270811906,0.00351906875412231,0.00350600011658044
0.11,2.57976608235805,3.22171770502585,0.951784674432848,-0.0936172416869937,0.0169595696604318,-0.0391056867563458,-0.12071226974532,-0.215099866165267,2.08015271622887,-0.035833535287422,0.137451413120159,0.0624149541612509,6.70499077158089,-0.00303900013753296,0.00187268179194746,-0.00114858480393584
0.12,2.63751486447508,3.26432813925993,1.02973723539759,-0.000491392801552977,0.0836532267661101,0.0458299243745846,-0.0636526006342286,-0.192835389018389,2.07304518016859,-0.121640807025903,0.101787355963076,-0.00528583096630585,6.73441828161932,-0.0057064240294976,-0.000322416315742545,-0.00203825660399746
0.13,2.6159650356627,3.22690309388933,1.00988260520178,-0.0705933931219118,0.0361166738056755,-0.018026469061987,-0.24054330075003,-0.106424569789591,2.08485038357296,-0.258120016919834,-0.0112528713453809,-0.0542219007686893,6.67904524254156,0.000702949084672834,0.00427607521669398,0.00333304231104097
0.14,2.57228630452643,3.29466704511993,1.03839177192522,-0.102453553880449,0.0133430504949448,-0.00464658930522277,-0.126242965388697,-0.181694425788016,2.06610567615103,0.0192367962700318,0.187442224541002,0.0789261239763578,6.66308229460878,-0.00473321168702105,0.000525958933368853,-0.00356880078544704
0.15,2.59605585393814,3.23858999340055,1.03454368082054,-0.0108363549070569,0.073897171040253,0.0194134724685684,-0.119592279373262,-0.275251124266387,2.05754523943401,-0.219340094167878,0.0268964086299044,-0.0822626510785967,6.70871607177381,-0.0024898376725665,0.0018093354710824,0.00286788087870094
0.16,2.60568782878286,3.20506561070155,1.05240194280456,-0.101825640572855,0.0177603311881623,-0.0337711055018286,-0.218184841715666,-0.127310626739397,2.1177492729635,-0.123056380865868,0.0849421945065848,0.057753662428639,6.60529595357585,-0.00142260210545676,0.00265753741115144,-0.00120589575111393
0.17,2.5373654588653,3.2420499392313,1.05207669581178,-0.0894090766760004,0.0169232500815963,-0.000432398518904704,-0.173243317225287,-0.31123417703266,2.01610843530943,-0.101411075191825,0.0928963216887775,-0.0476079371401749,6.66378908350677,-0.00168405122885749,0.00243713033240246,0.00222038363397309
0.18,2.56007952796487,3.16647424583942,1.04065584019947,-0.07789408113205,0.0230267201859405,-0.0420618396194245,-0.167081288072342,-0.306070581153178,2.08956887430986,-0.109164882025269,0.0903272472928719,0.0263858814885271,6.6199426792225,-0.00193056251882419,0.00225931340767657,0.000679374368328556
0.19,2.60932238659652,3.21600137601519,1.12099073334221,-0.0400140148912712,0.0645309601734699,0.0290164697974008,-0.111916564436836,-0.218770957416053,2.09934637161683,-0.0864534666616288,0.117261573051398,0.0296804192246351,6.60503891546995,-0.00509891456739832,-0.000277120402348113,-0.00287924757454862
0.2,2.60396244432837,3.22390215305923,1.11559839073951,-0.0505528113862748,0.0560630378220081,0.00701735179255792,-0.204773331045132,-0.205225560387789,2.08192915808257,-0.232090562117774,0.00393024436391386,-0.0622801990343188,6.60642663389809,-0.00108461411089907,0.00273804304469275,0.00251056487294512
0.21,2.55049809931861,3.21631596839944,1.10513903202745,-0.123443941089975,-0.0026270302192453,-0.0361841405454367,-0.224514669717552,-0.248126566590709,2.08628808730131,-0.0820631787512754,0.113109072096977,0.0399530605230586,6.56221932710889,-0.00120593535967262,0.00245277842938826,-0.000229451248463683
0.22,2.54419336349389,3.19974855119974,1.12124096222172,-0.0650632076857388,0.0418728062833906,0.00240968747256986,-0.14704456619414,-0.361245024191462,2.07371501182176,-0.0879310981531387,0.0989962687518413,-0.0172857287792618,6.57138540382557,-0.00332885691424464,0.000982882825488824,0.00063228854029973
0.23,2.61089818798721,3.18285507829103,1.16950728574901,-0.0364157539354187,0.0685858717167534,0.0072821172332564,-0.154405318711891,-0.235062529837296,2.11263918666289,-0.147691944939262,0.0698637449572577,0.026744313601244,6.557336265424,-0.0039358868497051,0.000474084106949741,-0.0017223534323376
0.24,2.58255435843448,3.2131011290318,1.1712025233363,-0.0787699270966574,0.0388994672122159,0.00803187285379063,-0.226547105335137,-0.230251724079695,2.09942074706672,-0.189137522341618,0.034737767605053,-0.0377979532510187,6.52749856394179,-0.00108912338444809,0.00245808667440302,0.00131661500796891
0.25,2.56554269846595,3.22930858294387,1.18733860872885,-0.0851226985876232,0.0366775083398951,-0.00352788858381378,-0.171983859902129,-0.274189087449258,2.09695160759557,-0.0650114596753881,0.123177373638723,0.0355817146129999,6.51109859870752,-0.00382010734137495,0.000400020218571961,-0.0016012994711106
0.26,2.58400643693224,3.20423822804539,1.20260911709457,-0.0385841459390452,0.0694067799191781,0.0188131124048361,-0.177742059781498,-0.293813457725664,2.09521627997108,-0.179916076816007,0.0404574877775126,-0.028160538902433,6.52971605226205,-0.00303622868201701,0.000885101729973087,0.000336647603368658
0.27,2.58863595554906,3.20247944649477,1.2230777467505,-0.0786541633196481,0.0448713852370237,0.00225810599981179,-0.214124891570888,-0.231671695383207,2.1333710622252,-0.14244840479737,0.0667871398780528,0.0184888946832192,6.46677942245616,-0.00257716269849639,0.0012704556504576,-0.00108286031612615
0.28,2.56354040766682,3.22071323841891,1.23768245511891,-0.0715337412773934,0.0482000450927361,0.0145210087145391,-0.198396175060316,-0.295247909404359,2.0811606976103,-0.131386178584343,0.0745635252117794,-0.0173031504023435,6.4893362237394,-0.00294379766156672,0.000834922882861762,3.66259627234845e-05
0.29,2.53369659515305,3.15512125090243,1.20242560051559,-0.1006988325634,0.019213126978931,-0.0326155943230364,-0.263115877906459,-0.353608362481149,2.08684357855346,-0.17388726246744,0.0326327135119392,-0.0212232901378657,6.47020828412297,2.88113451223939e-05,0.00285058504669382,0.00248149061333594
0.3,2.54636650290865,3.17069041109343,1.24924030358449,-0.0859837492579947,0.0348144809236959,0.000945622348632529,-0.181783064266572,-0.340597117076482,2.11839781542969,-0.0273245802516784,0.137625230133725,0.0579951771788052,6.43531993380229,-0.00465600073435046,-0.000299390495539711,-0.00286708963511062
0.31,2.5913668376378,3.18465884729713,1.29121329118343,-0.013179478730422,0.0902637643058029,0.040238922911957,-0.174388074939522,-0.306666896005565,2.10826278965645,-0.208576139275321,0.0273858934098119,-0.0436171302572307,6.48433873992466,-0.00381833106777032,-0.000119074401512588,4.58294429842817e-05
0.32,2.58273745080283,3.18770091104194,1.29066746274963,-0.0949065806069903,0.0415572188012839,-0.00574815910773981,-0.261112173532698,-0.247372370418205,2.16822775991264,-0.179891705503629,0.0307772753020139,0.0116213341376447,6.37335775668894,-0.00127816554712353,0.00191708080345241,-0.000376957546459074
0.33,2.47946256287559,3.14977377886734,1.25954934397857,-0.143637382554289,-0.0169317254307926,-0.0377265127443748,-0.307126401822986,-0.435870486404668,2.0155938236407,-0.127534043181615,0.0583982263772009,-0.0465363823500661,6.45200845485882,0.00111076878196145,0.00322705212856837,0.00394991297539738
0.34,2.51243230936472,3.11768996812893,1.26525593107484,-0.0824639041122299,0.0338441172882979,-0.0210187930996772,-0.183673500715874,-0.44804213940613,2.16577298665696,0.00305791996953358,0.144702416267535,0.0788815446228363,6.36375357765572,-0.00520723683649272,-0.000760306204599853,-0.00280563291947612
0.35,2.5587323534459,3.10178920075636,1.33870292002594,-0.0314521100526045,0.0665525069202674,0.0212874215064584,-0.236477918967588,-0.38100668211964,2.06765767983574,-0.257481474330541,-0.0114938633783825,-0.0650616415036707,6.44142126861331,-0.00143289583515847,0.00153685018369112,0.00197479963675125
0.36,2.54682738293846,3.14523910930156,1.31635533089459,-0.124970069256255,0.0188129950548102,-0.0187871861014188,-0.25731042327536,-0.319589421190144,2.16989313568953,-0.0934039163232017,0.0918562946863307,0.0463304196239392,6.31967842489611,-0.00184652518840169,0.00110662106893393,-0.00137919952714889
0.37,2.51717849982075,3.15246430539422,1.34590868238754,-0.076472900650575,0.0442017699761968,0.00873777064584345,-0.238369911893392,-0.441262662277924,2.06113754886923,-0.125001465087718,0.057378639962833,-0.0377506912262353,6.38852804979739,-0.00269592875732202,0.000696057874415216,0.00129433746364924
0.38,2.53770654556598,3.10688452821095,1.34337122294516,-0.0798957210933438,0.041488266164626,-0.0160373813358731,-0.249504574376064,-0.393912038882795,2.13993865573845,-0.150578000328348,0.052630856686788,0.0269665358037349,6.33585108629637,-0.00216076886488105,0.000915377893839894,-0.000603109736682174
0.39,2.56374172251824,3.16109549280328,1.40880517049096,-0.0605869083256913,0.0695238097400514,0.0400290707540054,-0.200238373049479,-0.348742000159835,2.13016871771849,-0.105872229083456,0.0838116858709181,0.0122594963508272,6.33011401247376,-0.00466837809156474,-0.00114893790378787,-0.00256992733128503
0.4,2.56293964055214,3.15756829402192,1.40326788753449,-0.0575525264524585,0.0682258904536418,0.0171064119237945,-0.252474692851185,-0.366373741694645,2.12556507041971,-0.220381445605149,-0.006705397853372,-0.0417776909533797,6.33248158561518,-0.00196212391432126,0.00108426355176043,0.00106959866754813
0.41,2.52857158891138,3.13892030222455,1.40437705905696,-0.115737525187705,0.0215255638215814,-0.0113564639363965,-0.278944789488233,-0.387619538299059,2.13065705807195,-0.120879804472068,0.0729958763673115,0.0259925143594807,6.27935426608256,-0.0016839980054255,0.00104467704759,-0.000772639344988955
0.42,2.49277919619603,3.10474756669445,1.39496590686106,-0.0995500187646395,0.0307301770410769,-0.00678661483484263,-0.28069238263747,-0.482581820307247,2.07792070078753,-0.129614109452089,0.0499799570157888,-0.0318053972582745,6.31082531843646,-0.00160054573602662,0.000999404307894076,0.00175898962040825
0.43,2.51361112184593,3.08050183437722,1.41019818321479,-0.0873941498593864,0.0383833321295734,-0.0142330229669901,-0.264708502216226,-0.455289363169389,2.13276703231833,-0.112564827286307,0.064114963961923,0.0354466333243711,6.27363618674071,-0.0028152111288776,0.000329688894373095,-0.00108060179864901
0.44,2.52083731244821,3.0934092017401,1.44590365560238,-0.0771557194646479,0.0479231319714674,0.0157418435056908,-0.267251232754953,-0.444253899134177,2.10986969916486,-0.160382214822858,0.0395500334336958,-0.0212292519639102,6.27750332173243,-0.00228819644670666,0.000461502671047614,0.000179137639324255
0.45,2.50244446692724,3.0810903312929,1.43384014273597,-0.110629669550046,0.0256342076992067,-0.0195322247698579,-0.300233504917052,-0.469215539142541,2.11299240771938,-0.150228793296476,0.0360991408852393,-0.00577089274008852,6.25046180502088,-0.000885499552891572,0.00137465218309339,0.00112871514320501
0.46,2.49334110956319,3.07551759486989,1.45113550674807,-0.103307865403361,0.0283555382897207,-0.00806504560811271,-0.281757644734008,-0.496083716662312,2.10955475674403,-0.090788827733502,0.0742096263856257,0.0179784708449833,6.24191071380902,-0.00264988312478556,0.000250071989647874,-0.000537169749109702
0.47,2.51554114551047,3.07493907354592,1.4825692755375,-0.0657825949126799,0.0582177938517052,0.0136649468845502,-0.261739249280187,-0.476782601809131,2.12491348963493,-0.151604962863864,0.0421501300875373,-0.00537611570009052,6.24216803670374,-0.00308863224985055,-0.000288351670237198,-0.000467959387573696
0.48,2.54450088720131,3.10356432575111,1.52134599431251,-0.0694242081826486,0.0676862569215104,0.0248049711037188,-0.250162900446532,-0.422192191086805,2.15310827084936,-0.152047232917757,0.0397909972512333,0.014063739660625,6.20746380914629,-0.0034349238037371,-0.000625020998814625,-0.001921988489403
0.49,2.45911922987966,3.03880845409584,1.46349706070463,-0.146420827422716,-0.00925812455959182,-0.0415360700550668,-0.389634604331598,-0.559672984030574,2.06095125799654,-0.230485908641195,-0.0361877233675518,-0.0803355625786101,6.22710201458113,0.00330401852508652,0.00383879656288099,0.00573063182348855
0.5,2.43744790804744,3.01717577645121,1.46984321458612,-0.151694265684954,-0.0170198403416337,-0.0491599921856421,-0.302027932743241,-0.586843892292457,2.13865189530235,0.0627479677376176,0.163114380909339,0.103474263912806,6.16402663937931,-0.00383041352363846,-0.000542447460364246,-0.00261315730653274
0.51,2.51929704014673,3.04152359595896,1.56292718892442,0.00740427882513725,0.105933477747022,0.0599151072470495,-0.227995649878412,-0.524587641594149,2.13166479523051,-0.195326026607593,0.0258440314331318,-0.0379812096791208,6.2526088840089,-0.00523604540629304,-0.00259739077171366,-0.00107293057423885
0.52,2.53181790107281,3.04690016583238,1.56198349549214,-0.108912114821199,0.0444893785794161,-0.00962885975143418,-0.330730544866555,-0.454376289495411,2.21241613250256,-0.257245346222955,-0.0616131618025177,-0.0141160883223674,6.08885857293394,0.00086986777369722,0.00258474420433405,0.00105565659834218
0.53,2.46555000095199,3.06760806597637,1.5704125158896,-0.150843085618506,-0.00824570370164845,-0.00870227665763711,-0.31688017235974,-0.545002642653265,2.0345574639308,-0.0248308155544088,0.123214742018899,0.017336114196937,6.18341333167506,-0.00241764840786792,9.607774972273e-05,-0.000464026160970797
0.54,2.48801560915619,3.03577119126237,1.54614574895073,-0.0450764755556275,0.0795634151084196,0.0134254323901169,-0.269435419945225,-0.575671532377731,2.1718476348051,-0.14805276397046,0.0374667085034711,-0.00382181801276455,6.15639364926545,-0.00413611922871728,-0.00176968156750302,-0.000497142292091339
0.55,2.4787618731136,2.98644179313617,1.58704521685784,-0.121777853495274,0.0193468822881231,-0.0229586994432722,-0.36678474434448,-0.564340594662466,2.10906842500863,-0.240157242673796,-0.0558581834148493,-0.0266239266083294,6.11332910858344,0.00173965630345891,0.00303145951571858,0.00229693098078378
0.56,2.43395657790022,2.99880370880168,1.56207045809728,-0.160389793762645,-0.0199087797222025,-0.0273718475182839,-0.340772370581285,-0.613202961401019,2.08301550622751,-0.00384521976546356,0.130307044926423,0.0319449993105566,6.1276259085921,-0.00215216720926403,1.7837696136126e-05,-0.000260319601876736
0.57,2.47414052620079,2.99820554451427,1.60026276112894,-0.0407383360109423,0.0811212362915104,0.0178050425508835,-0.279331808013056,-0.61069765888654,2.15514693046487,-0.141291911794549,0.0334176750468792,-0.000743339821115694,6.12745543749062,-0.00444975640449298,-0.00204462579137667,-0.000836720203354546
0.58,2.52216920987285,3.0153580400156,1.66780310015444,-0.073967936607663,0.065683555591836,0.024225472741524,-0.292255466514862,-0.519345129211403,2.15928381843189,-0.215566922956028,-0.0275985145871115,0.00591325503853659,6.07269581706393,-0.00183015040732304,0.000413501105398513,-0.00148635788824812
0.59,2.49035016939597,3.0401033367204,1.65303243565463,-0.119571690757082,0.0265645992468903,0.0156043106379044,-0.313523600548527,-0.561892016376835,2.09975078769132,-0.122741416914948,0.0543923130991268,-0.0203117988839784,6.0816000616996,-0.00191886460726411,-5.89366146217674e-06,0.000160747275989425
0.6,2.45589968008063,2.99202999534713,1.62484054616116,-0.107128688683724,0.0358400720682785,-0.0185306477758724,-0.342188036408856,-0.634220428072321,2.10404520756958,-0.146589112481975,0.0200815169376155,-0.00531928812632837,6.08179983258906,-0.00140620319425874,6.73809575215896e-05,0.00108327175074848
0.61,2.47724785120986,2.98830233961192,1.67100017071142,-0.0910907105012806,0.048576590257962,0.0132994780684634,-0.306862636077971,-0.594620446259394,2.1362225643779,-0.104857381597519,0.0439130831629893,0.0363760164695911,6.05031369937048,-0.0035016998588915,-0.00104970262500771,-0.00239752503266299
0.62,2.46179369222166,2.9749909097617,1.67341180008808,-0.0961030557443301,0.0364568591627626,0.00797317660808064,-0.349779066842398,-0.633143670242255,2.09200366928736,-0.209118365572928,-0.0184228821643119,-0.0554824934064429,6.06652487330358,-0.000470667039104161,0.000896588584692229,0.00220178728323934
0.63,2.43426950253702,2.94977884679065,1.65703011582217,-0.148293513657717,0.00229328119202734,-0.0357961366689968,-0.365695713514854,-0.662150791727015,2.11061220578952,-0.0944802942654278,0.0541080784870323,0.034374177523568,6.02265994953018,-0.000775631885584624,0.000379935851004077,2.48898981302474e-05
0.64,2.43367270900419,2.94136553297229,1.68119648602596,-0.0977813174583314,0.0374430001980221,0.00531791285899384,-0.348330390294423,-0.682423932088212,2.10135093428617,-0.102912485757982,0.0339326317181123,-0.00701343205416082,6.03810408750463,-0.00284469509202166,-0.00072971863109651,4.63796221010122e-05
0.65,2.43616204579946,2.9202517963367,1.69658263853496,-0.105108438824516,0.0265350153476768,-0.0157734537189193,-0.365873711174544,-0.683402910566567,2.1049922191661,-0.189475844977015,-0.0101112830617555,-0.0092211498966028,6.0186082386412,-0.000385632613195677,0.000808730177916735,0.00114328369684253
0.66,2.43375511749456,2.93017229113414,1.70965500818537,-0.133160221368905,0.0162838671240738,-0.00785376711761218,-0.35333176932441,-0.681436431400239,2.10463006131913,-0.0842582258061337,0.0558559803197038,0.0205032750241595,5.99294875793749,-0.00186026918860426,-0.000413234463081449,-0.000636728608967316
0.67,2.45267826962517,2.94216903372146,1.73684382744481,-0.0767776566965515,0.0576881163559203,0.0176949542460215,-0.327919688243764,-0.675255937844558,2.11269693955133,-0.132709515033216,0.0196346371109678,-0.00492907923047088,6.01162635872702,-0.00338825905668308,-0.00140033816200661,-0.000625667789172583
0.68,2.42557094769246,2.90178612668961,1.72777362543246,-0.128019451662822,0.0125854429328949,-0.0240518348918443,-0.394384363718586,-0.725017234516728,2.09931056468541,-0.220846415878281,-0.0431398985914985,-0.0305670000073236,5.97472238744205,0.00149162964518776,0.00191340446144035,0.00255268411572263
0.69,2.42740794146792,2.91656061784231,1.75459937161912,-0.137489924633766,0.0133485017347476,-0.00528067091342845,-0.342083767227948,-0.699993065309559,2.10846941676979,-0.00136413041935246,0.108259256767019,0.0593225500456686,5.95178857389729,-0.0038312668581852,-0.00184890778748736,-0.00258818385643333
0.7,2.4624275697903,2.93189025553313,1.79168036230309,-0.0339295239275895,0.0888476593917056,0.043139985263644,-0.318399553452114,-0.688036641682422,2.11323419680554,-0.20717673789656,-0.026696192293977,-0.0372553110877226,6.01716442886363,-0.0035887402577879,-0.00195828112741599,-0.00025801107248273
0.71,2.44761331145652,2.90924946377797,1.78991629130888,-0.137786592754971,0.0176831892965013,-0.0156387376258096,-0.37411125289993,-0.712492891664644,2.16411546918368,-0.212400680317936,-0.0441043476752869,-0.00372788724864385,5.88122512019112,0.00119093191207785,0.0017523916312082,0.000883726568457847
0.72,2.43265037924119,2.91788953953079,1.81966317887522,-0.130156153182023,0.0203596079727437,0.011800614718956,-0.343656863010205,-0.710286212009923,2.05399093193923,-0.0102151425652538,0.10497752696385,0.0292680103988588,5.95020130732503,-0.00414622477141324,-0.0022516746262757,-0.00196817005250747
0.73,2.42954189724661,2.8885309482179,1.78936110496851,-0.0631663147737859,0.0659662732321223,0.00862662470971317,-0.370488483060356,-0.757179362253528,2.11467118045097,-0.239805805600429,-0.0619135086679282,-0.0431794315475788,5.96302588538181,-0.00126879456689173,-0.000347025765458581,0.00164211485129757
0.74,2.46196317422315,2.91259714088116,1.86402695192126,-0.118128827606722,0.0387136677249774,0.0178624731643809,-0.3162628209058,-0.690260622499212,2.16463895805102,-0.0909584859347086,0.0463602384429392,0.0659893632830288,5.8505760733156,-0.00312238411540843,-0.00151528361175367,-0.00399468684992605
0.75,2.4515351459449,2.91352984654414,1.86492584792128,-0.0783674331466147,0.0605844948973598,0.0417820715196491,-0.349000208826605,-0.730564332264644,2.04754896518975,-0.185339415804906,-0.0205442671370753,-0.070967643966012,5.95742212511773,-0.00228085521786734,-0.00109807580791131,0.00138126278103051
0.76,2.38238975656955,2.83215904926757,1.78895689806918,-0.170611207960926,-0.0175435735544042,-0.0643455291683079,-0.447790344129084,-0.836637602819538,2.10769992888496,-0.19504289902293,-0.0406887333829741,-0.00065388825904656,5.87228405826528,0.00298009185136236,0.00214878381282969,0.00305841944087704
0.77,2.38414120138135,2.83407478093079,1.85485779146188,-0.140071859196276,0.00896935070791302,0.000537831714244768,-0.383445756108515,-0.793528323751574,2.09852392519466,0.048150029153162,0.108637025450973,0.0646051820079583,5.85945988441326,-0.00486065703384376,-0.00257597840640748,-0.00309101414764189
0.78,2.3692031392398,2.79473419977086,1.84108041382396,-0.076604164476199,0.0337549027340912,-0.00947251709827307,-0.441977210274697,-0.864309376880893,2.04104301104915,-0.300176111267788,-0.103463105407697,-0.094862498487199,5.93640849971253,0.00143200802402557,0.0013252710988615,0.00494373720427656
0.79,2.40505464805705,2.83002260905173,1.87962923043796,-0.164684055367626,0.00119523960334907,-0.0202000881096275,-0.357880416739742,-0.785298820313808,2.16195972114329,-0.00188139132333498,0.0997465270954592,0.120314519591272,5.78329300360515,-0.00279833894596431,-0.00189522416501027,-0.00475633458472841
0.8,2.4159798685436,2.84360138401089,1.91290174283858,-0.0554171308388493,0.0715379391456061,0.0548838053531535,-0.37724451740178,-0.805164724745588,2.03566637490824,-0.185257592929697,-0.0431730697186541,-0.0951161776738859,5.9317879482929,-0.00304068703262678,-0.00170841030790638,0.00194579036624643
0.81,2.41382051149686,2.82832666421404,1.90152543693035,-0.128768328237156,0.0210555678314594,-0.0289937625712346,-0.377840238909148,-0.82219284865713,2.17159974266557,-0.189326891747817,-0.0264186353522831,0.0505021547694426,5.7699683005178,0.000136052788205649,0.000348679651962615,-0.00103185761053447
0.82,2.41205349297206,2.8316561177236,1.9544840345039,-0.125503900523497,0.0315626400882225,0.0354119190881499,-0.369703114482507,-0.808203906447286,2.0291407390636,-0.0568959626921772,0.0479073193436993,-0.00879160185599381,5.84758154421755,-0.0032645389699543,-0.00212041422118944,-0.00125796280534396
0.83,2.43340976530133,2.84433965799675,1.93868317060062,-0.0567272643033982,0.0782598245384711,0.0275202894439507,-0.346202208745567,-0.802598965658672,2.12980184464043,-0.181469309736219,-0.0308880343813389,0.000109588533952897,5.84572862139808,-0.00348023548937824,-0.00234661357503011,-0.00125235047109027
0.84,2.39514353345924,2.79646410285552,1.95154331109998,-0.146783094731973,0.00690011745429004,-0.0093232397873533,-0.415444524384245,-0.882268324810229,2.09550796012963,-0.224487910869222,-0.0726167960414573,-0.032883794475568,5.76692282590069,0.00211249117452848,0.00172641934480872,0.00199038612741503
0.85,2.3702818426502,2.77378724920693,1.94445764920563,-0.161605910156431,-0.00768416320566388,-0.0163588912760914,-0.416551739110127,-0.873625351937471,2.0405052136174,0.00429307772745871,0.0893409245328449,0.0387445912917709,5.80417220021981,-0.00284267107221722,-0.0019496956408965,-0.00106574544878797
0.86,2.38710544495665,2.78008746057505,1.96121112009905,-0.055268715659756,0.072427731817298,0.0263790860052968,-0.394574040954575,-0.870347858901098,2.10823247753769,-0.185358217136179,-0.0435327189534556,-0.0139001028485221,5.82500646618977,-0.0030871930195563,-0.00234546241053396,-0.000520713977886761
0.87,2.40048183920403,2.78145874313288,2.00927841470081,-0.126336086311067,0.026418384444498,0.00911064913009134,-0.379238430985185,-0.879873353940953,2.12084883990121,-0.189635768778797,-0.0528109528335567,0.00316210280169993,5.71929276677254,9.52949801876063e-06,0.000351232173380414,-0.00057802530704526
0.88,2.35446076526337,2.73679340864901,1.97095312680297,-0.168697976282728,-0.0173939061604065,-0.0207010691116512,-0.452874369097173,-0.938011781242812,1.98841293196015,-0.0979184223921394,0.0175564390925859,-0.0313226258104786,5.80494712021146,0.000288567356015185,-7.45966776975349e-05,0.00245353213531656
0.89,2.34116861034983,2.71832602467503,1.95330223216325,-0.121968646471639,0.0210534267704726,-0.0233196282059536,-0.441730898032548,-0.945004148113629,2.11583459820368,-0.0772446638867597,0.0109336527852199,0.0422087148993785,5.73948456380292,-0.00245360498918661,-0.00181433727669767,-0.000874886964367866
0.9,2.35712016146216,2.71804664309865,2.03218842666265,-0.102167317325661,0.0299447667126622,0.0161763143294951,-0.417828833991788,-0.934507763476573,2.04250892505372,-0.179957047869062,-0.0498598835521736,-0.0188742834641938,5.76022758321757,-0.000913267170026599,-0.00050167697863078,0.000151147206671096
0.91,2.30661031587183,2.66648760449574,1.96020747738452,-0.192927067878573,-0.0426134960482812,-0.0556123466328656,-0.499874321265956,-1.03401521337422,2.021057710314,-0.158521404596539,-0.0357135426061987,-0.0372126995064206,5.75635026447157,0.00353387366464487,0.00157290891053315,0.00439019936181417
0.92,2.35259247462298,2.70558017143773,2.02942402771587,-0.116000042895118,0.0308135689437205,0.00596695199726813,-0.395514282385495,-0.920917184146888,2.14264310212498,0.0804297663356172,0.101113632650217,0.110809375840215,5.67580417755643,-0.00684671643292227,-0.00485968785046575,-0.00547010814426715
0.93,2.34271862137063,2.68188282354053,2.06292038765814,-0.0579755469771248,0.0425300656806737,0.0245045195147215,-0.450192347909245,-1.0070797283447,1.97870910183942,-0.377730523157134,-0.183210319175689,-0.132914672935158,5.80466339714792,0.00247160904434698,0.00172554691741516,0.00518892547271456
0.94,2.36323215055205,2.70081418220919,2.04202447020016,-0.204747733391103,-0.0313260314627099,-0.0341672126612339,-0.386669960905484,-0.969753763100532,2.15161857739691,0.0301291318274091,0.117888765503401,0.127017997049789,5.60684505045019,-0.0016271124453846,-0.00215733082713927,-0.0043991095745722
0.95,2.34104253580625,2.66947044454267,2.06907521486915,-0.0768639130208543,0.0567154955705387,0.0370632826151075,-0.462979802991256,-0.992752343606832,1.98306002323493,-0.164690632016015,-0.0770109181371423,-0.106323922758524,5.78449004238193,-0.0022271958926046,-0.00175064264094887,0.0033480072228263
0.96,2.34531373777816,2.6740338139616,2.0744516123743,-0.132648585852527,0.00571668105538059,-0.0333549771860087,-0.401696836368962,-1.01053940636724,2.13561642156864,-0.16499522123853,-0.0333455678675153,0.080192006606536,5.61340959690305,3.98823090845579e-06,-0.000141934334682083,-0.00220429877293715
0.97,2.36324141111727,2.67504980140416,2.12882332635018,-0.128013965127926,0.0270407114880686,0.0460219569958835,-0.407424556773915,-0.982353893995979,1.98368861385953,-0.070309441218379,0.0213674215398278,-0.0343999862323487,5.70178281280862,-0.00256833795931149,-0.0025635889965365,-0.000515394090024815
0.98,2.33942042761532,2.65424095971415,2.06765780450759,-0.110941225976221,0.0297014380444654,-0.0187827578356178,-0.437809787112909,-1.04104467664128,2.05750804292963,-0.190694211499431,-0.0830557950616928,-0.0145870472457447,5.68203276727072,-0.000131966663400131,-0.000361601213107726,0.00161480309458523
0.99,2.34146474099066,2.64301945769032,2.12596716961673,-0.145598845488222,0.000882235168188125,0.00219190918659468,-0.413458917770675,-1.03218614796327,2.05325904284221,-0.0814557875787067,0.0129571747183,0.0422276551426354,5.62434209583203,-0.00138972262315377,-0.00138161746506578,-0.00208506743857642
1,2.3318979392602,2.62598057307916,2.11938542718811,-0.114894366579917,0.0267935384417098,0.0134889618173669,-0.446902410335621,-1.050056790556,2.00263854317361,-0.143621583799222,-0.0399748293174975,-0.0470378909186926,5.68094120950139,-0.00107362398655342,-0.00152498653079629,0.00162742945902632
1.01,2.33340941667614,2.62581251612014,2.12844011365695,-0.128870532930674,0.0178307599858157,-0.0109316721486203,-0.418615956809138,-1.05786546206635,2.06563489079057,-0.120548780461008,-0.0316633184266319,0.0423494716165701,5.6142248575384,-0.0011442426623316,-0.00125594221056422,-0.00145602440448367
1.02,2.30432599084792,2.58274929660415,2.13006083596812,-0.150611571424816,-0.00979450210946953,-0.00531506320162748,-0.473796529698331,-1.11200875899535,1.97869845578707,-0.149498899457963,-0.051697039921369,-0.0491252059653518,5.65221529251001,0.0010472861413237,0.00011326105272685,0.00259094040630542
1.03,2.29060356499592,2.56463334900917,2.11781033300971,-0.156667369676126,-0.0125687364453923,-0.0350794026182353,-0.47365891473627,-1.11302323066549,2.04160501678607,-0.055901177744413,0.011305941188533,0.0425506488390816,5.60650811253501,-0.00106788745775475,-0.00157118646821553,-0.000337558346277711
1.04,2.33373021998311,2.60116222923482,2.19650834752155,-0.0780843977569237,0.0542864125531972,0.0426076349780577,-0.405935868891994,-1.04877916590684,2.04311485251245,-0.107518484291256,-0.0244854589346194,0.0145681968558437,5.6257648314908,-0.00377838906207277,-0.00350018941802658,-0.0026082404583882
1.05,2.31095715703065,2.57202310411581,2.17228477351699,-0.138235155604601,0.00120220496727229,-0.00837665421780538,-0.447328302257014,-1.16032579747064,2.01195255972795,-0.249909749901544,-0.13113263997884,-0.0659473417282741,5.59012335366125,0.00301336444340903,0.00152345127973397,0.00354329156357529
1.06,2.31033697391367,2.54979655864266,2.17770363476074,-0.180377712645717,-0.0281073486268945,-0.0249061453335959,-0.443644313857286,-1.11520157151349,2.00770282134507,0.0364132578635509,0.0818808724290285,0.0778825150721478,5.57613834021498,-0.00241222063402925,-0.00266980549044964,-0.00249190136723996
1.07,2.27161146951303,2.51606596035209,2.16006565198866,-0.099282980371039,0.0253105685360261,0.00186239732488813,-0.510374865671124,-1.1748881470446,1.9911860374042,-0.211115898864837,-0.115317759723776,-0.0785131630357838,5.63410663148232,0.000468060782209278,-0.000626606032918338,0.00367963782292485
1.08,2.2719106116323,2.51075474846944,2.19683111159588,-0.17887483967684,-0.0333824741781354,-0.0425787538501902,-0.452673158824609,-1.18895970811209,2.04076212327587,-0.0775014775017721,-0.011400303071715,0.0709643382920497,5.5215569053739,0.000643233297119181,-0.000337073795867316,-0.00133537826623441
1.09,2.27880834433979,2.4953733107562,2.20595655078926,-0.132049260310501,0.00402417458652919,0.0132967586314613,-0.487878521409992,-1.16647278107936,1.96299904390126,-0.0732608109655313,-0.0147214706211405,-0.0407353734698356,5.5974903217854,-0.00161924595690471,-0.00212226262875221,0.00133641080061422
1.1,2.27593066715946,2.50175153377856,2.2112070520644,-0.122356733688335,0.0108752234026871,-0.022755389656083,-0.456833360681532,-1.19692499824908,2.02478124134946,-0.157220402795569,-0.0724274240339122,0.0239438612129844,5.54568831908824,-5.34860567455339e-06,-0.000934274843246011,-1.7595657174971e-05
1.11,2.30847879745663,2.51282768742391,2.26266036977959,-0.132280038149203,0.0111812067219029,0.0252986295896419,-0.412707279522278,-1.16731189443872,1.99694219760355,-0.0721371342820218,-0.0102552640064521,0.0148977149621611,5.52927652527266,-0.00189541639703002,-0.00222973527970873,-0.00185957844651539
1.12,2.3201373857707,2.51561412738996,2.26265812053353,-0.098755465356979,0.0358674026378306,0.0230565182432775,-0.416720694810533,-1.17281381182265,1.9889518254429,-0.149456824857969,-0.0601792982893064,-0.0242499646965457,5.55747420104065,-0.00151916856732954,-0.00219253184751922,0.000125675032218532
1.13,2.32017391047201,2.50971565669632,2.27723829427081,-0.12762862912472,0.0190393040116612,0.00929866981627769,-0.398819035586022,-1.19955828948862,2.01893579455998,-0.132019366642106,-0.0549136395041544,0.0206364744571509,5.49576153627114,-0.000645807566872045,-0.00147048837040237,-0.00137243017657001
1.14,2.30176886733651,2.47264467269513,2.27699928209648,-0.139892033845956,0.00191291181686507,0.00903755191937513,-0.440969998019549,-1.22119839760541,1.94858829922314,-0.112711695620478,-0.0455688960806839,-0.0272406566082948,5.53344278479535,-0.000320216715808448,-0.00123926740168285,0.000894214024797738
1.15,2.2920897476785,2.46367727887647,2.27321410364947,-0.127025001390199,0.0113590859792368,-0.00343086196835704,-0.441767726440628,-1.2222170556075,2.00286030075616,-0.0946912933454079,-0.0298438268044559,0.0261666913787178,5.50047455616402,-0.00141100572147318,-0.00227283932148334,-0.00102915530102094
1.16,2.25664343201312,2.42172203250462,2.27658240024155,-0.149121674540077,-0.011579412858936,-0.011203356844224,-0.484262358420245,-1.28967677600386,1.94136774076402,-0.163540082784817,-0.0968655845449458,-0.0392052982938813,5.51794704312797,0.00180424528310186,9.40636305767337e-05,0.00240913761309731
1.17,2.2516269231476,2.40444999185843,2.2742092199992,-0.166648347928269,-0.0287974786149508,-0.0271960380563084,-0.478269732385869,-1.2743680062761,1.9849384812835,-0.0249762695718647,0.0072563823169336,0.0432774346787751,5.47657457785584,-0.000973437729872558,-0.00187193997815921,-0.000741495919913988
1.18,2.28712853725575,2.43688967068246,2.33871914152917,-0.0778059689121062,0.0468157745195327,0.0409805615188618,-0.432365910824096,-1.21734562039091,1.99142884700303,-0.109241342607296,-0.0454600086913665,0.00403262874575491,5.50218587100665,-0.00325986006148821,-0.00388747308921445,-0.0020200601481043
1.19,2.29205091064173,2.43930450241302,2.34812775486709,-0.119886637970712,0.0181154130718865,0.0158296153901819,-0.401657687333124,-1.29902488989852,1.98959011459921,-0.208215169527332,-0.129755294283786,-0.0292873981974712,5.44040411979735,0.00125851025698109,-3.89209910666815e-05,0.000684539041063279
1.2,2.28917226484387,2.39660601469484,2.33744463825685,-0.169699666907143,-0.0256595812049569,-0.00701367664061256,-0.435883035848983,-1.29064675892015,1.92520730076992,-0.0339333396086929,0.0134713340065592,0.020446799054952,5.46634218182793,-0.000713285230865082,-0.00194006999534946,-0.000615195720915372
1.21,2.23932989929872,2.35429724926759,2.2980664018282,-0.131867329510528,0.000719045134849206,-0.0157106527666387,-0.514715892556609,-1.3348184521311,1.94893018079208,-0.139286260860062,-0.0897923073854134,-0.0335194998025468,5.48714954209734,0.000549712307720723,-0.00127596322754652,0.00236224964430754
1.22,2.24328517308664,2.36236421768091,2.35696264238884,-0.145631649254579,-0.012268426831828,-0.0105715273469263,-0.447253985757502,-1.32311726743889,1.98201644165843,-0.0641050041684555,-0.0375654570573399,0.0545230540988899,5.41094114923793,-0.000933306533411772,-0.0016908999134202,-0.00204737436332337
1.23,2.26385732155404,2.36033825291094,2.37667880412562,-0.113536041839262,0.0107329715141414,0.0280975981621929,-0.45439046603842,-1.31566666908245,1.91814515693434,-0.122095176854912,-0.0566325830551945,-0.037810489743938,5.46413528969751,-0.000947869159824737,-0.00226521957982969,0.000515019933377902
1.24,2.2416706834407,2.3373618061938,2.34864336851339,-0.153985083682947,-0.0131877827366121,-0.0253084353472146,-0.466108227491519,-1.38353056497864,1.95085418848292,-0.13664026003851,-0.0884047532468673,0.00373381241508455,5.42147948364223,0.00154999199828922,-0.000615708348748812,0.00104174875101524
1.25,2.2493234372362,2.32128813813987,2.38060481332429,-0.146642584021169,-0.0127453264042335,0.00388073592896835,-0.456178153292142,-1.34093389487168,1.93708391195111,-0.0236636685585484,-0.0162865553122425,0.0260561854977525,5.41566263970047,-0.00178648984198527,-0.00243579084755131,-0.00138086161716481
1.26,2.29741196437939,2.37369539933736,2.44035530960556,-0.0579929601802428,0.0590884227361186,0.0586044345808739,-0.387445409447869,-1.28561233935935,1.97477846782992,-0.122913581637928,-0.0518337457398066,0.0107173618815218,5.43022678440806,-0.00366314766663319,-0.00473251343483115,-0.00313596311958992
1.27,2.25429099835361,2.31980727995637,2.40449754553929,-0.155989614933428,-0.0129824212811461,-0.00766252654147395,-0.433432793523634,-1.46003795081935,1.93447744395784,-0.247922002154979,-0.189307474106759,-0.0748486432558606,5.37293487734635,0.0047332893531049,0.0018946202781934,0.00393212412287066
1.28,2.21200193566131,2.22891696483145,2.36624377651593,-0.228522077077474,-0.0947507405580831,-0.066168034812935,-0.521050582603196,-1.43160044600859,1.86656007854749,0.0686143380223381,0.0565022501246113,0.0564388666899397,5.44127337250213,0.000442741210430847,-0.00151286530768867,0.000460280265185544
1.29,2.15656641630311,2.20508082421409,2.34629944028396,-0.122341929211391,-0.0108131224673522,-0.0263773017323782,-0.588706349973572,-1.45956512048205,1.99564010710662,-0.115451988254456,-0.100894404536243,-0.0329398611960913,5.38480820978446,0.000177672589768327,-0.0018328138437514,0.00283024357731197
1.3,2.17204331243707,2.22263364709356,2.4570648681968,-0.161362783374898,-0.0402636895343803,-0.0308662382303371,-0.48199185886443,-1.46862389214447,1.89113941104236,-0.0969367304988823,-0.0810109798279843,0.0477005188255837,5.3606121085436,0.00139361424912342,-0.000333561520703184,-0.000783683058289681
1.31,2.20438480906556,2.21731363237945,2.40709959277753,-0.152335879684229,-0.0291669866837656,0.00407150551828542,-0.499232825357595,-1.44737252558522,1.89080957458012,-0.0440220878205475,-0.0258527986299595,-0.0273179484172257,5.39353049089204,-0.000421758831139759,-0.00222784769160475,0.001121416072232
1.32,2.18479125804095,2.20355747750314,2.41572469383463,-0.141546427265938,-0.0183057953726674,-0.0341837721393295,-0.506222962670617,-1.49219537603393,1.91166717188919,-0.126200714143613,-0.10481252269123,0.00532341265223614,5.37168945984721,0.00132233286866012,-0.00101892459909346,0.00138150763481663
1.33,2.24633657560085,2.24726571417543,2.49528239516017,-0.113649399958586,0.0106584992625674,0.0370519642973022,-0.392573956284187,-1.40467198209956,1.94250507784441,-0.00398579754244227,-0.00956807299167152,0.0616963541076227,5.31551339578094,-0.00356417664156672,-0.00412589154504431,-0.00460162918028084
1.34,2.25952091838522,2.24431518764153,2.49845629077382,-0.0833334567066511,0.0277459863209345,0.0433149575223297,-0.408169860471863,-1.46906945761011,1.86214541251893,-0.219725345955218,-0.147671760876982,-0.0822337778304345,5.38220590828328,0.000719991842681651,-0.00133672754099979,0.00190785976670144
1.35,2.24535791109593,2.20749391406196,2.46712725908985,-0.179196374016054,-0.0350696977486163,-0.0250809492629545,-0.404949920674704,-1.52109716314951,1.92771623736889,-0.0546199142374932,-0.0385567217204167,0.0504967094428945,5.28731487816494,0.00112744647900615,-0.00132722835319655,-0.00119418769053315
1.36,2.23901971841712,2.17460084758222,2.49414217759339,-0.116730672839616,0.00638508045435289,0.0269072756716273,-0.459534995732097,-1.44981017473441,1.85834663922883,-0.0380936244579488,-0.05038794313955,-0.0188870834325573,5.36295608622055,-0.00226311060719873,-0.00331545021988735,-0.000328885037548779
1.37,2.1477564314306,2.11767647907389,2.43381807897739,-0.173915707243202,-0.0624198673825767,-0.062987725683602,-0.531008342147352,-1.63611007532695,1.85098379276383,-0.228891567222213,-0.177852720743509,-0.0527970608750963,5.35684748956672,0.00637371276886497,0.00185495024573752,0.00548749916185457
1.38,2.21639000745634,2.14308539732659,2.51727967583587,-0.164235420378531,-0.0307891432923357,0.00295259798814609,-0.432451802207315,-1.45259344038686,1.96406481685503,0.192223597849505,0.0969868849017202,0.1428659957313,5.23181588442601,-0.00575087475985191,-0.00591435682246766,-0.00684505818196174
1.39,2.21126463991555,2.15872106271917,2.5487178970224,-0.0212938944136371,0.0476866274282707,0.0629399479516639,-0.46609452628179,-1.5138119666174,1.79655975189981,-0.326427452229404,-0.227965049388495,-0.14474003952077,5.43812906036989,0.00106070398947116,-0.00131788722124287,0.00398014452645219
1.4,2.17685153357353,2.10960910008799,2.47545496901257,-0.254021611177648,-0.102180142998186,-0.0813627016848614,-0.43175725257105,-1.69497482395572,1.99974528159812,-0.0732166155209163,-0.0554156263378597,0.0691491339211397,5.19528728878157,0.00605096332227598,0.000848653178804422,0.000577731232469088
1.41,2.16380580105982,2.01214268415396,2.51649042209871,-0.174719217968809,-0.0469441227279874,-0.0137109013341923,-0.571376003077727,-1.52503686105833,1.81995485613085,0.123843078143456,-0.00964854758664755,-0.0200467807025847,5.33076564206624,-0.00300422905036472,-0.00317402462302343,0.00160614440351893
1.42,2.15655994034386,2.10182464430445,2.54890077682761,-0.0552138158938854,0.00842102390384391,-0.00386394762441561,-0.46615743486007,-1.56409804185364,1.91157209929485,-0.209225185202888,-0.129531770831709,0.0359261002812598,5.28698483223315,-0.000322594093426899,-0.00226365352785116,-0.00144912602804083
1.43,2.22992633238723,2.12451509228353,2.61430092103316,-0.150215954643541,-0.00230089816986664,0.0489975371172311,-0.355221664661562,-1.61468283313968,1.88997595890315,-0.0685427331951913,-0.06632787587586,0.00256348797851091,5.18586727605564,0.000547817147727514,-0.00234937749850511,-0.00241885816236957
1.44,2.2295211446866,2.05986017500878,2.55370148316024,-0.127955488901203,-0.0103021831625792,0.00590199206030392,-0.426894187975236,-1.57417803629157,1.75613668596143,-0.0615778084453417,-0.0952173844034241,-0.0454954391047121,5.33760476484716,-0.000541225650791767,-0.00174963493890893,0.00189569391414401
1.45,2.21186065455278,2.07441287643041,2.54960610938639,-0.116860618436434,-0.0139669572587113,-0.00386431547372484,-0.411190170401323,-1.61459350615928,1.91501139052702,-0.0989726528204183,-0.0638942919458691,0.0535149674113278,5.21124463249662,-9.92199416438699e-05,-0.0025622158862039,-0.0023222350324377
1.46,2.19308439956894,2.02800696428469,2.59655280073064,-0.15047065050692,-0.020029287244533,0.0156590535787302,-0.445383511843968,-1.65586151062642,1.773783288693,-0.0959554008715993,-0.115678349424848,-0.0522517638384924,5.27381926606505,0.0017464843560966,-0.00119358547922461,0.00173646795548142
1.47,2.2036304675628,2.02998584785822,2.56971080053154,-0.128357180600706,-0.0204985148068462,-0.00506009166398215,-0.413823833248949,-1.60464442033332,1.86604748228813,-0.00370452589817102,-0.0402906410651489,0.0529069591624762,5.22327497762672,-0.0019049740668172,-0.00308603156160574,-0.00223790908998614
1.48,2.15784320740105,1.98153835276599,2.57786140267947,-0.138484764031128,-0.0374810841372238,-0.00791975018354771,-0.48925307015059,-1.71707186366993,1.76835983634584,-0.190189791185187,-0.157811261427922,-0.0717655761630719,5.27732514262091,0.00400685209921968,5.46824898713742e-06,0.00377241626662084
1.49,2.18132225894618,1.98651515257552,2.5909897205935,-0.168043168967442,-0.0415510970390899,-0.0167849832261716,-0.424387533567678,-1.64615263564758,1.87583868149213,0.085408879258202,0.00660694565703706,0.0949810373614586,5.17702403263695,-0.00203454679704172,-0.00371320407131024,-0.00369056368386567
1.5,2.1906610981593,1.99000989779789,2.63575991568806,-0.0629895156729183,0.0188873424795059,0.0503555095584562,-0.439568054396503,-1.63067215831095,1.77785687009055,-0.163072499244849,-0.148614018853767,-0.0699051660261707,5.28163874412619,-0.000588777114228963,-0.00256696932543428,0.000977476954870437
1.51,2.16755180251045,1.96951967194148,2.60367307029564,-0.180258505824939,-0.0589152523039878,-0.035320382299163,-0.404740579632541,-1.78402607330941,1.86205704835627,-0.119152650824395,-0.113160160900288,0.017291524452038,5.15007874926893,0.00422333388482771,7.23020812378528e-05,0.0008466089026851
1.52,2.18688282070604,1.91247486258769,2.63208832639798,-0.154910094885085,-0.0360472321077659,0.00610866023402895,-0.462210751113488,-1.64735913441164,1.76090327210701,0.0860438342960581,-0.0107656768078597,0.0208859357308231,5.23169273423332,-0.00246528968316376,-0.0037801333898762,-0.00126636780035622
1.53,2.19075831418029,1.97976162160346,2.65433484242719,-0.0457262843160947,0.0304525852212227,0.0410465101861283,-0.396409469792945,-1.65818909260091,1.85076737930443,-0.162711516877432,-0.137208679459999,-0.00181733609873179,5.20967851023176,-0.00134962300546118,-0.00349959686330901,-0.00178805163971542
1.54,2.17817464103803,1.9313540147481,2.66507715875911,-0.176153360480299,-0.0505941441402664,-0.00403022769284948,-0.376854391741595,-1.82954772932697,1.80818989746266,-0.14345932094819,-0.15252613235692,-0.0380604238819318,5.13138554747332,0.00489342308348243,0.000766320119404165,0.00198961987082809
1.55,2.20334846735284,1.87695664626329,2.65325340756367,-0.152969336529943,-0.042872863774052,-0.00455269956722417,-0.433881822258048,-1.66382349302222,1.75503333482288,0.122444936027202,0.0270923424154331,0.0556170532992599,5.20042766749576,-0.00336328492346525,-0.0045219223489467,-0.00239963777533102
1.56,2.13146328084129,1.87903122088678,2.62703813811593,-0.0861921460597711,-0.0108827779215407,0.000560329899863765,-0.485613260754949,-1.78806597820743,1.77411355199774,-0.244740408176246,-0.214410727155376,-0.0718674595815442,5.2248686021741,0.00339054466654839,-0.000468430717302452,0.00337665732998127
1.57,2.16313328104255,1.87853701508422,2.68753575050101,-0.189030049,-0.0643705209929962,-0.0143153480018961,-0.373608888011847,-1.79149272116256,1.83619043139311,0.0637059749754768,-0.0136135732883227,0.0894716474287292,5.08304910228561,0.00016923445054859,-0.00245694139721343,-0.00356385461627416
1.58,2.21288542708771,1.876917632605,2.71851753736298,-0.0512450178427088,0.0318487793125779,0.0716566095447926,-0.41035503134414,-1.65120275739841,1.73943769284517,-0.0515643394833823,-0.0864511483251257,-0.0472000840154402,5.22824716586024,-0.00358538604829938,-0.00526260649779635,-0.00108734790989758
1.59,2.14515844114047,1.86469084378393,2.66832555110822,-0.146323014702379,-0.0447456854945511,-0.030680108548476,-0.383274371032544,-1.90917572631119,1.82166896115273,-0.243550853961894,-0.233678414047439,-0.0332336582934121,5.09346983863967,0.00654446070298502,0.001843014851058,0.00302496839074324
1.6,2.14736023331252,1.75224493709196,2.67805526503377,-0.230489781333303,-0.115010211392215,-0.0422593120151061,-0.470811483431931,-1.81488681972391,1.67652946345197,0.157375441927108,0.0373818620122455,0.0469128506018072,5.21220738997842,0.000371391878575451,-0.00239430228870715,-0.000232470988945908
1.61,2.11159309121312,1.77745435650726,2.64799871349047,-0.0688206687076087,-0.00193251954188293,0.00296724073740912,-0.516949019041852,-1.77378176590264,1.87539119976765,-0.0861974430168453,-0.130246404006344,-0.0204899637172872,5.13335665560512,-0.00132359843404297,-0.00373043727194382,0.000829534583546635
1.62,2.12674012401335,1.81420664460342,2.78616748873109,-0.136142064459481,-0.0401381657309396,0.00255089321605868,-0.361348644361227,-1.88930609805587,1.74716448954153,-0.129283717638954,-0.157103193789549,0.0280836896503661,5.06423571327657,0.00311098729003746,-0.000217600208700801,-0.00145825219707931
1.63,2.14888014748401,1.72917411935696,2.68268753585558,-0.181251087245962,-0.0777929305382882,-0.00834310326910928,-0.450072725943121,-1.85997592213663,1.6526821612276,0.0286730431860367,-0.0463931973074393,-0.0435191150009006,5.19947510161378,0.0014933181972658,-0.00182385012215882,0.00243749461554137
1.64,2.12733948299406,1.74447715320294,2.68247142075385,-0.105980696593462,-0.0232691679287312,-0.020225952629889,-0.455509426212416,-1.82711528139818,1.82841944841862,-0.0262466993858865,-0.0973970009860911,0.0498782381771063,5.09114064205544,-0.000873810110841987,-0.00339159542752409,-0.00141481960578082
1.65,2.09443973033359,1.71587896022259,2.74618390314789,-0.151328052825077,-0.067501735730533,-0.0081057659881503,-0.43597043793892,-1.94927202643398,1.66446085694158,-0.141203883994232,-0.181312558693814,-0.0524710451327843,5.13707601215186,0.00483682174980049,0.000759492313236319,0.00285352487289909
1.66,2.1510185486067,1.71218678513576,2.72397005047188,-0.152810716324097,-0.0590469338376856,-0.00852612898251878,-0.406597033060311,-1.83711583608232,1.77373642235651,0.125588566954466,0.0215023461689401,0.0765355940094665,5.06435305549874,-0.0023846508001587,-0.00459425435603513,-0.0032206724548483
1.67,2.11811694260413,1.70159294966494,2.74890717090426,-0.0774387835145321,-0.00919767418196038,0.0195381180898461,-0.449281659109988,-1.89783356081906,1.66501517699916,-0.192087027766029,-0.216362431033973,-0.0803383824363242,5.16607863579196,0.00252172342301942,-0.00112131420582372,0.00286169260007218
1.68,2.13507704637644,1.70402953494861,2.74975574541275,-0.17701391115686,-0.0776063814872906,-0.0225447323914438,-0.338584993976332,-1.95605506919333,1.78764419929158,0.0275258487110226,-0.052728011868664,0.0740083210040245,5.00584773264668,0.00161954166608423,-0.00159854443835041,-0.00245263166737724
1.69,2.17097668770275,1.66468443267967,2.79099167039337,-0.0898494317572173,-0.00987279484764709,0.0434120542807627,-0.417818769135578,-1.8315319392128,1.65104018600125,-0.00380264959843235,-0.0798730992910934,-0.040012078993287,5.13247232447185,-0.00188877908975641,-0.00430620406637085,-0.000158823368156093
1.7,2.11775401295599,1.68023739053128,2.74963452899631,-0.121900226221105,-0.0412369566346089,-0.0192569464980235,-0.366359699375257,-1.99823733675899,1.7335073787044,-0.162482964539424,-0.199081249233322,-0.00634315406288957,5.05018147093662,0.0041578046630078,0.000116164115589585,0.00119240946162336
1.71,2.14642161092817,1.61636658301637,2.7845660398025,-0.176191824742021,-0.0809627819262291,-0.00417886235380647,-0.381381117271276,-1.94415085043184,1.66148902063748,0.0898939828734356,-0.021055321097754,0.0295014955570239,5.07087563864465,0.000260527039502379,-0.00258066559002795,-0.00121494613653558
1.72,2.123575260398,1.61075952214874,2.75956241307154,-0.0867011717032253,-0.0207486599977352,0.00657592417540937,-0.441529884947043,-1.92022572296715,1.69977195233843,-0.0753774432724653,-0.13676993297546,-0.0310530679256311,5.09476100902316,0.000235415915334249,-0.00294092520112293,0.00113545576334369
1.73,2.09719034518923,1.60772128203197,2.79382044640317,-0.154627841205137,-0.0702388181658544,-0.0225400418922031,-0.368588007847099,-2.04281864043363,1.6975457365273,-0.078909053999184,-0.151158276289355,0.0178819423972118,5.0244856997904,0.0039592251491791,-0.000115697490722329,0.000197976692820627
1.74,2.1546576332298,1.58046949395969,2.81386720442836,-0.12723045906911,-0.0466066887059841,0.0234870027603496,-0.375843736463228,-1.91116378971104,1.66652352822762,0.0989120496389023,-0.0205137485776943,0.0221322859889316,5.04212431361425,-0.00225762033381289,-0.00436600866998264,-0.00216495671266998
1.75,2.12304372460927,1.59290452885528,2.80410875683482,-0.0762778011883297,-0.0162882489982781,0.0122606000225684,-0.381995500371977,-2.00093702145419,1.65399235066945,-0.170383221702728,-0.202261624282104,-0.0455159459939096,5.07250360328545,0.00255339996919065,-0.00134472436843639,0.00155016403722031
1.76,2.09551231552903,1.52394371501128,2.78073296486715,-0.20694041052188,-0.113553499314272,-0.0456586259093926,-0.373321075635204,-2.11288931473948,1.66797268760152,0.00201557819370476,-0.100572921969154,0.0147528654611335,5.0446367258386,0.00500370129567539,6.72044426814939e-05,0.001445600106187
1.77,2.15452080570695,1.52533963019544,2.83717603054167,-0.0873922530874216,-0.0202962090562408,0.0313824404679194,-0.389345589902015,-1.87484533320514,1.73951124108966,0.149774192962398,-0.00872665037592592,0.0553592310597213,4.98170067267066,-0.00526441242819502,-0.00652683202232012,-0.00409013236026116
1.78,2.08669161243453,1.54406532625835,2.85358902366248,-0.0752093034578911,-0.0353631893398199,0.00792228159777397,-0.36845652736006,-2.11845008413909,1.57446684949448,-0.307676465916301,-0.304616672985894,-0.103575209008024,5.0674583407596,0.00676004774259817,0.0016931515995006,0.00451607378971259
1.79,2.12615357875004,1.47391936870193,2.80019571277356,-0.232265646008392,-0.132817417605005,-0.0451823122900747,-0.334192713064232,-2.10198709428914,1.6959891114864,0.191208271433886,0.0466235638307996,0.101276120024418,4.99482492761293,0.00148992544651926,-0.00272078282893702,-0.00267120747650248
1.8,2.10772915082009,1.43780827143167,2.82733840100975,-0.0562219236536632,-0.00658140206059659,0.0278845025267804,-0.468070633070892,-1.95643584866016,1.67573096790641,-0.030308173517952,-0.153571440646133,-0.070090148590138,5.05138301247771,-0.00161983143236804,-0.00404418838204142,0.00196242089130283
1.81,2.06645701152842,1.49349997403341,2.87787446162765,-0.137470543194555,-0.0815164851605523,-0.0348499350874691,-0.309195837873367,-2.17732833815149,1.66992131446897,-0.150127813025058,-0.198880706811391,0.036412911800972,4.93164462153861,0.00584795211564688,0.00117259983251701,-9.03707687825043e-05
1.82,2.13979048436387,1.40955326984227,2.86053317200986,-0.171421175093402,-0.0842464875202297,0.0139183477078828,-0.376206276719094,-2.04216188056747,1.56363192572047,0.168477155363601,0.0103882353282644,0.00411045924818938,5.03367510951899,-0.00091974996495911,-0.00400734055740349,-0.000870764872082175
1.83,2.12124115826898,1.46315758926992,2.8538775090642,-0.0310034253195615,0.0100358583280024,0.0256394088445536,-0.353366371880815,-2.01300898606875,1.68424695549217,-0.0951755896727663,-0.177813742121349,-0.00192613639277443,5.00204701762743,-0.000949642385636249,-0.00376202048627378,-0.00114726808421972
1.84,2.09802173377541,1.43094001061624,2.89387025332805,-0.162864223196769,-0.0929677197888274,-0.00985394177221192,-0.272931880961007,-2.24151702101785,1.63738983481047,-0.119363951414828,-0.192579700180393,-0.0302061566487955,4.92080157429125,0.00677794550620547,0.00162642921302669,0.001889294372472
1.85,2.14583260736638,1.34225109354845,2.87088556205581,-0.16016841218829,-0.0888139206710861,-0.0147202298166851,-0.382206152859189,-2.04582121189572,1.56176988030281,0.203441224074327,0.027852560881193,0.0449159668781444,5.01137800487857,-0.00207521276494379,-0.00466446015314433,-0.00144458225591699
1.86,2.08463537519646,1.39519852558814,2.8630842634511,-0.0398033814417722,-0.00922938310248694,0.0186629738189406,-0.377147025686405,-2.09731692913742,1.63564018592302,-0.160565453124571,-0.2246606056288,-0.0342794068573125,5.00147247042101,0.001669799245151,-0.00211440840714593,0.000697553244434461
1.87,2.08987120461742,1.36847608910584,2.90748640480937,-0.182999443088437,-0.108485162222699,-0.0194977314962923,-0.268700247208856,-2.25460064251028,1.63790569766243,-0.008135455833195,-0.123053732705668,0.0144309260342756,4.89988543695526,0.00511676197825988,0.000312037737640183,0.000224735907546281
1.88,2.10598159708846,1.26427493089054,2.86935865449707,-0.145110321681618,-0.0891953593893348,-0.0227521921481874,-0.427953893750368,-2.10226829439518,1.52617337665829,0.116595720977391,-0.0518794965018553,-0.0142923192111501,5.03326915862094,-0.000107716800533608,-0.00322437200255752,0.00172434094695704
1.89,2.0626081313489,1.3375616129928,2.88425620352639,-0.0744896717723933,-0.042195929211318,-0.00716115900641222,-0.353168124209071,-2.15234228879573,1.65471296316532,-0.0770399629215005,-0.172226917510566,0.0345926572244947,4.92337432570059,0.00151112610846098,-0.00213256047946357,-0.00133785267038476
1.9,2.12111907129646,1.33778835564917,2.96722955212615,-0.120722282741425,-0.0597444057817433,0.0383349949601656,-0.246723700244583,-2.1927934405617,1.56744583412297,0.0162430283184918,-0.10650997616428,-0.00488244964142816,4.8912299246176,0.00143703053236005,-0.00204121328613467,-0.00160615827033292
1.91,2.10985777262049,1.25381091825914,2.88137121794016,-0.128347490476138,-0.0790955327112416,-0.0200529445803278,-0.34527652875135,-2.21321328439892,1.48960498823489,-0.0251303905916366,-0.139348012632154,-0.0475194042079678,5.01852843257617,0.00327880350456933,-0.00119261165198388,0.00316944662421137
1.92,2.06222732999447,1.22725344273018,2.86072032004731,-0.153345958538182,-0.103507948093181,-0.0488109507599185,-0.360184700974786,-2.24204160288843,1.61260952276076,0.0405351352969944,-0.11301220607583,0.0464897110538887,4.9386407922379,0.00301124116301632,-0.00131488273830015,8.2750899252302e-05
1.93,2.11443932888305,1.2646813603446,2.97608685850607,-0.0719512241805611,-0.0358466806860619,0.0457385612400494,-0.296323767494039,-2.11289595203903,1.59376509793413,0.0810787071864903,-0.0742806416275893,0.0269532033259139,4.87752696582253,-0.00242627912624078,-0.00478394679264196,-0.00345842404486781
1.94,2.12327679061995,1.28783429270487,2.97561521970568,-0.0628898116631824,-0.0306763944786285,0.0360792442693827,-0.227880729282995,-2.25219099052687,1.51500228100746,-0.146100818572336,-0.215316319808026,-0.0549108555970059,4.91242811926205,0.00338277479560809,-0.000842092758608155,0.000865088766028346
1.95,2.14182630800817,1.20946779513975,2.92752442162373,-0.162339721639696,-0.0969427318428909,-0.0136220400379218,-0.226306121690935,-2.28535982924995,1.54656493916171,0.0785396168692056,-0.0672418489462286,0.0301173467648075,4.89920750601958,0.00267011537720516,-0.00167333281990178,-0.000802331551206482
