time,x,y,z,roll,pitch,yaw,xdot,ydot,zdot,p,q,r,thrust,roll angle,pitch angle,yaw angle
0,2.01841953230695,3.01841953230695,0.0184195323069548,0.0184195323069548,0.0184195323069548,0.0184195323069548,0.0184195323069548,0.0184195323069548,0.0184195323069548,0.0184195323069548,0.0184195323069548,0.0184195323069548,8.96346549465245,-0.00716699976210074,0.00250273411710558,-0.00180442499669725
0.01,1.2193717654818,1.8193717654818,0.0193717654817975,0.0190934964756131,0.0184259704484484,0.0181565805869338,-0.059969117196595,0.0965008154880248,4.10915702423037,-0.282087729408756,0.10726141726737,-0.0285413940323984,5.83961991715068,7.78831518881421e-05,-0.000347192540922328,0.000449572854326838
0.02,1.3082277521127,2.03735832446015,1.66875506995799,-0.113034801292152,0.0450247041710101,-0.0105942550320908,-0.0219445972300718,0.0265219416098329,0.98693671686606,0.00229814556485471,-0.00915914082209928,0.0106181095461844,7.1198558347039,-5.65083746436655e-05,0.00123730758713489,-3.48181570566242e-06
0.03,1.32919735821628,2.01433480733811,0.430923906133061,0.00590586942672221,0.00359247142402948,0.0108843232391214,-0.104542602510932,-0.252664206127005,2.31148125353848,0.000422995248226444,0.0544683755526223,0.0051996346993761,6.96835453808658,-0.00422082029514782,0.00112221070090863,-0.000779520041289007
0.04,1.27263865328069,1.87749099247312,0.98365986808963,-0.0146603237910095,0.00945494227378044,-0.0125575630939813,-0.0418742154449558,-0.019392770571839,2.14457324352048,-0.185682303115092,0.0338735588240444,-0.0279061115187099,6.71842406851925,0.00031263857482136,0.00175756189875662,0.00189485391129342
0.05,1.35129074155629,2.02630009316952,0.946747220448228,-0.044570171903899,0.0469983998996718,0.0220732392927647,0.0223315303587832,0.0158413223301856,1.95147226372041,0.0351564668673108,0.0970028521886129,0.0668126598992494,6.8750435713995,-0.00416756515296186,-0.00159030747981428,-0.00420938451342133
0.06,1.33757390321929,2.0009343276998,0.854905279444004,0.0133453525310552,0.0397245836729287,0.0257385545395021,-0.107132802848572,-0.104198019670739,2.1063323800385,-0.174661541544005,-0.0578603468284304,-0.0888366278365451,6.84121888469222,-0.0011763722415256,0.00220729234651979,0.00297048379827122
0.07,1.32495534676737,1.99220147020128,0.973822557488283,-0.0382714769222014,0.0134229799105687,0.000701364593937104,-0.0432250520677824,0.0630409527528689,2.11687746624388,-0.0260297602124424,0.118313215701441,0.090732853080935,6.74088390010448,-0.00337283460900574,-0.000822190581323274,-0.00434413368616117
0.08,1.31500151829482,2.02429038187918,0.949010802132366,-0.00854011601359016,0.0522076048111766,0.0386584369248712,-0.042564396368462,-0.0802374078181833,2.00976218342371,-0.142282063184368,-0.0256237348909925,-0.0886818203116073,6.83573928756404,-0.00124423836975511,0.000901829656618537,0.0023584778978208
0.09,1.33119520645154,1.98204801642224,0.936391616632321,-0.0443320827613227,0.00917512441981657,-0.0184272450858835,-0.101487715923493,-0.0146280313629802,2.13546660165141,-0.0450707492509876,0.0538111323957953,0.0627959785238394,6.73166647672135,-0.00233929693444669,0.000775139172714469,-0.00211734761138243
0.1,1.25660077431366,1.95860788606944,0.954750478760516,-0.0507963072659002,-0.00442083505074774,-0.00239280680422659,-0.098316467726845,-0.150602007340584,2.00995240539374,-0.126991067115835,0.00905136662760911,-0.0686932743294333,6.80434148642461,0.00080882966763475,0.00235287474495526,0.0033560335274343
0.11,1.27852790100544,1.92348699404273,0.932237628479193,-0.0684718761041195,-0.00784638818227396,-0.0387799187676384,-0.0492752709569608,-0.147954844237997,2.11488114841503,0.0124566552983665,0.0856813114059067,0.0592473218825019,6.72756957694445,-0.00186345691935894,0.000784852349940105,-0.000978415015065467
0.12,1.3374960364412,1.963530622149,1.02338531686822,0.0230806650145725,0.0597176543267227,0.0461113389433696,0.0132987276823289,-0.119914206516097,2.0919611997904,-0.0669610474258947,0.0544468183489286,-0.00163316867440688,6.74012297770509,-0.00458720635092267,-0.00156562936178143,-0.00210865458071908
0.13,1.31891345701864,1.92974881372075,0.993977491982693,-0.0446726513866951,0.0128702180514877,-0.0148686553503211,-0.164767736017836,-0.0276647315214539,2.09069564283433,-0.206546679119905,-0.0664616191296949,-0.055681863557303,6.71758002251279,0.0017359238340272,0.00314333545397439,0.0033300079492905
0.14,1.2758028243656,1.99774230818468,1.02054368859628,-0.0777438022961622,-0.013528391447752,-0.00850165603398641,-0.0481368702663467,-0.101872005089998,2.10270055169184,0.0675301902752345,0.136861157950056,0.0788698432659511,6.67453048721104,-0.00348198153177736,-0.000445769574407484,-0.00333752523457202
0.15,1.30036612711747,1.94425150034741,1.02658361651464,0.0136849368302245,0.0496184503596199,0.0221605149509457,-0.0333954840087166,-0.192858813414821,2.06799019936027,-0.160660599204815,-0.0171938190813347,-0.0772864399098408,6.73627468327624,-0.00161680404074855,0.000523100941033513,0.0025997229185563
0.16,1.31318536932415,1.91296925767368,1.03260535490983,-0.074050718312949,-0.00535129053486707,-0.0330184851918579,-0.134150390536307,-0.0402626219823986,2.14660952044717,-0.0806783176528386,0.0260821618233764,0.0521096012334349,6.62780763902686,-0.000215196785294346,0.00168940283511822,-0.000916240435668322
0.17,1.24519718907015,1.94983947093021,1.04415778800103,-0.0667064436963223,-0.011466722656972,-0.00347496237925402,-0.0867146927666861,-0.221030827002235,2.03836055484196,-0.0432661505162541,0.0479444433180521,-0.0414200825721218,6.6952454504352,-0.000696642612098026,0.00143219182628801,0.00211637914645126
0.18,1.26867127473151,1.87847541482655,1.02492653821674,-0.0493614865798737,-0.000863105896887373,-0.0403011374989752,-0.0695340778631776,-0.219246868307049,2.12359788658488,-0.0610531896036647,0.0417954299972795,0.0242585681747292,6.64518219910534,-0.00098000569210701,0.00116398705617926,0.000746455519621729
0.19,1.32250229460108,1.92627742273449,1.11227265360768,-0.0146177980300446,0.039393473767107,0.0282588858583327,-0.0183077259504606,-0.122699488224899,2.12493907545243,-0.0382062372747331,0.06629214594325,0.031174797408862,6.61356514956757,-0.00393986384232592,-0.00126962635292849,-0.00281907606449488
0.2,1.31626781660878,1.9382578376472,1.10385392327334,-0.0248452697040277,0.0295597129902342,0.00974542143207505,-0.109571020358647,-0.107387862857686,2.09239337459855,-0.175384755525309,-0.0438356295202646,-0.0609210415512533,6.63747552072506,-0.000188482189011019,0.00168372935870677,0.00241085090020847
0.21,1.26462570244983,1.93094706017279,1.08742061659607,-0.0945822779423225,-0.0285440872087593,-0.037664751190808,-0.123779558997419,-0.148131008103957,2.120260243401,-0.0365237615159806,0.0617934653453739,0.0379082593689709,6.58909529382438,-0.000147472779805331,0.00153751259943725,-2.00419615334744e-05
0.22,1.26089889187697,1.91592461555749,1.11263523226774,-0.0397329003626423,0.0148417386657776,0.00127985992095142,-0.0423594897882102,-0.256823472427167,2.10241149691745,-0.0340343828336509,0.0538065333719008,-0.0127529514729324,6.59423815584305,-0.00237895641891252,-6.02765240716331e-06,0.000533941351990977
0.23,1.32860813506758,1.90346817044438,1.15599822813431,-0.00778229219645124,0.0432142222932273,0.0101732991175122,-0.0479512614533622,-0.13096325366031,2.13819438381806,-0.0986545894360722,0.0206637603638619,0.0247642109954786,6.57317417804993,-0.00297656375601107,-0.00052441696705991,-0.00166152440887554
0.24,1.30232422201748,1.93228784610548,1.15961165042893,-0.0515268379121098,0.0119879976697741,0.00807729966164379,-0.119570919061896,-0.118149638007253,2.11946807876952,-0.138726686767982,-0.0146355354414303,-0.0364170971276405,6.55311616438589,-0.000109455836020714,0.00154079598548202,0.00132997645366796
0.25,1.28647705767924,1.95153838552679,1.17324546978088,-0.0573792605104392,0.00901638588836134,-0.00392088240726606,-0.0609127122478243,-0.162201823457221,2.12566319211099,-0.0140594360430111,0.0759891166996196,0.0359592532254783,6.53023059110576,-0.00285552590749652,-0.000495085846888788,-0.00152686967785225
0.26,1.30670456628542,1.92819729825084,1.19070955202041,-0.00991886584989093,0.0427619692152854,0.0205364444372706,-0.0624831804582951,-0.178547126064446,2.11774932522347,-0.128501201067531,-0.00549779734811946,-0.0264641731293656,6.553423476243,-0.0021667604766344,-8.76993545424153e-05,0.000274917275639508
0.27,1.31360004985698,1.92852836869928,1.20798648482101,-0.0498557152158003,0.0180582520988664,0.00324633795849998,-0.0981163743587661,-0.110776729058949,2.16194859428518,-0.0951203143198495,0.0166320301063627,0.0172879731394514,6.48377363256588,-0.00158934635769832,0.000411846754039419,-0.000983670619851769
0.28,1.28989058539598,1.94832035151539,1.22688446534108,-0.0438192838745931,0.0197050441346803,0.0143974089000212,-0.0795653513924379,-0.173090538058986,2.10240335621037,-0.0782797417696812,0.0291781323858672,-0.0150860048929708,6.51340778806049,-0.00206580881533554,-3.08066902394796e-05,2.32639746161051e-05
0.29,1.26153834534863,1.88511577073422,1.18701590481636,-0.0705371967430147,-0.00785134575706919,-0.0315976446205833,-0.138613856426717,-0.228224044683261,2.11784808917826,-0.1255645693851,-0.014177302658299,-0.0213804595863604,6.50429202706868,0.000854794667484771,0.00199435615598364,0.00249838445071825
0.3,1.27697111057101,1.90217454931157,1.23795760156077,-0.0574390141071926,0.00692796328679176,-0.000397535043969253,-0.0547186457870198,-0.212550340504417,2.15803104379831,0.0194905958390702,0.0913914583328546,0.0584796511839025,6.44564063532849,-0.00368271266669452,-0.00109781680304935,-0.00275529807026482
0.31,1.3231493532905,1.91875122720404,1.2831296578475,0.0153374446783585,0.0626479564737466,0.0428108540603853,-0.0460377748387657,-0.175958804795146,2.12420290673121,-0.154741621976445,-0.0161422524123417,-0.0410896816098639,6.50576198110855,-0.0030297428079693,-0.00104832552309641,-7.27130154834805e-05
0.32,1.31599619339332,1.92311653767743,1.27370337531021,-0.0636921870632575,0.0142638125737096,-0.00396243705162333,-0.130376992244361,-0.110829150504264,2.1979019545912,-0.134259176533519,-0.0197902717495561,0.00923598606190418,6.39275132769079,-0.000376276098547013,0.00114723558409754,-0.000259819441701504
0.33,1.21539307923861,1.88638961639549,1.25042865518943,-0.115119796043072,-0.0470076760404213,-0.0398951287690454,-0.173392129720895,-0.296754371926311,2.04351304478193,-0.0765164889595169,0.0147370559368806,-0.0439221928955119,6.49456813938621,0.00192044463538238,0.00251831755850997,0.00396605418420205
0.34,1.24947445512625,1.85839176905306,1.2505185382832,-0.051755545202416,0.00607032496445389,-0.0215606381514411,-0.0395439917977281,-0.310871625622934,2.21763366732458,0.0502680876590187,0.102361912874013,0.0793860773280808,6.37277440860514,-0.00439275891846536,-0.00157278161562596,-0.00273984932205784
0.35,1.29946767037022,1.84364277728511,1.33510550851973,-0.00152515313437396,0.0394426169956044,0.0237042880663347,-0.0962817698253786,-0.237203074120379,2.08615501208437,-0.208674015523256,-0.05661326592615,-0.0634813459052459,6.46722212794986,-0.000685304604698361,0.000721088993344648,0.00188259807530552
0.36,1.28760719734622,1.88860142850086,1.30101621223802,-0.0946960967885688,-0.0101904925760216,-0.0188636958156863,-0.114863974251122,-0.170339152585895,2.20715853679092,-0.0483641737584612,0.0445542980167587,0.0445177280698933,6.33670324042598,-0.000937082906179787,0.000434432768027011,-0.00122419363563568
0.37,1.25998209731654,1.89732931655995,1.34107438604407,-0.0469878936754352,0.0145240651224887,0.00825951227351616,-0.0916381208403522,-0.292298523771788,2.08703992016639,-0.0716953070432807,0.0166714358442702,-0.0342931067467265,6.41447683950659,-0.00201551389034641,-5.85761350716789e-05,0.00122671399900248
0.38,1.28259763913097,1.85560609017232,1.32765246595426,-0.0470731642174404,0.0138010255623824,-0.0142031710803083,-0.0985637492496017,-0.240641004890046,2.17690971355808,-0.107320716633142,0.0071687816519756,0.0257151867004231,6.35696520874028,-0.00139044242319705,0.000192914704129919,-0.00055261567281517
0.39,1.31129053342759,1.91041332319147,1.40077871805784,-0.0313006064044802,0.0399078586076937,0.0401722604809629,-0.0490879580366887,-0.191527844295392,2.16079189857365,-0.0576479187192964,0.0405026129652628,0.0135019965734012,6.33895366600845,-0.00382438720571536,-0.00183800137408374,-0.00253345860923846
0.4,1.31147677967431,1.90961301216765,1.39259435890971,-0.0260376844811364,0.0390738403786814,0.0196519976736035,-0.0976386563814402,-0.206738766689412,2.14506147734846,-0.169334902484906,-0.0494677531350131,-0.0408194223566294,6.35834907313265,-0.00131174374763354,0.000351088298136392,0.00100400836640355
0.41,1.28007665799978,1.89231122312517,1.38856316007413,-0.0829324867327784,-0.00771972306922836,-0.0110870477099041,-0.12109779937897,-0.223453919551319,2.16870952496385,-0.0778976078979952,0.0276682654602507,0.024778429740062,6.29734778557676,-0.000898517369720581,0.000429996865893032,-0.000657018702033963
0.42,1.24631838306467,1.86072805728535,1.38711086398057,-0.069528435574667,0.000392209737167644,-0.00728470328526117,-0.119145791946115,-0.31513811701874,2.10828701549277,-0.080117110015423,0.0098374505435527,-0.029168963232647,6.3393995529842,-0.000912980661237018,0.000351487914385738,0.00171952581000918
0.43,1.26847732220465,1.84050075514371,1.39739777771258,-0.0546281050601877,0.00968316868393844,-0.0131175146598989,-0.0987423150136429,-0.28701572885312,2.17493912160125,-0.0674038570821456,0.0216237714616243,0.0348106663859631,6.29024193290681,-0.00214504200619808,-0.0003222452391962,-0.00103136159217642
0.44,1.27854141676285,1.85388420131819,1.43950385306343,-0.045692971791027,0.0181976503655177,0.0162445252471326,-0.100289155850655,-0.270950277890269,2.1402657256302,-0.114829383809425,-0.0023771633426189,-0.0199835297783545,6.29652283186949,-0.00158188786012976,-0.000156244767359843,0.000175850702171675
0.45,1.26160504798465,1.84423746740328,1.42321647614969,-0.0788691219540471,-0.00428272284829883,-0.0187551938601117,-0.129790006613057,-0.292461113909707,2.14746556006237,-0.103697976111094,-0.0056184931319143,-0.00564315940268461,6.2750137109767,-0.000223553482977739,0.000784180400122287,0.00114831754762871
0.46,1.25490663233844,1.84062227916688,1.44251221973979,-0.0708160629162375,-0.00164117934331166,-0.0083223609822585,-0.107485156025886,-0.317653520614485,2.14908926639665,-0.0455190113213038,0.0336908241555154,0.0185986571533954,6.26008779008896,-0.00200305935200395,-0.000331413685278526,-0.000490856771278059
0.47,1.27928691302555,1.84280504112127,1.47440032669293,-0.0335008922984069,0.0284586403026034,0.0147445496429509,-0.0850784147175217,-0.294167677468921,2.15811030248204,-0.10640273821289,0.00202138927101037,-0.00417595909891408,6.25986886257972,-0.0024495284691357,-0.000897922029707493,-0.000494055486544244
0.48,1.31008807011984,1.87379696720336,1.51131329428542,-0.0369281378190947,0.0377698155984765,0.0265491940164966,-0.071510036063154,-0.236336788125982,2.18617811837693,-0.10708700684742,-0.0019794233391392,0.0137202107417447,6.21895679362764,-0.00277103258126327,-0.00119939252358898,-0.00189486194628024
0.49,1.22728091384594,1.81040656003109,1.45537634346926,-0.113723977466292,-0.03998288239734,-0.0411297735436704,-0.207188956180666,-0.369024351014094,2.09164090453397,-0.184393791283963,-0.0768708364952782,-0.0795498724769795,6.26598166502528,0.00386368867489143,0.00335781643749738,0.00571662610318885
0.5,1.20828768138915,1.79177284588308,1.45838388111614,-0.118368921695395,-0.0476021822662294,-0.0512462775514755,-0.112609587353477,-0.395885756396734,2.19601968935517,0.103854642863095,0.125263126084798,0.103396785422996,6.1757870164662,-0.00316424131595239,-0.00104568717475749,-0.00247115886238051
0.51,1.29224209971134,1.81964278476736,1.56165488532625,0.0391258220637212,0.0764824870572564,0.0615087281193057,-0.0389866102262046,-0.329435518949653,2.16012237775706,-0.147443088267283,-0.0108257941215743,-0.0347117428000989,6.26697509245793,-0.00471258306674238,-0.00325000742360458,-0.00120501382844036
0.52,1.30561424365284,1.82805329141713,1.54977288817911,-0.0743083185169913,0.014893300300664,-0.00614340403633021,-0.138919138145018,-0.252553466869324,2.24889009543508,-0.216525184820016,-0.106871094749137,-0.0166994549507126,6.1039960631163,0.00148127420952664,0.00212960487743478,0.00108598229157301
0.53,1.24358315429059,1.84756665274429,1.56670532346084,-0.118758809840267,-0.0413989743873982,-0.0108112127340112,-0.124633863386728,-0.344234134253031,2.06715752984871,0.0198967929629972,0.0867295813803972,0.0181841376134433,6.20307400710442,-0.00181212484032555,-0.000310258455276892,-0.000353956193789405
0.54,1.26675318050317,1.82034611882356,1.5338597989711,-0.011155471496311,0.0497288242546895,0.0145636155710079,-0.0687374680314792,-0.369853517484551,2.2112454940476,-0.102856758274541,0.00270096396219575,-0.00124672530098205,6.17574892622391,-0.00367424095137593,-0.00238095582716166,-0.000598585235686461
0.55,1.26060454612713,1.77518090542047,1.57958301374823,-0.0873877797434431,-0.010059319872924,-0.0206082026350237,-0.166309892297824,-0.354266699730019,2.15142535031262,-0.200921543473817,-0.099470559709988,-0.028538125830671,6.13183754501919,0.00230026954515087,0.00264207696516647,0.00232926626132212
0.56,1.21858776673632,1.78694497548579,1.55806482109688,-0.128139820531173,-0.0531179064315683,-0.0295780708505426,-0.137245025963799,-0.401022196423448,2.12278024216204,0.0392507254943734,0.0955974538106958,0.0328490876074642,6.14785991583432,-0.00158154289184746,-0.000356888033710267,-0.00015872250384473
0.57,1.25988811554104,1.79088652296733,1.59292090129057,-0.00671687007527384,0.0513272972812301,0.0188327949237866,-0.0696921753510565,-0.396020390448133,2.19772552132029,-0.0966976712768569,-0.000455613496792174,0.00166380425451248,6.14147098739184,-0.00403883610765765,-0.00262128590962902,-0.0009305888816934
0.58,1.31064031969915,1.81138471263396,1.66179675117185,-0.0390473246066606,0.0359150347928224,0.0272293346029061,-0.0830700787057056,-0.300508805779218,2.19597636166639,-0.1775463228968,-0.0701253517784104,0.00416823726188274,6.08068754354033,-0.00127936381886933,2.349764604244e-05,-0.00146679354879165
0.59,1.28191680929659,1.83520583033402,1.64782447782352,-0.0870915127996123,-0.00683519836184607,0.0156290842358638,-0.10235413748498,-0.340057141206885,2.12987901888262,-0.0787185774000056,0.0192183193660212,-0.0196732204297098,6.09702632907612,-0.00141371213356454,-0.000357721770424461,0.000191747213795813
0.6,1.24935675965638,1.79088528680536,1.61483110725929,-0.0719604543312836,0.00517498211223504,-0.0177777766179983,-0.125369604592462,-0.408892527020738,2.14320991167838,-0.104651082675766,-0.0142899540165269,-0.0044221096854813,6.1050171627249,-0.00101167398036056,-0.000381997158058774,0.00105572470343361
0.61,1.27319729087462,1.79106245085173,1.66384971858879,-0.0565108646935844,0.0180440529293898,0.0142985678618659,-0.0879561854467241,-0.366189058567446,2.18200173617477,-0.066918371789003,0.00594433791288633,0.0360374787088588,6.0572474736465,-0.00300156560140253,-0.00141962415573137,-0.00236604998489172
0.62,1.26022225209009,1.78001922517122,1.6694144233744,-0.0629421109834381,0.00423853940105049,0.00905613547484955,-0.128454655891284,-0.400612788153277,2.12381827978447,-0.166357505509111,-0.0530838960966875,-0.0545658822338597,6.08672099528561,-6.14199721316034e-05,0.00055014521761118,0.00216200909361637
0.63,1.23502295532197,1.75715050839842,1.64826012493968,-0.112897103245661,-0.0287547206137124,-0.035442950322465,-0.139785375521336,-0.426617241709052,2.15756131432635,-0.0562585301285667,0.0190523849014164,0.0337708860013688,6.03940249024895,-0.000348415318530565,3.30793197094759e-05,7.67193707121885e-05
0.64,1.23717068774393,1.75116141217671,1.67964489358865,-0.0640027440929641,0.00598096766946573,0.0051788375401876,-0.119690856573851,-0.443425394342003,2.14331758951196,-0.0627467337288212,-1.39354047220649e-05,-0.00566494054745868,6.05227016181114,-0.0024457237627519,-0.00107177403689649,3.57979096729619e-05
0.65,1.24155482663244,1.73502253059764,1.69016199389762,-0.0703081738159602,-0.0047148578531507,-0.0143640746633587,-0.134272294151368,-0.440979816454077,2.14687318542028,-0.150822376041947,-0.0446825161092388,-0.0091870517294735,6.03570111159897,-1.58448274574448e-05,0.000488879773400545,0.00112091157354436
0.66,1.2421440775755,1.74553825761892,1.70613743146469,-0.0987143121515332,-0.0153809560992371,-0.00767528268341949,-0.118817393575136,-0.436236393789151,2.14967025363663,-0.0465887382531586,0.0221467395880479,0.0202703286981917,6.00449021558802,-0.0014456481402468,-0.000718032951545151,-0.000592137246341741
0.67,1.26332524372126,1.76021268425394,1.73492014013213,-0.0425347785471996,0.0261150105899786,0.0183495920043923,-0.0908920609809918,-0.426530080285536,2.15074988139631,-0.092694075829981,-0.013213084765763,-0.0037291772841694,6.02427628544829,-0.00305520713701144,-0.00173070028333819,-0.000661931290554902
0.68,1.238584682039,1.72401562340907,1.72140388996449,-0.0925630798067868,-0.0188193343217642,-0.0224342540926699,-0.153258760722443,-0.472132247386037,2.14238920610627,-0.184413887832946,-0.077718157865015,-0.0310825319554476,5.99329576527011,0.0018387422406664,0.001663988236218,0.00253853194160911
0.69,1.24407418168872,1.73965536483156,1.75204181609661,-0.103202353161377,-0.0189113587878859,-0.00572826920098914,-0.0986345245795517,-0.4451193475633,2.15550598559996,0.0356151742970925,0.0768271727509246,0.0592611779253533,5.95789754936582,-0.00344561683466576,-0.00212489873171936,-0.00252297904561675
0.7,1.28054342406872,1.75905245330239,1.78978868809621,0.000657965568759925,0.0575475137030485,0.0445098041379644,-0.0726772833487461,-0.429233864706179,2.14723804014839,-0.16753667513231,-0.0582054875173738,-0.0356088843633957,6.03232105624195,-0.00333252214274182,-0.00229828451129548,-0.000350550781171779
0.71,1.26816264490049,1.73998783449323,1.78234233217991,-0.101760694472105,-0.0137346649527831,-0.0132472894899946,-0.123250472588347,-0.448455781980879,2.21211040154094,-0.17886991846857,-0.0799283942263423,-0.00544720894831932,5.88908355943994,0.00154615758881434,0.00155532201449054,0.000892926739225009
0.72,1.25803508487426,1.74854056655934,1.82105421337443,-0.0963814969119358,-0.0130499524310754,0.0111062663854153,-0.0933072693078535,-0.446149158317188,2.09039852441144,0.0278195938753575,0.0756172165754308,0.0296925106369214,5.95982400585938,-0.00382441986911512,-0.00247602565604452,-0.00191358695760836
0.73,1.25505729160188,1.7246670542685,1.78214264439888,-0.0274515903395225,0.0349173374112158,0.0100620743751657,-0.114201632448312,-0.487344874288801,2.15580355718896,-0.202800992463457,-0.0922227133136636,-0.0417680327199905,5.9821651482086,-0.0010677045732426,-0.00063770557957871,0.00154317247497261
0.74,1.29101550467457,1.75184826083983,1.85972520925702,-0.0824890415735521,0.00727287150126728,0.0197992387776046,-0.0576010460478781,-0.418117227539231,2.21534322055603,-0.0591592732274861,0.012340235979926,0.0641289185937543,5.84553177256316,-0.00277055959268199,-0.00172125265072029,-0.00394887302947896
0.75,1.28409273271694,1.75298860700202,1.86765197821645,-0.0448407737602158,0.0272882992867367,0.0423711597386207,-0.0896424357250365,-0.455797742943008,2.0728817125445,-0.14628157683005,-0.0499353134940136,-0.0697574934249093,5.97494440918767,-0.00205513512755673,-0.00128514515976501,0.00133679469442537
0.76,1.21645990635351,1.67662893884772,1.77847246652108,-0.133666011454851,-0.0489187887942463,-0.0629555847653121,-0.181050358825197,-0.555526114406755,2.16144820224414,-0.162628100488586,-0.0714917106192344,-0.00135946097264009,5.89017593150154,0.00321234736241447,0.00199562401676471,0.00304821615791835
0.77,1.22277369255489,1.68073400711443,1.85770147600751,-0.10567821943353,-0.0233309792062067,-0.000188306023670419,-0.115298829903052,-0.511143857969536,2.14951453107725,0.0817345409749057,0.0805455846091694,0.0646175396447032,5.86076741260596,-0.00459010838650735,-0.00277109598615607,-0.00302745682425626
0.78,1.2087647365812,1.64739890157904,1.84016698607043,-0.0417433967994831,0.00222033499547059,-0.00861261242705715,-0.171091783168559,-0.577182713049239,2.07891439494894,-0.264437364618042,-0.132768265031104,-0.0932533471629839,5.95959090520548,0.00155099770010111,0.00118253171962455,0.00484940352731144
0.79,1.2472444037369,1.68449851284224,1.87526336720798,-0.128393939073429,-0.0304997011361325,-0.0188013823398178,-0.0825709479266016,-0.495569018330975,2.221671509185,0.0265327712896015,0.0704126968995049,0.118542289488554,5.77841279111936,-0.00250894445612618,-0.00206525074717741,-0.00470938900794668
0.8,1.26193673319665,1.69822134470691,1.9230966961536,-0.0223877946123858,0.0391048085354457,0.0549538367529386,-0.102739123395061,-0.51231257412169,2.06426439076691,-0.147753935030609,-0.0709845553190824,-0.0938772674987438,5.94693468305702,-0.0029104010372663,-0.00186560143753503,0.00190824865963333
0.81,1.26087273934185,1.69006848259059,1.89146373470781,-0.091372226893479,-0.0104613633438227,-0.0267310958832501,-0.0957103592829818,-0.524478965303455,2.22449494575265,-0.160331975565999,-0.0565849800100353,0.0499399499447213,5.77529409247585,0.000310724459075058,0.000230710096928631,-0.00108257390266029
0.82,1.26488778207798,1.6925296975885,1.96011294286308,-0.0916447889962374,-0.00146002236867569,0.0359014264306128,-0.0892501063752364,-0.511240154058631,2.06954523297348,-0.0245847190159865,0.0212657394463655,-0.00965710035657345,5.8523404450139,-0.00304946174808184,-0.00224486766617256,-0.0012125101451596
0.83,1.28655875284008,1.70951560888128,1.93556148396119,-0.0212438528992275,0.0465830195304908,0.0285532186188644,-0.0602661615481872,-0.499272511416068,2.16998365494678,-0.148069799283047,-0.0583824838583831,0.00130066666920475,5.85558384304785,-0.00339733874706538,-0.00250884715500926,-0.00133123215661769
0.84,1.25226321727607,1.66585400834896,1.94932230146817,-0.110622864986982,-0.0252698223279506,-0.00708153555861853,-0.125130422467515,-0.575714349613759,2.14573553553773,-0.196366120447246,-0.101978885529605,-0.0343418371476203,5.7727375037683,0.00228585981076607,0.00168974778664387,0.00197578307936851
0.85,1.23180432170276,1.64363359620815,1.94837194969603,-0.127285501056731,-0.040741573669375,-0.0167336190645762,-0.125729646059097,-0.564526649791436,2.08458112416686,0.0357267213297045,0.0648796347109894,0.0386346867717037,5.81170058320084,-0.00269013373987497,-0.00202668000488627,-0.00102347697393224
0.86,1.24898957259805,1.65606837075127,1.96026386323939,-0.0196701007610772,0.0409923185063574,0.0270231215903937,-0.0992494941729865,-0.556192813180994,2.15514768901855,-0.153924938992567,-0.0687919166479984,-0.0127830267748001,5.83453482462451,-0.00306559215261618,-0.00249382881856931,-0.000592047010480223
0.87,1.26553593969957,1.66168351963392,2.00996785839888,-0.0903900253944179,-0.00530616175736448,0.0114817219870701,-0.0798893255662558,-0.563606024525812,2.17157718006845,-0.163873833332766,-0.0818240827438665,0.0018566431673975,5.71821688636973,0.000164528181263903,0.00031741648918466,-0.000605331084071695
0.88,1.22459191717888,1.61597496260641,1.97722255992482,-0.134919075424899,-0.0508602068734721,-0.0206476780200572,-0.153017669595136,-0.619255435622136,2.02860775938318,-0.0667608795896486,-0.006652595691586,-0.0317125020688722,5.81801924905253,0.000397858863035216,-5.52213336517719e-05,0.00248366284333691
0.89,1.21234959169339,1.60296647853595,1.95204144822745,-0.0857186026420847,-0.0105277299481131,-0.0232917946186606,-0.135468108559122,-0.61992288379238,2.17235277992315,-0.0481435358208452,-0.0115782360735006,0.0430492428789909,5.74446527342803,-0.00245987961983387,-0.00191836699262566,-0.000906497856556511
0.9,1.2315947954371,1.60838425091618,2.03783467038814,-0.066810652101288,-0.00134248045174516,0.0175003257220266,-0.111104216022514,-0.608877350515198,2.08951279048072,-0.15481335916749,-0.0763742311211797,-0.0193354022169302,5.76485534694255,-0.000826793991116171,-0.000529265042194016,0.000123709144240946
0.91,1.18419989630673,1.55747042908524,1.96363254545643,-0.158832912911687,-0.0754242649420722,-0.055088159974182,-0.187924427906618,-0.703351400530688,2.07182855713544,-0.130340530197464,-0.0601025348815082,-0.0376076427259827,5.7690408958475,0.00362680220417988,0.00166279971079343,0.00439261872934175
0.92,1.23364978196339,1.59927619475243,2.03575175492602,-0.0803902217802895,-0.00127488433571783,0.00588726002665573,-0.080877680092401,-0.586254794856427,2.19970951080487,0.108970133361255,0.0813896210167277,0.111051360510336,5.6684202292864,-0.00689360914152885,-0.00499714724630519,-0.00546527484761479
0.93,1.22577934769102,1.58304393582963,2.06926236371465,-0.0225636049010386,0.0116151136471381,0.0256597972093871,-0.134704489010304,-0.671786622969633,2.01614374512715,-0.353700084807469,-0.21024447491671,-0.13259493276276,5.82156430269495,0.0024812570984677,0.00178747583315812,0.00512448161862983
0.94,1.24979494464184,1.60119854937252,2.04161678377725,-0.170168474635698,-0.064250607666442,-0.0323416854972441,-0.0645344042643589,-0.629128848043369,2.21448233490746,0.0546194224627173,0.0955424842829405,0.125816227567472,5.59734490038715,-0.00153049949231488,-0.00211911790342975,-0.00441510541415097
0.95,1.23195211332098,1.5716097649072,2.0861389651442,-0.0429206006758786,0.0244377104899348,0.0365273982845414,-0.143478993476692,-0.647856869188489,2.01980139414189,-0.134447597806568,-0.0972653127869573,-0.106479790308655,5.79596198237433,-0.00236186325424344,-0.00176352520732161,0.00337540453908455
0.96,1.23610357144327,1.58636710544821,2.07040785174255,-0.0954252038313816,-0.0247696599141628,-0.031640617322304,-0.0733429497006785,-0.662729697104256,2.19326617022948,-0.146096590920957,-0.0581744004332227,0.080966070243861,5.61303708774881,2.73357434308013e-05,-0.000105534405328455,-0.00231045538338122
0.97,1.26111040456651,1.58502081098199,2.1397088289299,-0.0958484504780074,-0.00628094155860758,0.0472567841836937,-0.0815265895330906,-0.635667953586051,2.02806525943981,-0.0434239244309843,0.000442100383585057,-0.0364943504701581,5.70183085725543,-0.0025529446532461,-0.00249700327708579,-0.000468866333455167
0.98,1.23745084989781,1.56799592221362,2.07217256469013,-0.07502471738805,-0.00174800045660669,-0.0186319630577963,-0.10537942001583,-0.686573791475994,2.10480143200599,-0.165327841248727,-0.103752618628727,-0.0134346010580113,5.68994288224602,-0.000266863505448944,-0.00031521736422622,0.00155403192418081
0.99,1.24427266130463,1.56172490617943,2.13113386061003,-0.110160914332356,-0.0306414520292712,0.00404234006649136,-0.0786309957447179,-0.676729480760181,2.10815277362467,-0.0618697327849003,-0.00848772033125432,0.0411042810457056,5.62055359169158,-0.00138800877491592,-0.00132868081199707,-0.00211203077258885
1,1.23796781374594,1.54658696107877,2.12877669251847,-0.0818910333946876,-0.00547298380437961,0.0136870494337638,-0.110357994545403,-0.690736324109925,2.04648083722491,-0.118165369047593,-0.0604103673216174,-0.0474568186300103,5.68685943453427,-0.00114575559723193,-0.00141938014431786,0.00163677523254609
1.01,1.24129456975203,1.55131838627427,2.13307453823934,-0.0929968437654714,-0.0137162443269446,-0.00980690334711913,-0.0772094462621338,-0.694321291672155,2.12003252932486,-0.0988185689944752,-0.050981698093047,0.0426996857200479,5.61312772082035,-0.0012717000956896,-0.00120224186128005,-0.0015232030948379
1.02,1.21690242796936,1.51092791756881,2.14065291202012,-0.116464022289351,-0.0414515784074686,-0.0042747061623107,-0.130585131217937,-0.746528063684332,2.02764298051315,-0.129371748466229,-0.0721609035084562,-0.0504024177393381,5.65546770586105,0.00100643501573228,0.000255058095241452,0.00260402094600315
1.03,1.20580800844562,1.49644031678532,2.12478921490332,-0.122641933404895,-0.0444057600743495,-0.0349218555731236,-0.125953185694384,-0.741962832430213,2.0958245297847,-0.0331001910266407,-0.00645255898451168,0.0429667379111408,5.60702522793229,-0.00118960634273006,-0.00146057726710956,-0.000365185175035563
1.04,1.25183925357625,1.53777539351325,2.20692027640289,-0.0432517563172021,0.0229889877328112,0.0435080022463447,-0.0577294321517636,-0.67565018785958,2.09322714390031,-0.0871394408898807,-0.0424349896364961,0.0141260430157731,5.62482402518243,-0.0039515966533379,-0.00347577924325121,-0.00263497455278939
1.05,1.23178110118902,1.51226560298589,2.18097731159779,-0.104142606441791,-0.0301020070049461,-0.00709237457509859,-0.0928636740057895,-0.785200438788872,2.06346670734841,-0.231991311507724,-0.152871201883761,-0.0663794883982564,5.59069721771785,0.00295325968404743,0.00174575689272029,0.00350349087343514
1.06,1.23684596264361,1.49018377297929,2.18884870642068,-0.146748610814114,-0.0606960386064757,-0.0238179739402584,-0.0886037197632705,-0.736077819594174,2.05958395855471,0.0582804483773212,0.0670703428761926,0.0771536220604052,5.572170135718,-0.00256546340200823,-0.00254866527027539,-0.00250650663821915
1.07,1.19955703914082,1.46241976561054,2.17120577528533,-0.0646238318093347,-0.00536641713757897,0.0014564453893746,-0.152142218120617,-0.789982769865086,2.04221439806522,-0.191996465350118,-0.132554897199387,-0.0786950681316529,5.63986587843258,0.00024743609856247,-0.000489433151935582,0.00369654398302816
1.08,1.20254304502367,1.46343090586139,2.2054079366566,-0.144520903810359,-0.0641795299771073,-0.0410237692650552,-0.0888592601726765,-0.802748984016522,2.10000607350579,-0.0622635185470104,-0.0296104165679864,0.0714459094582522,5.51489562179775,0.000550768509110127,-0.000154414493070471,-0.00143145786159936
1.09,1.21484690621236,1.44756040528208,2.2225069643976,-0.0998298827577288,-0.028147237103984,0.0138096629688868,-0.12495292611644,-0.776364199807933,2.01085549053659,-0.0518193613997273,-0.0296162891286241,-0.04266095894635,5.59730826555495,-0.0018373443213847,-0.00195016881167371,0.00139698024865609
1.1,1.21277458013769,1.4611158467589,2.2197581381713,-0.0870358213856009,-0.019408855208446,-0.022642023012651,-0.08832539259019,-0.803204900428293,2.079074987832,-0.141823268340116,-0.0885534521303384,0.0253423837520816,5.54556623459186,-0.00022684699060613,-0.000788121446004729,-9.54003426661632e-05
1.11,1.25027508384886,1.47379889705506,2.27666397206131,-0.0995530420057587,-0.0200654478012078,0.0272232542394508,-0.0426769043133867,-0.773636881447855,2.04970088644932,-0.05633548016105,-0.0269226502723964,0.0133507478844035,5.52205603691487,-0.00204196589915068,-0.00204962177613945,-0.00188024997902775
1.12,1.26516622235626,1.47885455342704,2.27598615231576,-0.0657519915742701,0.00433871923588873,0.0233773249027049,-0.0439275975473748,-0.774631318863107,2.03509463435208,-0.130852152590258,-0.075320369807164,-0.0245914546601794,5.55758246151625,-0.00177751015877025,-0.00199794646216267,0.000118251132396962
1.13,1.26843182421536,1.47751807268265,2.28788595284892,-0.0931875892028702,-0.0117254993263277,0.0108078402413869,-0.0218811366214676,-0.798568279667035,2.07300720783586,-0.118259417542837,-0.0699178614773204,0.0205697670347023,5.4901242762727,-0.000862115238265025,-0.00130027347031278,-0.00144427058850081
1.14,1.2546002773523,1.44284027450793,2.29212633666314,-0.107520365745743,-0.0291762576177234,0.0101927782796349,-0.0624091712234136,-0.81802736396243,1.99779870511262,-0.0970692150398662,-0.0610555904271816,-0.0286831085060007,5.53007638824196,-0.000517368324887212,-0.000990302699054359,0.000903514021188747
1.15,1.24755558340874,1.43837084880135,2.2846985359945,-0.0935641013494996,-0.0197546778317637,-0.00296826794088791,-0.0593559920816146,-0.813080933336424,2.05522279748785,-0.07873450758246,-0.0424878796392596,0.0264408637146717,5.49721299240414,-0.00170540065226593,-0.00207552406330089,-0.00107110378227705
1.16,1.21554293321448,1.4014784515285,2.29104966363187,-0.115715126019536,-0.0419288751559612,-0.0101323965086964,-0.0992256078925355,-0.878547249430789,1.99576006428783,-0.151275938067708,-0.111092635361587,-0.0400196451213537,5.51395527886558,0.00157636109144271,0.000346720332070693,0.00239130787694117
1.17,1.21410083402076,1.38702444555562,2.28951639832519,-0.134300202783933,-0.059495050361566,-0.0263106080322437,-0.0895771362668646,-0.858592051390644,2.03856784076946,-0.0105411433807633,-0.00525199958272432,0.0429655934120252,5.47024840307235,-0.00123241922086618,-0.001625845717941,-0.000773443955857852
1.18,1.25275190955702,1.42446920906476,2.3540030069403,-0.0449287644442807,0.0162130074573068,0.0413092743092003,-0.0430251984712159,-0.798361764022631,2.04237553388783,-0.0955591941155224,-0.0573244574713206,0.00342255530192299,5.49925924123462,-0.00360979672446466,-0.00371424101122324,-0.00202071001458934
1.19,1.26013007838486,1.43142778874495,2.36275349124894,-0.0870422522916286,-0.0119837718646833,0.0171159121895375,-0.00625234724913146,-0.879782121479414,2.04400574079027,-0.198604539773406,-0.14479219531816,-0.0292429420340328,5.43244154210968,0.00102603863792528,0.000249708706983389,0.000615046280248985
1.2,1.26353242728523,1.38831323692083,2.35596489681378,-0.138232948643516,-0.05695596209957,-0.00521577317793206,-0.0398252225958152,-0.868379860516742,1.97477111929045,-0.0198060199248149,0.00255211023574013,0.0190140007627244,5.45865093974202,-0.0010028666378077,-0.0016454768733312,-0.000635496412427358
1.21,1.21596524238239,1.35135322466038,2.3135576242677,-0.098765611662156,-0.0293699435645889,-0.0160249628193491,-0.11541349804161,-0.905136656262849,2.00264494526733,-0.127447665485369,-0.0997435164985491,-0.0339075819093897,5.48412358978225,0.000181851433439931,-0.00101248493010987,0.00238530349706361
1.22,1.22247943451131,1.36655162866785,2.37313790941217,-0.11311175842989,-0.0415892474588853,-0.00928451068228523,-0.0441466498951938,-0.892405605749517,2.03796801879986,-0.0557827808170554,-0.0491335375554762,0.0550571242846111,5.4010476132759,-0.00122033352816068,-0.00144405543359881,-0.00214016173770667
1.23,1.24770149916248,1.36618005644087,2.39545418897777,-0.0828208098432936,-0.0198980139459554,0.0290847841411635,-0.0502513261802014,-0.882781048808371,1.96732143714457,-0.110093803348807,-0.0680719651667282,-0.0397420497443853,5.45885907803964,-0.00129145983140441,-0.00194035399223496,0.000549836098557202
1.24,1.22816491033393,1.34723394588138,2.36532434709247,-0.121238807646883,-0.043210783559841,-0.024800408858317,-0.0568689799879581,-0.946218317167366,2.0059435936431,-0.127725351154396,-0.097347774247079,0.00449671759143218,5.41313555926615,0.00119723912572848,-0.000314909574147349,0.000975249754290354
1.25,1.24057525494325,1.33419164144544,2.4016765077433,-0.115305725427499,-0.0421339206977987,0.00550412647205547,-0.0462153246399329,-0.901130117501319,1.98925180838317,-0.014884390606688,-0.0258487010941639,0.0246700367835474,5.40566933940231,-0.00212755589914431,-0.0021658788592857,-0.001398936340683
1.26,1.29115390207269,1.39207598395888,2.45706971996441,-0.0267868019957517,0.0292648052166493,0.058687846015725,0.0252702530545633,-0.842997906104513,2.02302102859392,-0.113687936323308,-0.0621013498215621,0.0103548953874546,5.42722159246416,-0.00408158404185571,-0.00446227308155627,-0.00313799461602123
1.27,1.25177233600056,1.34164682513523,2.42250620822468,-0.124462798851579,-0.0430092388865162,-0.00625902082411592,-0.0139410717421554,-1.01568265271325,1.99352083481646,-0.242126920234188,-0.199776340827341,-0.0748862469252956,5.35898701941133,0.00442938266993307,0.00230805906370197,0.00386331415991571
1.28,1.21610281292822,1.2512941206795,2.39058895858025,-0.197802179078187,-0.124451106818072,-0.0639858354250119,-0.102738911286868,-0.981913740049665,1.9163052943366,0.0786145093445966,0.0508623565041958,0.0549790888376232,5.43081357935664,6.05885578793105e-05,-0.00116673207567951,0.000424382427526181
1.29,1.16147344421128,1.23575280435056,2.36380232496545,-0.0905701445693234,-0.0396498663259357,-0.0277276581925646,-0.164001890505477,-1.00061281623821,2.05570117220529,-0.108229890829523,-0.107814455090092,-0.033699473283971,5.37547684380607,-0.000305525170140131,-0.00149285047205425,0.00291912719921451
1.3,1.18008642443748,1.26236991875446,2.47797778955921,-0.130251590819311,-0.0687715524624963,-0.0296969877971467,-0.0568346541796679,-1.01364733445291,1.9445698129799,-0.0944258748799256,-0.0886128394043332,0.0495892250179924,5.34892444448943,0.0010560688464944,-4.78862762471811e-06,-0.00093398507186288
1.31,1.21706597043825,1.25395570224529,2.43066271440528,-0.123542223533477,-0.0585760001478175,0.00584689664749397,-0.0718812144974224,-0.988206250704823,1.94298793930582,-0.0352952906223035,-0.0333652320101472,-0.0305153779353323,5.38205143764865,-0.000847983047795933,-0.00183400760182786,0.00118235885295866
1.32,1.20044306330089,1.24614990049531,2.43781637630852,-0.109778644396978,-0.0472446646927331,-0.0349142702823331,-0.0746793573424027,-1.02826320455465,1.96502191785218,-0.121808077697591,-0.10988371745071,0.00659992365950189,5.36103456864333,0.000850306962391029,-0.000655002589829874,0.0013489946719682
1.33,1.26619233336366,1.29397122246859,2.51860923324061,-0.0837903794357215,-0.0175487827715385,0.0391349276261663,0.0396614831802288,-0.941259636687352,1.99327655220055,-0.00120817192232754,-0.0156614114727571,0.0609930349391037,5.30379087633971,-0.0039710213532737,-0.00386122576495778,-0.00467408516044618
1.34,1.28296975215523,1.29379621870594,2.52030376552729,-0.0543998055408167,-0.0012647328052072,0.0434256332627485,0.0282530831838447,-1.00473596428478,1.91219225851897,-0.214324419538102,-0.15702670864455,-0.08379222034003,5.37373683776905,0.000273184367262634,-0.000865764049331334,0.00196727383662955
1.35,1.27358339962332,1.25921649438186,2.49021934218344,-0.148303008981921,-0.0644511237438426,-0.0232594601609263,0.0362141728885393,-1.05156030815054,1.98152094160252,-0.0516157971992586,-0.0409263820987778,0.0517195582755905,5.27057187929327,0.000668892542203714,-0.000952462055933915,-0.00134038956803052
1.36,1.27208018150176,1.23017012236394,2.52071684841499,-0.0875891923449418,-0.0212927994818969,0.0280850151760293,-0.0210835028363173,-0.97713509135526,1.9067686837004,-0.0352344040236958,-0.0552937772279365,-0.0220238903495811,5.35256382301448,-0.00272470362206762,-0.00298127818349414,-0.00024368432885674
1.37,1.18169080737609,1.18138415055247,2.45343493907675,-0.144451769865663,-0.0904906694663338,-0.0635573487639077,-0.083069534052335,-1.15908160943261,1.90707664874255,-0.226800673222958,-0.184419707240579,-0.0510317894094497,5.3427743091576,0.00594793751853883,0.00240872231857445,0.00542928953694902
1.38,1.25703219135593,1.20841048098955,2.5434729621435,-0.134817227297202,-0.059331294568725,0.00616340787266641,0.0137329541216158,-0.970108848995599,2.01553794975025,0.195951291126753,0.0982722873333312,0.141582715766223,5.21474108555913,-0.00632111297238951,-0.00568375220778221,-0.00693937630624246
1.39,1.25310319540399,1.23125789771849,2.57374014430337,0.00774739462525489,0.0207379924461159,0.0609602686541204,-0.0193853703167781,-1.03378360924651,1.84479021403943,-0.328147734957029,-0.23783550728685,-0.146782431350353,5.43550956426486,0.000581864720362349,-0.000814598126165841,0.00415944442390344
1.4,1.22221854787069,1.18416827534967,2.49813274233838,-0.225394115263769,-0.131499037687582,-0.078575540904556,0.0288820478849946,-1.20864818657469,2.0616940865425,-0.0725239549012312,-0.0563884837955117,0.0728763347638315,5.16817774776086,0.00562102096150364,0.0013934752524542,0.000271742705985265
1.41,1.21844650114983,1.08733326337067,2.55348609630111,-0.146578576011987,-0.0743678666206502,-0.0112985320400522,-0.12082568242401,-1.03224924434458,1.87019457606971,0.127050563603286,-0.00728107153103644,-0.0266005449540481,5.30899633366572,-0.00360867140188877,-0.00286604172647281,0.00179889916122366
1.42,1.20764431668231,1.19206062159784,2.56736285310253,-0.0256350010492705,-0.0166849489922813,-0.00695947477524617,-0.00781587515740001,-1.06978928926948,1.95680529488588,-0.213813420052836,-0.136528751238611,0.0399510472030387,5.28738648629612,-0.000861425087654244,-0.00181215924112835,-0.00149864248207734
1.43,1.28779287382485,1.21386231835954,2.63718799144093,-0.12400379571554,-0.0317300529944281,0.0528443649820782,0.108095499944181,-1.1248277398746,1.95096071817952,-0.0700132952248263,-0.0678906099955332,0.00142684244238252,5.16062816844951,8.56500657940527e-05,-0.00186632695472817,-0.00254865169740448
1.44,1.29330472134628,1.14646780145675,2.59257466340677,-0.100285225004173,-0.0373896467277935,0.00639145062330775,0.0324311790093676,-1.07906598814294,1.79737729448647,-0.0607043040387512,-0.0948375809113323,-0.048329585513571,5.32192108114191,-0.00112587055975343,-0.00133617242234549,0.00200418912606926
1.45,1.27702211490271,1.16993544678132,2.57039684577194,-0.0880188041447514,-0.0398909164797958,-0.00384067554438579,0.0567329209773412,-1.11399890304931,1.96424317904549,-0.103449611251723,-0.0662152239148024,0.0557385157244296,5.20075830342549,-0.00065270475048942,-0.00211272092292844,-0.0024298485174734
1.46,1.26431113945336,1.12753559243991,2.62423667519195,-0.124378926611567,-0.047777500144082,0.0176448139370024,0.0231310007965838,-1.15723137830915,1.82800259692858,-0.098910810264586,-0.116272551182176,-0.0546276417055712,5.25141194579158,0.00126102825701393,-0.000675333883759125,0.00175406199765804
1.47,1.27794862830167,1.13136977281788,2.60119477822878,-0.100971051934752,-0.0468123422421354,-0.00455029655553166,0.0566119871557192,-1.09785251704011,1.91008134578064,-0.00458823794907309,-0.0382437287017931,0.0531873372229573,5.20847257365245,-0.00254987554976421,-0.00268918393841359,-0.00227617760552742
1.48,1.23588980733122,1.09075117079088,2.60311014191758,-0.11096692395137,-0.0635479534197441,-0.00740173994909244,-0.0152075512722023,-1.2101861278968,1.82043244660609,-0.197417706521343,-0.159866898901528,-0.072669822278233,5.2591486634183,0.0035013725894122,0.000572378044316837,0.00379115768405797
1.49,1.26354313899331,1.09783599422529,2.62168781029722,-0.142262680241391,-0.0682802376302723,-0.014750267061607,0.0524914681448805,-1.13494970190861,1.92244193465618,0.0833757682779886,0.0106059234424716,0.0952674429473166,5.15647889441992,-0.00263351343374076,-0.0032931658045185,-0.00380031867802443
1.5,1.27672350239939,1.10640122983437,2.66577577114987,-0.0362014977975162,-0.00678114502181592,0.0499419136787539,0.036487899911281,-1.11686672091377,1.82558136741186,-0.168786629500293,-0.149338225041019,-0.0723337945922611,5.26929656072547,-0.00123130156901328,-0.002083747249594,0.00111292164481486
1.51,1.25640112543443,1.09172566497774,2.63120511290284,-0.153948966826502,-0.0849977313456438,-0.0341425494421789,0.0812227810555063,-1.26956142059224,1.91370214894744,-0.127288209494374,-0.111874737495555,0.0200499665860321,5.12523140540836,0.00371961031532058,0.00065271430244258,0.000662624588768677
1.52,1.28340699384971,1.03439719626975,2.66769886844357,-0.130224666149232,-0.0621129756666189,0.00896126805105194,0.0183098676582077,-1.12777021134985,1.80530890222631,0.0836962604639845,-0.00540919262616139,0.0168636756169551,5.2099285086876,-0.0031237598249672,-0.00335019761232996,-0.00120982588856591
1.53,1.2870171885311,1.11109021858314,2.68106118569287,-0.0187907252017542,0.00611990441388973,0.0389636963793428,0.0893754039066627,-1.13493325383012,1.89549324908742,-0.171864835827171,-0.137267542585106,-0.000738819475673939,5.20236882380204,-0.00202595870288054,-0.00301939163290187,-0.00173508758722875
1.54,1.27998991512537,1.0663222308677,2.6942285244008,-0.151802790550248,-0.0769278629911739,-0.00163607035470713,0.116438934905999,-1.30947826157395,1.86483108697103,-0.153359428110086,-0.150743197315845,-0.0370678040911599,5.09970348620724,0.00441164487542214,0.00140553522172251,0.00183288170124302
1.55,1.3122066764473,1.01057682660191,2.69245810683186,-0.128692617116901,-0.0683113746845459,-0.00192087599700774,0.0532641767825238,-1.13518220740309,1.79231646257272,0.120143405528378,0.0351779271519648,0.0521582143604878,5.18106958607564,-0.00409750599817777,-0.0041103280238865,-0.00235754708808401
1.56,1.23985572130538,1.02365397022353,2.65292368819196,-0.0595439789575372,-0.0344601773923278,-0.00180346197280334,0.00844885726920452,-1.25684897958551,1.823443000808,-0.257560405409918,-0.214529644021365,-0.0711096397431354,5.20842524454644,0.00276465841263714,0.000134648477828958,0.00345773382008866
1.57,1.27721982291066,1.02632263342527,2.72012647434565,-0.165801632013647,-0.0901097303839924,-0.0107462016511735,0.125652510058929,-1.26154863717516,1.8819772583959,0.0552394378807715,-0.00696640635396073,0.091042626579896,5.05567529591154,-0.000416759730822905,-0.0019196173503212,-0.00380391761041969
1.58,1.33275726057486,1.02530213152601,2.75459746206147,-0.027321620922876,0.00736855799549783,0.0719801554179464,0.0830790758335052,-1.11532853249219,1.78175953422484,-0.0588500245130457,-0.0812383541522824,-0.0524304703894104,5.21382046529071,-0.00434923396655047,-0.00480967878915933,-0.000845430833862184
1.59,1.26522511255209,1.02270754589793,2.697289813095,-0.121254542349715,-0.0683293454120313,-0.031999395176309,0.123381463277856,-1.37312400153984,1.87133805498096,-0.258690631269605,-0.231583045352373,-0.0282488654161389,5.06611030136693,0.00599828207581303,0.00251712279495421,0.00285679330633182
1.6,1.27721522078446,0.909234766016706,2.71581587721383,-0.208810354165202,-0.139981242915708,-0.0365057640173257,0.0313250993556428,-1.27562239195896,1.71656333695763,0.151962996636631,0.0471386528309085,0.0431831251129852,5.18216621160228,-0.000296679543644468,-0.00182590940437562,-0.000324705412088715
1.61,1.24180188269749,0.941905063886981,2.6790052293975,-0.0435115140460757,-0.0248320085455506,0.000362297707950175,-0.0114184047366963,-1.22331030185174,1.9224813259661,-0.0976401047529547,-0.12338213672951,-0.0226064124522127,5.11409838351202,-0.00214949085034266,-0.00322310434968037,0.00106412560843372
1.62,1.25980693235219,0.989239409219299,2.81786098587758,-0.113039244967405,-0.0632631560106678,0.00311544347808273,0.148959604073594,-1.34830930401891,1.78927096351601,-0.14754371961856,-0.152330773082387,0.0329035485659723,5.04014597864558,0.00259044834347207,0.000369986400344195,-0.00170704579466487
1.63,1.28934165718552,0.898766932410001,2.72047271024173,-0.161322367047288,-0.102037288454987,-0.00421687506731391,0.0597596683038493,-1.31375444979136,1.6942118853255,0.0230768005262524,-0.0386839381950443,-0.0489665564650138,5.16880916168941,0.000800227355418717,-0.0011768254678002,0.00250461681792868
1.64,1.27027789729036,0.921532340076787,2.71679292567124,-0.0804207649089226,-0.0460091433636886,-0.0220931029803998,0.0571407226913604,-1.27008929512872,1.86803276819123,-0.0398128962036178,-0.0867886910341396,0.0511308752783485,5.07002452807601,-0.00172293558491459,-0.00289976372005861,-0.00137526274238904
1.65,1.24098953084211,0.90187084224281,2.7794725654839,-0.12975884996429,-0.0896785292779891,-0.00667946947442533,0.0798900738243266,-1.40093342757341,1.70803540607284,-0.161044261342164,-0.176396507767621,-0.051797709384645,5.10660355147743,0.00435283752528644,0.00141790045033796,0.00275945417388713
1.66,1.30303843597961,0.896151979998909,2.76035287181552,-0.133099887396274,-0.0826152390249087,-0.0057505954114422,0.110983844629742,-1.27916844164972,1.80729929925935,0.120362930945873,0.0327917672400769,0.0743539402794962,5.04125949430065,-0.00322088036907716,-0.00403964490194418,-0.00324178558333037
1.67,1.27353885256947,0.893918555037911,2.78286076797266,-0.0528255093064775,-0.0313308414652273,0.0175746714027801,0.0685150722123219,-1.33836506032901,1.70918573657906,-0.212026978197244,-0.208570202815451,-0.0809652955817311,5.14130114316217,0.00178028161496913,-0.000522418507733977,0.00299664948792888
1.68,1.29391356607278,0.900823077038003,2.78687388400296,-0.157334787260751,-0.0996330639500858,-0.0197572312458484,0.187017421920464,-1.39992550420464,1.82355275165074,0.0114142063068327,-0.0433954151092667,0.0766841813155804,4.97603890638515,0.00102777281843344,-0.000972207426840904,-0.00270560059378047
1.69,1.33693454530188,0.86145257524544,2.82796184165825,-0.0697491690746486,-0.0326268098340562,0.0448226951992396,0.103381096872491,-1.26723757647747,1.68903287445006,-0.014389773345869,-0.0689452485880564,-0.0455608749328647,5.10826141226271,-0.00274039759633912,-0.00373279033466096,5.03162637850772e-05
1.7,1.28448930630832,0.886976879206616,2.78405504872006,-0.0989955407335624,-0.0620820231721324,-0.0210447226966961,0.16247375986404,-1.43370080422839,1.77060566178814,-0.184177619451771,-0.189837079622244,-0.00209643506537821,5.02290768706383,0.00348038749426725,0.000756195171687884,0.00108482016069472
1.71,1.32035473914604,0.824112518669813,2.82210725051704,-0.158147921307628,-0.102779606939229,0.000513971648966257,0.147792790137875,-1.38008331987742,1.69651658758745,0.0758183292014771,-0.00964680791601494,0.0270220028711372,5.03927656272912,-0.000416344265464906,-0.00194161616538965,-0.00131357387261377
1.72,1.30077664562524,0.822863041290519,2.79541135380968,-0.0657268173026502,-0.0421081810602197,0.00522486488863296,0.0879904119075381,-1.34654191835485,1.73589663433363,-0.0904486125122984,-0.124585765080942,-0.0333447972180668,5.06920760208188,-0.000630276139678461,-0.00233484530048358,0.00132184251902667
1.73,1.27714321343404,0.828639022452989,2.82956200474625,-0.133855276360807,-0.090573002944014,-0.0218803598117263,0.166506131435636,-1.4726934927101,1.73167865768348,-0.101834983881402,-0.139962480427012,0.0216389345491884,4.99228785963017,0.00331433154326484,0.000534612973414798,-4.14629352779684e-06
1.74,1.34110053969955,0.801152044862207,2.85232533868767,-0.110054684918939,-0.0676598994433531,0.0270326442651765,0.158186461397816,-1.33756138106179,1.69737917451855,0.0849289639822042,-0.00770052461046535,0.0176385428122469,5.01536171825268,-0.00303659141968533,-0.00376189774218509,-0.00210994836755756
1.75,1.31196153388899,0.820606092597421,2.83886685864012,-0.0556309492791052,-0.0366357160297953,0.00966153804824251,0.155192798208128,-1.42311499920454,1.68863184425629,-0.190560245238924,-0.190804186596545,-0.0445613953662359,5.04681379604932,0.00174388162037625,-0.000682019186756262,0.00164293147774591
1.76,1.28945502586952,0.756145631305269,2.81940005602779,-0.188452625479609,-0.133842421634361,-0.0422358250417618,0.169146556386153,-1.53702110481954,1.70075289393809,-0.0190223235719953,-0.0868135291361776,0.0165106446830675,5.00276088574637,0.00434961723222418,0.000793073722666508,0.00120628931830017
1.77,1.354256793555,0.759074220492838,2.87669096223073,-0.0696703855264965,-0.0402786444319472,0.0334412574981042,0.149284483797721,-1.28893920271928,1.76671064670008,0.134235636259779,0.00799431327195099,0.0500674233086405,4.95924124542314,-0.00618140708029999,-0.00602416201359036,-0.00391820866914451
1.78,1.28703404266842,0.789424807070147,2.88593401921735,-0.0558021622152114,-0.0540466673606686,0.00416976215088886,0.176328809088892,-1.5377584590687,1.61000261479607,-0.334407220547142,-0.296560448864091,-0.100153675961782,5.0379548879951,0.00610717712207299,0.00247244782547052,0.00454407742040836
1.79,1.33388735927823,0.717533806253869,2.84132088810999,-0.216368613560806,-0.153740356914446,-0.0387699855089993,0.214699304302278,-1.51863067547493,1.71990212732329,0.176528186577784,0.0646819737900312,0.101631434673259,4.95581789335436,0.00067775025026154,-0.0019995368170096,-0.00298442681119652
1.8,1.32046580424484,0.685636425496708,2.86736280931509,-0.0367415366930913,-0.0256493172280949,0.0267450716772432,0.0757795052096961,-1.36362457886689,1.71206568615323,-0.05325093760641,-0.136410948448556,-0.0769596215823735,5.01781085558741,-0.00251955958545751,-0.00347680814110706,0.00236262923853059
1.81,1.27886769568873,0.753715522307262,2.91380571724761,-0.120533088602152,-0.0987602931760629,-0.036645220094412,0.24424523923193,-1.59176490779718,1.69106115473078,-0.177070086937384,-0.186862851106919,0.04466937492896,4.90217496684333,0.00522474276662882,0.0019091622404952,-0.000389183659507357
1.82,1.36158720033484,0.665549439317016,2.89832327005412,-0.157125206103029,-0.104196421648985,0.0204551989870042,0.175609245178885,-1.45016589068613,1.59140948124516,0.153502385844457,0.0279243743134763,-0.0024616935673335,4.99601128102384,-0.00179589421653889,-0.00330040623284061,-0.000861041701684152
1.83,1.34532451422354,0.727364237549385,2.89358905832268,-0.0115545609584619,-0.00762666115701227,0.0215402078846867,0.197683141163937,-1.41509384331907,1.70980229992154,-0.121780769826784,-0.160672296764021,-0.00196774910609246,4.97923287330163,-0.00186342322891802,-0.00318213313908219,-0.000923040391679288
1.84,1.32491918471193,0.702223570814942,2.93040158457699,-0.148288324218517,-0.110649842700978,-0.00829230005112067,0.287722141208576,-1.6525209132946,1.66746836789508,-0.147528576618402,-0.179694560336436,-0.0256862520459777,4.87795005892495,0.00620472953769783,0.00245505426943049,0.00160864049571978
1.85,1.38147471134058,0.61073550013444,2.91395897575891,-0.146129415801453,-0.107815812907747,-0.0096702563533949,0.172814794703138,-1.44437296264043,1.5786829650638,0.189331261033614,0.0503505910296131,0.0387165105784699,4.97678611475963,-0.00304863160090643,-0.00403874292096507,-0.00138176436632392
1.86,1.32050578262414,0.6752772288724,2.89829318140497,-0.0207365411826036,-0.0250363601907519,0.0143382085486906,0.180257595197931,-1.49400010654859,1.6622492898901,-0.192082951579225,-0.209962661074152,-0.0332059607953994,4.97455824758059,0.000822179615562936,-0.0014578229750138,0.000872823652978227
1.87,1.33008521910818,0.653125755086476,2.94625126045054,-0.170537265122731,-0.1265274043757,-0.0163195952981102,0.298441201423587,-1.65970494267067,1.66067387418687,-0.0342094737400633,-0.106548809824149,0.0178933370157679,4.85588387190815,0.00448901106844544,0.00116437494120805,-8.27838592765027e-05
1.88,1.35493488988102,0.546828934360985,2.91185304379031,-0.130911975911711,-0.106907190552075,-0.0193498392560677,0.131282496907679,-1.49288657757904,1.54575704066246,0.0989085476975366,-0.0272783817142956,-0.0210646458939462,4.99131419981707,-0.00108530406727309,-0.00260999376187703,0.00188997253552971
1.89,1.31069446802747,0.633030191244528,2.92042918719232,-0.0569184094105166,-0.056235619107589,-0.0101798778299946,0.210476608368733,-1.54289728813582,1.66937661185037,-0.10973585811699,-0.156663177613612,0.0378413855886823,4.89756894367868,0.000676636773505872,-0.00147385037168013,-0.00133575804401307
1.9,1.37473766969375,0.635970499804845,3.00346411574931,-0.109684906977448,-0.0776142319300323,0.0412651205941001,0.324180410233308,-1.59187059477891,1.58877182259625,-0.0106162124468584,-0.0893723109578733,-0.00510086585792431,4.85411654189149,0.00074584550370471,-0.00121348801601661,-0.00172506570381544
1.91,1.37116666542252,0.551229739069216,2.92390280242862,-0.114725439852811,-0.0959764843257328,-0.0192356722854149,0.220601109176381,-1.60142989086322,1.50552121889914,-0.0466805530406087,-0.114779607529472,-0.0503038992502473,4.97630768707251,0.00236177371577112,-0.000522148011385771,0.00326799254968115
1.92,1.32475877438437,0.533971607401151,2.89932313009813,-0.137567393380782,-0.117088025814019,-0.0478421840047149,0.209867398396904,-1.62782914143105,1.62378034513791,0.00980640131639463,-0.0941116519414546,0.0483230902250118,4.89701033591719,0.002172203990893,-0.000597718542672339,-4.78073338901687e-05
1.93,1.38181672785156,0.576195396034337,3.01249700332854,-0.0606332907002371,-0.0522520817237492,0.0474159434945215,0.276198610990135,-1.50042586928195,1.60461223466935,0.0527525010476224,-0.0538405513839529,0.0239122983187047,4.85075242766824,-0.00323923211318392,-0.00406685727604788,-0.0033774451841204
1.94,1.39537330784524,0.603325448965491,3.01096027927067,-0.0506401476716363,-0.0459236757713264,0.0339508229805884,0.345461324233846,-1.63902628196983,1.53221528672569,-0.174003955950632,-0.194643317775785,-0.0534699456702494,4.87950579910445,0.00254040653817929,-0.000128378197474249,0.000910634317159995
