time,x,y,z,roll,pitch,yaw,xdot,ydot,zdot,p,q,r,thrust,roll angle,pitch angle,yaw angle
0,4.01841953230695,1.01841953230695,0.0184195323069548,0.0184195323069548,0.0184195323069548,0.0184195323069548,0.0184195323069548,0.0184195323069548,0.0184195323069548,0.0184195323069548,0.0184195323069548,0.0184195323069548,8.98851535782129,-0.00345973146263658,0.00651056448244339,-0.00174770530115085
0.01,2.4193717654818,0.619371765481798,0.0193717654817975,0.0186049636703528,0.0188965027586851,0.0181383591206101,-0.0604367179422249,0.0969529452931248,4.13444902692559,-0.13111342734564,0.262942098668547,-0.0273328014084488,5.79559489543219,-0.000105511535864298,-0.000592000423303435,0.000442025894501721
0.02,2.63992546616858,0.70566916960662,1.68388211392163,-0.051786950450551,0.108275024332238,-0.0102288070335106,-0.0216564710866727,0.0251756764150737,0.942735880311955,-0.00253315547200382,-0.0183221173149067,0.0105003822327416,7.13375669269252,0.000509331124707873,0.001921480672742,-8.88887310030215e-06
0.03,2.65981288521864,0.683194334432597,0.418183595848097,0.0047573740781726,0.000905091859858591,0.0108258594643953,-0.255733633619606,-0.105639000268348,2.32441966427014,0.0249189367976319,0.0824758180857808,0.0050946296372938,6.96805118728987,-0.00221853307809585,0.00325589597868143,-0.000759092796897333
0.04,2.54105425079977,0.60679301024608,0.992472032075248,-0.00391008243653096,0.0217768658998846,-0.0127928841108762,-0.0448375956561879,-0.0132464214331975,2.14420027021575,-0.10242280543587,0.118420605568278,-0.0274742802750161,6.7114676009053,0.00105828449962931,0.002425731482314,0.00191100571938675
0.05,2.68107645366416,0.697770685119211,0.947168912668958,-0.00962272147132269,0.082239859841835,0.0225230016569045,-0.00923184223519602,0.0450830336015623,1.94461779793655,0.0680745486812142,0.125313781855255,0.0671911516957203,6.86018978247925,-0.00344403940702559,-0.000605908643181867,-0.00423925426740664
0.06,2.65554006174626,0.681957520419467,0.853930543228588,0.0277541981165698,0.0531053406194569,0.025600020479977,-0.191120102813783,-0.0234822901706123,2.09457363943189,-0.142890934903204,-0.016342024462889,-0.0894945140712981,6.8109711483789,0.000353370973586551,0.0036160857849176,0.00302160699735406
0.07,2.62083482606864,0.694271228268622,0.976253667154571,-0.0228188251127287,0.0310600464308268,0.000714272506175714,-0.0841553841127799,0.104879006172288,2.08809686895912,0.0399432693229699,0.175590119042366,0.091878108545668,6.75408465995581,-0.00257104704442867,0.00018899163409036,-0.00437699359907802
0.08,2.62837584604654,0.710961103015428,0.946780543907174,0.0194757158468213,0.0778546038274463,0.0388044170569676,-0.0931776047317536,-0.0348176688539089,2.02196186564779,-0.107273099491746,0.0187869716488299,-0.0894359758521637,6.79515892750513,-0.000292671782780322,0.00181344563491159,0.00239598996463842
0.09,2.64091807203523,0.670188651906533,0.941396877902976,-0.0272289407818666,0.0288686347792152,-0.0185927168894488,-0.170563589174952,0.0562969610576786,2.0984501590948,-0.0014551372495642,0.0925470483908471,0.0636452997593247,6.75231789703128,-0.00114522840144312,0.00202813470809212,-0.00213198899502542
0.1,2.55759765098329,0.657622249192717,0.950163107545039,-0.0311496920125917,0.0143938829939589,-0.00213699138896938,-0.157911400641296,-0.0962362599082098,2.02874426309342,-0.0745224419458679,0.0626967616552093,-0.0689885833094636,6.80954809224461,0.00169798865978188,0.00320787959272073,0.0033748945851221
0.11,2.58416236013212,0.61574933846795,0.938875718958322,-0.0440022866661741,0.0163377655438795,-0.0386229886253076,-0.11066226167391,-0.0858814536190204,2.11723940574271,0.0544718671231304,0.122821093774003,0.0596998861468063,6.7475520817216,-0.000946473609244683,0.00186325825707684,-0.000994750473651905
0.12,2.64227377250509,0.659165495520558,1.02036618366805,0.042772819866331,0.0782976963781512,0.0460020750904213,-0.0565336442994211,-0.0477639040001382,2.10759113450894,-0.0250893561256062,0.102342038787753,-0.0020085445081972,6.68789602232483,-0.00353560960116335,-0.000355040368408812,-0.0020827273113013
0.13,2.61973197401921,0.630210995114294,0.994707532788043,-0.0242826898449604,0.0356157106287746,-0.0151334106538194,-0.227601237332547,0.0353744787208721,2.04198722453023,-0.157923445295698,-0.0139254985057655,-0.0551139700133441,6.74398463350579,0.00271775736415949,0.00384697149537356,0.00333257133440444
0.14,2.5781995863726,0.694707341908609,1.01511402486383,-0.0541971239131918,0.0111424888378867,-0.00806463730965248,-0.121978585872064,-0.0330853339676658,2.12745938861229,0.114079462741484,0.16974336347908,0.0790349009966432,6.68465597901039,-0.00264331119276463,0.00072200586735554,-0.00335201550178795
0.15,2.59899219449678,0.643509607850052,1.03658871105191,0.0358620500090366,0.0673374669366933,0.0216557299967963,-0.111903448966602,-0.116563218850213,2.07286186044653,-0.120660689841468,0.0353332143973696,-0.0776451215617684,6.69612135958445,-0.0006107768150608,0.00150287789064265,0.00264514536034364
0.16,2.60959958727798,0.616062088914457,1.027103902037,-0.053168230261483,0.0196014340878576,-0.0329066383355379,-0.203451939821458,0.0356505066381073,2.10895720483274,-0.0319171518421544,0.0701093303029789,0.0531541320599098,6.67191443095041,0.000722168598011809,0.00252298098353198,-0.000953594783810021
0.17,2.5443565186212,0.652889252282572,1.04015794752432,-0.0428306864896223,0.0112104691670949,-0.00302558686115403,-0.169586876771049,-0.145586223278858,2.078357273431,0.0015082221336146,0.0881022895473373,-0.0421709967172935,6.69310826105485,0.000154458898918122,0.00241166179434275,0.00214428132106422
0.18,2.56267485456084,0.581796085682079,1.0353689109398,-0.0262113738215721,0.01995249540394,-0.0406868272199509,-0.153056139221395,-0.133849779205349,2.1173183058786,-0.0182716962331214,0.0867441137671855,0.0248671329232745,6.66178687090097,-6.62616261515078e-05,0.00210542974379748,0.000748624609920189
0.19,2.61600237641882,0.633790904582226,1.10341377247698,0.0075668772515347,0.0627693251585907,0.0285450820251247,-0.098501948225063,-0.0371664431799015,2.1391780892893,0.00643472233300719,0.111193269160359,0.0312373259821397,6.58931407323138,-0.00305537890612823,-0.000294810068772175,-0.0028290442586249
0.2,2.61067045924191,0.646167168589198,1.1065335572915,-0.00164713084972998,0.0531515501305396,0.00958871622489338,-0.196631069511352,-0.0231757761922569,2.07009713851169,-0.131418168251271,0.00262765659267683,-0.0611279258711706,6.63448316747434,0.000711409308632755,0.00248011309985451,0.00243725133979268
0.21,2.55520432475118,0.638595516373572,1.08608097304951,-0.0709653072759464,-0.00447390259244535,-0.0376412354882069,-0.215293703054803,-0.0582792297481375,2.11786659752892,0.0095030044594349,0.100615726677556,0.0385689120140004,6.62693545503,0.000704422581964312,0.00245383091139676,-3.62205655281084e-05
0.22,2.54955561551776,0.626197508991812,1.11659018563067,-0.0155281427429711,0.0366215486426518,0.00157574964178425,-0.134711828919784,-0.164782761575633,2.13376223577822,0.00923566154583624,0.0987871478589283,-0.0130836181030172,6.57701469324238,-0.00155059940605566,0.000916322448565693,0.000544144919850126
0.23,2.61670465823462,0.616039725834936,1.15677870023214,0.0159035436313062,0.0674232105530322,0.00986775868525426,-0.139661857006314,-0.0352703884975802,2.12012042138648,-0.0555017442429906,0.0657277041014536,0.0249833464186571,6.5623923430299,-0.00212758897765447,0.000333638684779713,-0.00165476680600915
0.24,2.59022483076555,0.645889658042881,1.15287406087677,-0.0278303053181142,0.0366863343300829,0.00810092305574516,-0.217661626399584,-0.0211537396436376,2.11150343401252,-0.0947938031712168,0.0286433558435813,-0.0362258655697395,6.56215823487699,0.000763025851047627,0.00233110908595763,0.0013312296885755
0.25,2.57079655050516,0.666153215748318,1.17921664702804,-0.0328376059560785,0.0329832931699932,-0.00367425344016869,-0.162419068679559,-0.0633246309434972,2.13310262954052,0.0317816186482889,0.116329955482264,0.0360551629322135,6.52934652395454,-0.00208752894643711,0.000425822533830423,-0.00153256053912989
0.26,2.58968786785932,0.644054040884231,1.19303237703503,0.0153094161177634,0.0661185604099481,0.0203994346463181,-0.164514124439274,-0.0755852484359306,2.11464581636404,-0.0872910961104738,0.041042770000333,-0.0265919578109236,6.53385267262758,-0.0013539914726917,0.000714338583577614,0.000287618226245961
0.27,2.5959335997576,0.646606401724191,1.2046443121587,-0.0259111982513425,0.0438884231549515,0.0031990510598389,-0.202384973845928,-0.00475853752867808,2.14475962625405,-0.0511154527811889,0.0582186421108883,0.0176216011789383,6.49478536787939,-0.000738320696224432,0.00121092454293549,-0.000988474452253923
0.28,2.5702472324172,0.668103637811186,1.22844098628311,-0.0187048629372839,0.0440219471371332,0.0145864249842486,-0.189078148231068,-0.0670461564765665,2.11222989572785,-0.0329116458839562,0.0714534835426248,-0.0151427723090609,6.50304988803573,-0.00132982125566732,0.000792629103971203,2.35231791960872e-05
0.29,2.53956325095037,0.605474888192706,1.19154313516294,-0.0444477422503105,0.0168597478637957,-0.0316561936544982,-0.24991797354129,-0.116579426779376,2.10646085026249,-0.08394116127803,0.0287344997003366,-0.0213300834127263,6.52967742400651,0.00164426521769427,0.00269650029435165,0.00251036795997841
0.3,2.553932832667,0.625140410306398,1.23447987412086,-0.0326077008278486,0.0321512615332359,-0.000126515469281455,-0.167856668541233,-0.0971649980379716,2.17927572006601,0.0634130400225155,0.130082157880094,0.0588029163141811,6.44320867890498,-0.00292290597758004,-0.00021164939972765,-0.002776109657022
0.31,2.59895078161705,0.644234434371284,1.28560306168877,0.0410309647017369,0.0866456537413716,0.0426554888235159,-0.161255038201915,-0.0609106422938351,2.11965164121862,-0.11256815966914,0.030930755880702,-0.0415558912499063,6.47101142875937,-0.00229714487348329,-0.000291625019729639,-5.70828828383175e-05
0.32,2.59019741399365,0.648836218892386,1.26977865637645,-0.0380210867964322,0.0415441597123354,-0.00417544436130944,-0.247836239917817,0.0074773066301958,2.1681827715546,-0.0916843193857777,0.0213668691170921,0.00964645749230445,6.41690471775175,0.000450418161022336,0.00183993325449435,-0.000261803334249627
0.33,2.48675492714029,0.614436790591611,1.25305545620785,-0.0892578587337195,-0.0215950490888225,-0.0396343702484665,-0.297561156367649,-0.176010726050473,2.06530248576447,-0.0302254446905052,0.0540266174773206,-0.0438720370129388,6.52454250558863,0.00260173521077351,0.0032114353666001,0.00396616851837505
0.34,2.51887387964994,0.587591095367387,1.25774661436405,-0.0239409999027052,0.0307982044372113,-0.0213556286572664,-0.164452149721175,-0.184274359410789,2.23905291778306,0.091343874126167,0.14148566244041,0.0794311214620783,6.36910751985565,-0.00372767683964259,-0.000715417012492488,-0.00274814060232036
0.35,2.5675783603906,0.57743863926133,1.32677117846061,0.0239966345100867,0.0646439140756426,0.0231783512059665,-0.220343889348196,-0.108200175681602,2.08092285087458,-0.169208839618476,-0.00948671462376136,-0.0636843136232697,6.45675481717794,8.91301339429415e-05,0.00130984375406087,0.00191087664540188
0.36,2.55583875883022,0.62245110706131,1.29711817275907,-0.0690827714912499,0.0180175691250525,-0.0188811644036483,-0.245413912390034,-0.0399647603925763,2.20004979907601,-0.00264459170155949,0.0801032611585905,0.0452383524247305,6.36502565115424,-0.000218066405528206,0.00117360229674083,-0.00124688039187808
0.37,2.52430885457992,0.632347206123976,1.3479760076864,-0.0189583025607067,0.0387391899729392,0.0086239480430108,-0.225084415834929,-0.161813202615245,2.11039519937314,-0.0291513344492169,0.0595057899590603,-0.0347484846602999,6.39964575888412,-0.00140409925086817,0.000652751523287453,0.00123236817016849
0.38,2.54554529253364,0.592052739552679,1.32853261986079,-0.0197567313681508,0.0409345924989529,-0.0145093383303257,-0.23219112467042,-0.102290183479178,2.16143411390686,-0.0679626702582429,0.0482422445498851,0.0258756977630461,6.37263715797006,-0.000666696439147558,0.000815625809914647,-0.000544167178140727
0.39,2.57365076761896,0.649910583678582,1.39443130107403,-0.00521235163499993,0.0667615734213945,0.0403025992301945,-0.186929472048211,-0.052916820390693,2.17616490094327,-0.0144007244208015,0.079295588244475,0.0137310728582261,6.31884681139536,-0.00314443510892526,-0.00107363693517129,-0.00255791313287776
0.4,2.57121061512573,0.650079236882202,1.3993948465189,0.00191924393918877,0.0651591062317701,0.0197431399028618,-0.237710613529419,-0.0674577097924076,2.12724190518595,-0.127288339388537,-0.00518022704708934,-0.0413173309233245,6.35398492267384,-0.000676980584841533,0.000942464608616557,0.00101405014091863
0.41,2.53769897882604,0.63363704825049,1.38758118774416,-0.0551064338961238,0.0207508608854937,-0.0113413763228806,-0.264800845637753,-0.0784135845259294,2.16650807962641,-0.0367454174137651,0.0648801009079852,0.0250908756533036,6.31704798291859,-0.000209182522466701,0.00106145892647051,-0.000653482819467455
0.42,2.50181227191546,0.605257329396598,1.39268631662122,-0.0419650970910761,0.0264309580906116,-0.00705328357471956,-0.26668814587943,-0.168114621447325,2.12371658634375,-0.0371790878556182,0.049486747897149,-0.0290492908629327,6.34142087312965,-0.000311653526779507,0.000987913187581896,0.00170560335758228
0.43,2.5221444613869,0.587048554496646,1.39682543066891,-0.0259435875380186,0.0367876108616349,-0.0130005714501029,-0.247594913836098,-0.135761347262749,2.17443247077493,-0.027217473408375,0.0611175498605934,0.0345603489635423,6.30069734869906,-0.00153454213403837,0.000295682099852274,-0.00102612644101607
0.44,2.53098637335519,0.602672531242266,1.43478031681964,-0.0180177366729763,0.0456085923189403,0.0160673313328948,-0.251717532509784,-0.117268375925536,2.14985650433507,-0.0747793033935845,0.0374533831229638,-0.019836660970866,6.29417896822999,-0.000929804532991947,0.000434285619642243,0.000173232461728954
0.45,2.51207464221204,0.594731649159334,1.4260459483111,-0.0508760885491787,0.023366801577289,-0.0186459214113575,-0.28518382560672,-0.136455286786473,2.14549906131323,-0.0610029041245077,0.0326467565725518,-0.00563327485386097,6.29315682902625,0.00036871513187707,0.00135902581114469,0.00114571321245664
0.46,2.50287235039664,0.592664930752322,1.44322823990826,-0.0415636550500337,0.0256878019562133,-0.00820760577719252,-0.265245197978684,-0.158714687012039,2.16430145342293,-0.0052136550894841,0.0717872086298782,0.0186029560668095,6.26575125130535,-0.00143453621106333,0.000274263195600758,-0.000496041550013325
0.47,2.52564910268281,0.597333639905711,1.47460140233487,-0.0049899943545811,0.0559562393863542,0.01468620307897,-0.244801636819436,-0.131529209546744,2.16157846356922,-0.0671458357942196,0.0418928000977514,-0.00426508759575821,6.25462557402966,-0.00184861495138727,-0.000332270120567076,-0.000497987534171678
0.48,2.55482206335359,0.630543293425059,1.50806817109594,-0.0085574759049144,0.0661678755404906,0.0264988295192895,-0.234034077188961,-0.0720513531946445,2.18327538617481,-0.0661168054760022,0.0363916614577578,0.0136827734598838,6.21496532230679,-0.002177507390689,-0.00061049044054327,-0.00190551188684816
0.49,2.46942053505986,0.56859345329182,1.45878903426458,-0.0844581324470552,-0.0119033517416412,-0.0411565979150144,-0.374325192289449,-0.201489796456948,2.0902640779582,-0.143306307018847,-0.0375658426677425,-0.0797052741028237,6.30307171634268,0.00442314123052745,0.00378609924259773,0.00573467020061883
0.5,2.4477329077674,0.551906518376127,1.46342808638875,-0.0887607526959959,-0.0190171333428671,-0.0510015141768555,-0.2824688765681,-0.223854913464994,2.22638160030738,0.144705911912422,0.157569868562446,0.103898390276556,6.19442850182566,-0.00264147117648263,-0.000378671850621538,-0.00250040727956493
0.51,2.52999619088234,0.584059823373282,1.558561218897,0.0686116791161022,0.102631184689003,0.0613561885394045,-0.208863898056618,-0.155553178242984,2.17119100749363,-0.109978347128075,0.0333468688549549,-0.0353952485302768,6.2276020214227,-0.00420136873018785,-0.00271336659725834,-0.00121225203774322
0.52,2.54207575754207,0.594599508021799,1.5375046188701,-0.0456434358105504,0.0458620008706912,-0.00663655049695524,-0.311864137571823,-0.0762016783654348,2.21960526544009,-0.177687129377541,-0.0692516089146282,-0.0167828770424719,6.13887759455306,0.00215778801359545,0.00254924304023902,0.00110751019144022
0.53,2.47625946156755,0.615204529857049,1.57558219532932,-0.0893991497731492,-0.0127299484639007,-0.0108792977609733,-0.302178059091862,-0.168467290406235,2.10188098299744,0.0653231801794709,0.12024292160164,0.0187700131592246,6.20810670639136,-0.00139497480968589,0.000267497077132297,-0.000372266801628368
0.54,2.49848942209643,0.587956204078041,1.54615530459831,0.0211102192294944,0.0769652239303171,0.0146816663704712,-0.250029350477793,-0.185287702437319,2.20992579013525,-0.0681239700881746,0.0429820369245945,-0.00166416322650666,6.16122307395422,-0.00321762208447283,-0.00188498482024618,-0.000611768527145028
0.55,2.48957529213464,0.548783117773651,1.5631834980221,-0.059156013105875,0.0201151784150707,-0.0208889198542182,-0.348615329039685,-0.166708779643,2.14340400329951,-0.164005232482811,-0.0625641378125947,-0.0287616178290481,6.1685246060845,0.00296186864529052,0.00302271844958909,0.0023531176627116
0.56,2.44587272454897,0.561269123076565,1.5651963395162,-0.0988181936155338,-0.0241041102012619,-0.0296453521955511,-0.324040004927919,-0.214531849905108,2.15760689508914,0.0848983617826621,0.127966935478326,0.0334780823189076,6.1602421443886,-0.00120280241018155,0.000198335850907983,-0.000179241268617046
0.57,2.48512831561386,0.566070666536901,1.60003231094297,0.0263305622790009,0.0787536291055253,0.0189911648890031,-0.258833121589135,-0.203154337487376,2.2034823396056,-0.0630605779778887,0.0397175744732699,0.00118892660857754,6.12492750502705,-0.00362143771929888,-0.0021587649636917,-0.000946793008449411
0.58,2.53329724569992,0.59176755370432,1.64559043587559,-0.0105595421708558,0.0666824170648529,0.0267994504186339,-0.27281419575476,-0.105091173127984,2.18729281917354,-0.141902937694513,-0.0337166193782918,0.00386294952238593,6.0921677052045,-0.00062717556801234,0.000439016082564171,-0.00145421372651087
0.59,2.50297473667123,0.615939741219545,1.65569702036573,-0.057595009792903,0.0226699896158403,0.0153917696290379,-0.29702031530319,-0.144945493322298,2.1462143083689,-0.0333705467800077,0.0540047941868819,-0.0193155843463935,6.09696061726788,-0.00105201254888481,0.000103354512468921,0.000181297645784363
0.6,2.46756815024996,0.572224481558806,1.62750134430391,-0.0383061639125169,0.034259180058509,-0.0176257872783068,-0.3230564643172,-0.208461305009903,2.14201947135623,-0.0704820757662883,0.0219332100527625,-0.00461381864484619,6.11513535845741,-0.000617005727182974,2.38944104136326e-05,0.00104708192540517
0.61,2.48976071114555,0.576116261932349,1.65675824476612,-0.0271364683231796,0.0479260435827904,0.0143110614384186,-0.28801763924296,-0.161222109201821,2.19235015734097,-0.0315458292274038,0.0405674655658774,0.0359000004798489,6.06039547137102,-0.00244044011491578,-0.000973739498515567,-0.00237774669788363
0.62,2.47469127426781,0.568087609143942,1.67029486777162,-0.032864779545737,0.0336805461449628,0.00893476739369179,-0.331318797339034,-0.195155962978213,2.12977843906097,-0.124385142157765,-0.0163927021924588,-0.0547841751109916,6.09389775307123,0.000294645271950358,0.000903974302672378,0.00216554629883136
0.63,2.44704033931391,0.546092085220719,1.65177577673037,-0.0799483653954351,0.00174951273340784,-0.0355347028210751,-0.346855730519256,-0.216643140378967,2.16638720455929,-0.0213531928536644,0.0511820605332836,0.0339334216602117,6.06196453505787,6.16112312917064e-05,0.000451165161589251,7.14599748967547e-05
0.64,2.44658197967483,0.543126614457172,1.68143979417745,-0.0336656848083131,0.0348481014197241,0.00539655220426728,-0.328783113579626,-0.23025848003814,2.16178887305295,-0.0265364438930313,0.035876780440807,-0.00575492416144954,6.05111944773716,-0.00200370250902469,-0.000685159113224886,1.50582819236396e-05
0.65,2.4487677708568,0.530899874744394,1.68475914849937,-0.0391985797149352,0.0258286236112017,-0.0144655738967965,-0.346123034791357,-0.224757159847857,2.14816164323049,-0.112669091147929,-0.0103365242694174,-0.00959781373367601,6.05622994649272,0.000348299416198244,0.000811256231328968,0.00113375008755034
0.66,2.44728383998747,0.542419466112884,1.70491126156699,-0.0666222895644957,0.0147838487538294,-0.00779835556699588,-0.334146995644035,-0.217588693086233,2.17186355869997,-0.0114498247823183,0.054161950100817,0.0206128281063119,6.01307336076727,-0.00104611402300208,-0.000310206702188781,-0.000609990359022718
0.67,2.46589861732999,0.559424107045089,1.7402273550344,-0.0114199302853468,0.0555096688834833,0.0185792264057608,-0.30804820358652,-0.204720811258913,2.15847563062762,-0.0563515592210821,0.022643047301273,-0.00409961408792634,6.01944044012083,-0.00268711444966991,-0.00138896789048121,-0.00068171179384828
0.68,2.43894573612728,0.526538045790458,1.71552705585402,-0.0607552798887901,0.0123403353624517,-0.0226898021927111,-0.374245640273489,-0.24636329434763,2.14327102115093,-0.148752097556638,-0.044708541703621,-0.0314603500125018,6.02156042263569,0.0022173582403477,0.00194807837179126,0.00256142128747806
0.69,2.44167028366135,0.54386958707563,1.75660033190701,-0.0714932980214236,0.0113383326710413,-0.00576994218562137,-0.322372734144302,-0.218007061649338,2.18376163186373,0.071984048071807,0.107566983576669,0.0598316142666881,5.95833822230639,-0.00309309702900743,-0.00170784088796397,-0.00255734072175866
0.7,2.47593471719711,0.565958429244025,1.79286971201774,0.0329206412272823,0.0869687055441546,0.0447141676518093,-0.297935327224215,-0.198410339822756,2.14736409170612,-0.133085883881827,-0.0210573904393252,-0.0363816406817542,6.02043376173422,-0.00302792682624068,-0.00202402074613322,-0.000372865173213669
0.71,2.46146460600341,0.550044256043021,1.77249715258008,-0.0701180108515441,0.0185738353350349,-0.0137627279585559,-0.353882057884236,-0.212655581643246,2.21109867237048,-0.145056541767258,-0.0493737977311805,-0.00584891582584516,5.91747102144523,0.00198800125971712,0.00185044520127762,0.000926650910688315
0.72,2.44697423264145,0.561026989246241,1.83520465344136,-0.0647733012494591,0.0167972400232023,0.0110047829287361,-0.323946370926759,-0.212507536688051,2.11893485593504,0.0668721473128115,0.107497148563025,0.0304813384870595,5.94986799039771,-0.00357542395896377,-0.00211628994852705,-0.00195967998976285
0.73,2.44356464965978,0.538448533047877,1.78530132988262,0.00655125099549878,0.0653905790359716,0.010330555624414,-0.349722818200618,-0.24553834559077,2.14720065805571,-0.171728856540218,-0.0573785226094096,-0.0427894849072139,5.99134594565772,-0.00079512531202837,-0.000429106260939974,0.00154450700339394
0.74,2.47649025047571,0.569886787918801,1.84803932232645,-0.0516148063079816,0.0392744455006945,0.0192749506646712,-0.296880649551172,-0.174032348944737,2.23334725021016,-0.0263857586561203,0.0408401973124995,0.0642352108909597,5.85018187696075,-0.00231775140589172,-0.00135601591497209,-0.00395132137212088
0.75,2.46618903291308,0.572805736052591,1.88277598104227,-0.012981554872131,0.0568314112866592,0.0424660017089516,-0.328136830914932,-0.212253861813411,2.08125694422568,-0.107079708999086,-0.0142366867652721,-0.0698099216963601,5.9631344386043,-0.00188665972053521,-0.00106383451076571,0.00130173523675657
0.76,2.39758309053203,0.498045503712644,1.77905139423188,-0.0991453145988582,-0.0161035230236278,-0.0630865360854834,-0.427228296098361,-0.303611152777918,2.15647570691473,-0.133107368553205,-0.0431155435903779,-0.00203818125334658,5.93044054393654,0.00352509691043799,0.00222834113617771,0.00308381166913205
0.77,2.39968735218921,0.506173493132145,1.86014512990534,-0.0747577299852679,0.00662465722745944,-0.000179718230021812,-0.362868149851568,-0.26028531981975,2.18585824676369,0.1161909340767,0.110524703989831,0.0654301898875935,5.85482071821309,-0.00426104063772172,-0.00242897650988178,-0.00308102814250384
0.78,2.38323307205764,0.476646913033771,1.83756737120349,-0.00852239237806152,0.0328268708896329,-0.00837949475395067,-0.421288960091535,-0.320346769180438,2.07511807943272,-0.229732813234356,-0.0978346258097754,-0.0944476394913698,5.9804775564885,0.00167825483138923,0.00127915066109297,0.00487088865388416
0.79,2.41979327564805,0.515940193505243,1.86314590557388,-0.0952043260223471,0.00263842584337848,-0.0193706204165688,-0.337944127730156,-0.234913376461793,2.24994078921421,0.0546793205382627,0.0944272741531422,0.119111488658157,5.79149510764483,-0.00212729277483822,-0.00172294160791671,-0.00472039615290587
0.8,2.43108117742404,0.531718224198546,1.93624339557895,0.0086670340961156,0.0676825636032451,0.0552976900331497,-0.356385984486832,-0.25288143781848,2.07682844631657,-0.111295102571975,-0.0352151695914386,-0.0941548505191574,5.92818798731139,-0.00274102066953463,-0.00168392128475218,0.00186152883586861
0.81,2.42867707205171,0.52655973219593,1.88285265112648,-0.0570557197004356,0.0233395219463803,-0.0270163814277237,-0.355820911855726,-0.257226481914166,2.2157588811237,-0.130159022860929,-0.0292695587852601,0.0489987572938024,5.80797436063822,0.000559936166572104,0.000409254875038989,-0.0010433322656298
0.82,2.42861361975191,0.531534887246088,1.96596216740775,-0.0594097554605943,0.0288776443102504,0.0355560052216842,-0.349129274227157,-0.2474222453198,2.10580416507348,0.0072582400874267,0.0502445876890351,-0.00878748404847867,5.83709668048989,-0.00278855518778317,-0.00198229308732303,-0.00125963804840374
0.83,2.44923325462646,0.549640070029479,1.94436171446319,0.0118228654953008,0.0777888452635066,0.0289609683681358,-0.324604510707917,-0.22693260696967,2.15985636668617,-0.115149897758132,-0.0266702109729161,0.000269673125969087,5.85781523265114,-0.00325012943530697,-0.00236969257156171,-0.00135274684550268
0.84,2.41150644122037,0.510866244811463,1.93989307135007,-0.0769691817014994,0.00727310828357748,-0.00764452976508432,-0.394514446857186,-0.30026422861122,2.15981376108947,-0.16788482603022,-0.0749914792906455,-0.0347599560754318,5.7928138258971,0.00255871649337506,0.00186328272396652,0.00200875896575986
0.85,2.38692458407017,0.49084401797141,1.96526104657973,-0.0952842642286321,-0.00988900932214211,-0.0168710664178437,-0.396068601085895,-0.289043945892811,2.10708026573268,0.0696874601433093,0.0929066823661616,0.0393949534413629,5.812345351196,-0.00252589520402218,-0.00181746573267305,-0.00106458375209158
0.86,2.40272018137407,0.506119482759259,1.95875507359475,0.0148867884284795,0.072263103672813,0.0274176942079506,-0.374295038955534,-0.274126880703249,2.15809077548169,-0.12508895626225,-0.0384226067659677,-0.0137211425649596,5.8373303018328,-0.002957921632222,-0.00239835317800699,-0.00061331533090937
0.87,2.41557107288412,0.51664311594334,1.99591189001881,-0.0578450776122399,0.0272270774405342,0.010947255080315,-0.358019674631696,-0.279155147626251,2.1871581740428,-0.136715621812698,-0.0563819446438145,0.00143566784266407,5.73215067771052,0.000473386995475129,0.000500448555506884,-0.00058352177729079
0.88,2.37144114770523,0.471834411485058,1.99431907984453,-0.102829865549453,-0.0201844080943219,-0.0208789271446741,-0.431688031421216,-0.334300205252782,2.04871046749075,-0.0314093892402111,0.0222396807776969,-0.0312093558953754,5.82434289685606,0.000463157429117704,7.571786699663e-05,0.00246217920142885
0.89,2.35798637259385,0.461082884500316,1.95535112673212,-0.0502227885207086,0.021827815477307,-0.0229269746655527,-0.42150833623356,-0.327058546862755,2.1817526757687,-0.0222709573231297,0.0149517194925459,0.0425832114032203,5.75687261927012,-0.00236038249207683,-0.00181580529922155,-0.000923159501419567
0.9,2.37217442771684,0.473041034268085,2.02410285456328,-0.034763102780156,0.0299878003123878,0.0173201360609633,-0.39680268269298,-0.317329876581011,2.10877255248887,-0.128300873534726,-0.0500185448093278,-0.019709153180162,5.77461740950422,-0.00057648458982081,-0.000396467009205878,0.000121758202663698
0.91,2.32362191585244,0.421873705902894,1.96638090295406,-0.126513009930333,-0.0438601421344042,-0.0553490794832073,-0.478578398165152,-0.405492416851743,2.09083319736642,-0.0968751591888846,-0.0333080324312243,-0.0376104043259014,5.79325496140681,0.00367455677810562,0.00176283492825432,0.004402142649379
0.92,2.36980660395024,0.466980424823675,2.04237602900912,-0.0451659848579989,0.0307523704794401,0.00623870141809218,-0.37488966249621,-0.286437418934889,2.22584401918514,0.134248941051298,0.106922164722598,0.111267624512068,5.65924772807961,-0.00679825725101282,-0.00488255351921794,-0.00552206831540223
0.93,2.35725437420805,0.457324832783712,2.05638022822113,0.00994821258468287,0.0427539358644614,0.0255991038329886,-0.427382438884398,-0.370729254794454,2.01627904405179,-0.32775461408433,-0.182673009337656,-0.133890697852859,5.8435916952327,0.00262714051854399,0.00181141837914056,0.0051519393769955
0.94,2.38144208356456,0.474181967131692,2.03883199734614,-0.13798681997309,-0.0314308664943885,-0.0332912535500526,-0.36580755928951,-0.32029959485206,2.24963462458884,0.0848299555430513,0.117614982905792,0.126516909213925,5.60429498431971,-0.0013999254418613,-0.00195395809471821,-0.00441142649804129
0.95,2.35834718333812,0.448993401992679,2.10752639886979,-0.00814314130328735,0.0544838043026454,0.0369721347372487,-0.443084141573962,-0.339928802118788,2.02954515459331,-0.107078500351632,-0.0673102908535079,-0.106486890638728,5.78704882701906,-0.00242198496010935,-0.00178295672855278,0.00332094578222452
0.96,2.36017484800644,0.469454163398276,2.05155117553826,-0.0622871968718771,0.00939143114730286,-0.0317341652932205,-0.379310611204206,-0.348107422489795,2.19790899759454,-0.124206467200326,-0.0377709376800013,0.0798338060963719,5.64495681437983,0.000250208073129756,-1.79157941759282e-05,-0.00227459195828397
0.97,2.38200158792624,0.468405550860062,2.14734197137502,-0.0641747584176919,0.023602206905745,0.0467215567985847,-0.385485102317984,-0.325157357247272,2.06866740047907,-0.0118998693578439,0.0268524036246862,-0.0357335439376635,5.68332474502791,-0.00253495408416018,-0.002416729995076,-0.000504597278190717
0.98,2.35723922151842,0.452638519785661,2.08146918273329,-0.0395857537807956,0.0309888293051078,-0.0181919236762219,-0.415780182815958,-0.365171710270565,2.09719414591731,-0.140965581090667,-0.0788749144960227,-0.0142287639483929,5.7124064826899,-0.000305913183194808,-0.000347402089236788,0.00154570508451796
0.99,2.35985049889991,0.452217590141017,2.12251269866004,-0.0774188721901523,0.00160240980200281,0.00370156306992016,-0.392228273089918,-0.356773041710882,2.14241992302032,-0.0401047407661667,0.012428844135935,0.0409495680334551,5.62318866917727,-0.00120206382302719,-0.00123802188236269,-0.00210857054543901
1,2.35044090704757,0.438253277632947,2.14111730173898,-0.0498567506307639,0.0251161654870625,0.0136300489568111,-0.425248995499565,-0.366573843110899,2.05858514330085,-0.0876909611751605,-0.0342892641293348,-0.0474170820656828,5.68947067609955,-0.00121202790797598,-0.00143149471150241,0.00161263151293406
1.01,2.35113254975916,0.44735386189589,2.12786770745037,-0.0576010020674794,0.0194341306812948,-0.00969747493124173,-0.397212753604038,-0.365225168766159,2.13511145489997,-0.0777330061357864,-0.0297051357933235,0.0421843177346883,5.62804811663509,-0.00125684276665585,-0.00120893332035274,-0.00152707107499803
1.02,2.32301310008415,0.410121552946451,2.14371690578884,-0.0843751301908065,-0.0104685943162487,-0.00449884031705258,-0.451955928842301,-0.417693808927073,2.05398303693312,-0.105779745006908,-0.0498278172042279,-0.050498415402935,5.66142711646368,0.00108619754200307,0.000286164735369193,0.00260469082531384
1.03,2.30944614661885,0.397800329398471,2.13022133600857,-0.0897230326123061,-0.0125517209871647,-0.0349091479639506,-0.452895852309139,-0.406039827554445,2.11293081977367,-0.00603833827713617,0.0164807245468003,0.0429821935216067,5.61889110469223,-0.00126981111499396,-0.00148774269426373,-0.000380295411358443
1.04,2.35114913932673,0.444549237191831,2.2013231342179,-0.00845460957625871,0.0548700624933063,0.0436896639351822,-0.385537531906843,-0.339944442273565,2.11555923455782,-0.0675561885183868,-0.0206610926084215,0.0137518648922111,5.624788868495,-0.00394306633920483,-0.00352506946787942,-0.00266591489511512
1.05,2.32847572303912,0.421552471362218,2.17658797479224,-0.0723241287139414,0.00157267254881477,-0.00739471278516066,-0.42342737384672,-0.444510709938618,2.08035532470266,-0.208426097111119,-0.132432468696206,-0.067061434275652,5.60739430954757,0.00298679160651935,0.0017473275816858,0.00353304726591655
1.06,2.33082020680658,0.401411097241964,2.20260739661523,-0.113492218677662,-0.0291377671887219,-0.024154223350653,-0.422426882621384,-0.393321062332914,2.08930938477513,0.0835121296332464,0.0887848622469556,0.0778202521887407,5.57018722632365,-0.00265982378057713,-0.00258192384186006,-0.00253412591788029
1.07,2.29016031245894,0.377774462741514,2.17455620168082,-0.0299934292324113,0.0262311581198174,0.00181924121819158,-0.490848340512428,-0.441801504811714,2.05135973469186,-0.173138203164501,-0.110880067249649,-0.0793719790033153,5.65513342821953,0.000158933065859584,-0.000595666579798674,0.00369013190553952
1.08,2.28851281710466,0.384793907832946,2.19039039223443,-0.112997793529412,-0.0317643847531729,-0.0413545048985362,-0.430766344196802,-0.452263615504338,2.13169625370005,-0.0418366585724816,-0.0121494276629725,0.0713319238766894,5.53122905758764,0.000616264859509444,-0.000147728190804799,-0.0014209259249011
1.09,2.29853844571981,0.369146091181547,2.23547798681542,-0.0669398233811222,0.00208882253989237,0.0138644879522138,-0.467348730011482,-0.424979689009157,2.03974601808956,-0.0264246808197188,-0.00656252243687748,-0.0424770870676095,5.5918057601245,-0.00202342497689328,-0.00205838595746281,0.00136834446744595
1.1,2.29311926962095,0.387940604964043,2.21317504007534,-0.0524543643294701,0.0136755966267105,-0.0224499080887344,-0.43564885447076,-0.445122216399368,2.08942761002195,-0.125707157074331,-0.0710229911513022,0.0246935911786206,5.56896535107303,-0.000281721278319461,-0.000884132038044928,-9.31396377669478e-05
1.11,2.32750088138337,0.403324607219077,2.27301001672117,-0.0683031351347456,0.0106021664477257,0.0269096700992965,-0.390292711000033,-0.417643719230506,2.08937242882623,-0.0356191594903353,-0.00824871022412122,0.0133827853530891,5.51640832437538,-0.0020369676240878,-0.00208734566772027,-0.00188913786644334
1.12,2.3402260060703,0.409499438723085,2.28784147866581,-0.0325782105074025,0.0356199040126732,0.0234397665316969,-0.394284856615534,-0.411510615451877,2.04649176578981,-0.107634917502031,-0.0545045028019602,-0.0248298512341002,5.56313965977328,-0.00198584882531625,-0.00215441033511005,9.89759924786158e-05
1.13,2.34016807943382,0.413360438950712,2.28634735143382,-0.0590534842462897,0.0207322581356492,0.0106892990990088,-0.376085531526837,-0.433313908305136,2.09723661880613,-0.10339991087868,-0.0540760685433338,0.0201418026799729,5.49734502151326,-0.000900905263547825,-0.00138670604917379,-0.00144053346239596
1.14,2.3227730049476,0.381076425480595,2.3039911466283,-0.0764342469964145,0.00116445432600901,0.0099480912608639,-0.417925635708298,-0.451888883692708,2.02242583323902,-0.0757203163408809,-0.04220366958994,-0.0286329941784261,5.52987958159026,-0.000613222385051169,-0.00108166786281019,0.000894882212390049
1.15,2.31302824608123,0.379704346813659,2.29102228264725,-0.0599593946357083,0.0121250306679044,-0.00289000564759425,-0.420762692294989,-0.44001317246786,2.07309224270638,-0.0593374943242766,-0.0242819952904164,0.0262252798844261,5.50581140729835,-0.00190810671802811,-0.00225007310988896,-0.00108374030113262
1.16,2.27629930400104,0.34830998644102,2.29006099283932,-0.082522095051643,-0.0104738630569962,-0.0102033422885933,-0.46266282335417,-0.50503266965725,2.02274594570676,-0.136654805733314,-0.0957300195955578,-0.0403277622567671,5.52456902376331,0.0014885967210659,0.00024811074552984,0.00239724570692611
1.17,2.27209805377345,0.335814279860819,2.29572617189714,-0.103229624788949,-0.0287719071862942,-0.0263941515016847,-0.457212800994634,-0.481152924725184,2.0672183630706,0.00917344940777631,0.0124983393488248,0.0430783068955595,5.47437566374909,-0.00136765080261048,-0.00176110873531172,-0.000785639990246748
1.18,2.30663326848423,0.377788595600646,2.35479475084163,-0.0113264107320521,0.0476055837980268,0.0415208472941721,-0.412948055867243,-0.41788557466187,2.06520211901468,-0.0785614801806761,-0.0402516304966905,0.00309038824485941,5.50270126782762,-0.00382655025345778,-0.00394539529257529,-0.00204474357663513
1.19,2.31025776316396,0.389292741223841,2.35641951006131,-0.0546257174474747,0.0194478312847154,0.0168965635574447,-0.377520843302055,-0.496113614678422,2.06942920009901,-0.184629268103937,-0.131892201507249,-0.0297953187072879,5.44364725273806,0.000937449781533213,0.000149737521387685,0.000631566076849727
1.2,2.31161448622302,0.347252888361332,2.37373552510882,-0.10707403373376,-0.0269780340464629,-0.00553379630232795,-0.413142742345673,-0.483394571918968,2.00655801535714,-0.00046161324087203,0.0202208100726568,0.0193586938452787,5.45314735028282,-0.00119937812012239,-0.0018144372849605,-0.000648400857677989
1.21,2.26094124087236,0.313878843561204,2.32429936394228,-0.0651066561471283,0.00238995648519666,-0.015800541026807,-0.495939275713573,-0.512911459183493,2.0180345700861,-0.112815234793809,-0.084516726228725,-0.0342497349087279,5.49717983897136,-9.60983168606869e-05,-0.00124874244731862,0.00238068852540089
1.22,2.26163317501124,0.336118382863536,2.36382190493331,-0.0815399687554302,-0.0104126232666549,-0.00933401839215158,-0.426054449500735,-0.500806868607743,2.0720882353113,-0.0441773222858051,-0.036945307230823,0.0549323541584184,5.40963556712012,-0.0012933894179061,-0.00157943703383687,-0.00214559434960803
1.23,2.28470116647673,0.336341342418793,2.4032634671494,-0.0519504519742965,0.00968402934042407,0.0290757859122293,-0.433075867977144,-0.488559099924912,1.99745482806273,-0.0908939028410869,-0.0514027911707843,-0.0399143997728097,5.45778685895635,-0.00156409641501966,-0.00217225735026786,0.000540761062386657
1.24,2.26209979151894,0.321434672593763,2.36810401742901,-0.0876922428167435,-0.0112390296082764,-0.0248787435939848,-0.44484657093795,-0.545060991147951,2.02790838989712,-0.115960488446221,-0.0852519771715288,0.00426991684199384,5.42787957425803,0.000945869439909698,-0.000524830659512707,0.000980643718333859
1.25,2.27060537138123,0.31245481160971,2.40817329610721,-0.0844131846322834,-0.0121901604027073,0.00548372412569725,-0.435526065038269,-0.502377097374396,2.02572343885097,-0.0027380182421036,-0.0125897698601537,0.0247506289998014,5.40271136084235,-0.0022634332869165,-0.00235722101638253,-0.00141412460680794
1.26,2.31792193647346,0.373069566978776,2.46135628817798,0.00442154145732101,0.0596603026193164,0.0588154759727152,-0.366816625842053,-0.438187967272453,2.04363514622309,-0.0971857204034281,-0.0479604380591586,0.0099575262281894,5.43190498640649,-0.00437003149373272,-0.00477054604849704,-0.00315618324177117
1.27,2.27474313990351,0.327555150851984,2.42131234932467,-0.091493310200001,-0.0120959428928485,-0.00653654364823131,-0.409202161821092,-0.605501439514236,2.02265823245428,-0.231672046589739,-0.190454748903975,-0.0753139005417785,5.37169578323621,0.00417383081460042,0.00215502177193813,0.00388763649328842
1.28,2.23563881740988,0.240094636673354,2.41538609653351,-0.167570963928613,-0.0949686538137429,-0.0640959637184223,-0.500950874994003,-0.573684765016516,1.95273658079723,0.0908750409206603,0.0655048848285654,0.0554994044842206,5.42317146686633,-0.000151078442266874,-0.00138781856450552,0.00040253225669474
1.29,2.17719484815257,0.228325371226317,2.36803420838091,-0.0588696495014897,-0.00865434309960314,-0.0272022473863717,-0.573190269659691,-0.581237663430209,2.07678738299849,-0.0951504297255415,-0.0949850416680396,-0.0342640735275078,5.39103278472976,-0.00070335241179741,-0.00183298531067314,0.00291829642427745
1.3,2.1859074882336,0.267026278342955,2.45536189600834,-0.0987006100207401,-0.037884657714971,-0.0297228597473501,-0.461183619277409,-0.598496402197023,1.98625673061528,-0.0883942653665853,-0.0811332175259243,0.0495370029266239,5.36569014431466,0.000887143616742989,-0.000189424379527317,-0.000936142016868573
1.31,2.22578513152477,0.253188113719708,2.44238958357875,-0.0942896110355067,-0.0302841806401223,0.00588234173595853,-0.47877038384711,-0.570679094631631,1.9863968694112,-0.0206340914346177,-0.0194343212376696,-0.0306118807966583,5.37447437463717,-0.00115640432724388,-0.00212151137154552,0.00117886584624102
1.32,2.20476199865544,0.250527033759005,2.44109242130613,-0.0774317263311504,-0.0158234343695698,-0.0348002439516007,-0.487317082818338,-0.601742782287197,1.98679329837931,-0.112376667790634,-0.100560911804778,0.00646238731111139,5.37939598533861,0.000459605252350737,-0.000970405994914569,0.0013461659671991
1.33,2.26608461667954,0.30388309590764,2.51515510047,-0.0532479785758089,0.0118366278355195,0.0392123404720802,-0.371768218743542,-0.519411972961112,2.03899173138608,0.00440496221679031,-0.00718335399943779,0.0608908671190118,5.30098506753077,-0.00412380664464049,-0.00413217408459545,-0.00468734973276844
1.34,2.28102030597022,0.304132001175783,2.53068075561642,-0.0250785441081979,0.0275884277270217,0.0433788701606782,-0.384416564710834,-0.576273735045097,1.93777360901965,-0.199485701774993,-0.146648342127137,-0.0841539548783507,5.38102387823297,-0.000126063074387684,-0.00117786119285442,0.00197220020284996
1.35,2.26893965284348,0.273875522437725,2.50012813952434,-0.116019814978134,-0.0339095043216844,-0.0235090933918119,-0.382277656972996,-0.617245933073655,2.0169466507719,-0.0459483651028481,-0.0331954411709319,0.0518167420836446,5.27325907263645,0.000339742469710911,-0.0012445343873114,-0.00133837967318454
1.36,2.26277281956882,0.249239823792662,2.54115806298139,-0.0581294515532944,0.00733182341090673,0.028163403417473,-0.440807651684026,-0.546495812701491,1.93831125451792,-0.0277143218177715,-0.0460297061297152,-0.0220480103609553,5.34900959690191,-0.00299970737006806,-0.00331802676191542,-0.000254139458649449
1.37,2.1678049637918,0.20508754207451,2.4511073367166,-0.114666511241293,-0.0607161735725876,-0.0634595871605211,-0.508906468899531,-0.71788827121613,1.93381866381767,-0.21670802494517,-0.177483926144742,-0.0513151625691303,5.36473082205214,0.00551186523455008,0.00216318923379232,0.00543578676817595
1.38,2.23969701760306,0.235957288569249,2.55317660443453,-0.104038752069008,-0.0302742411630383,0.00620974054700519,-0.414388420238999,-0.532670844258086,2.06997204480281,0.199470019802121,0.108468904024099,0.141709575509993,5.19869632733105,-0.00657716782650839,-0.00610793366409045,-0.00695162023628223
1.39,2.23027114207288,0.263190131071004,2.57780684913846,0.0370651520704509,0.0500207477257159,0.061372066083472,-0.446934169736039,-0.591869225677856,1.86089023632484,-0.318662216247929,-0.233447543674126,-0.147172192012695,5.46078226138939,0.000149473475638869,-0.00116513734372059,0.0041458357898522
1.4,2.19751819093763,0.21971000782689,2.49231992960827,-0.195467223451767,-0.102605488505766,-0.0791371201663585,-0.407754509598676,-0.755112743623706,2.11464715500487,-0.0686721330265893,-0.0509126455803612,0.0726000237540778,5.16711295423718,0.00528702527133475,0.0011758231214433,0.00030877344378832
1.41,2.18855855948359,0.127666148053017,2.59416028191851,-0.117517932888581,-0.0465835955131676,-0.0112529854958403,-0.558613961087687,-0.586389713080703,1.90653292655108,0.133655525076944,0.00430597584530089,-0.0258756792817085,5.29090015034576,-0.00403544187187204,-0.00334893079872306,0.00176532449251232
1.42,2.17017978857591,0.241607103434191,2.54938093561736,0.0039236813167525,0.0142927615226112,-0.00592198569870948,-0.448761658847245,-0.614617989241857,1.97543173051515,-0.210662861638444,-0.135705782563897,0.0391359088239708,5.32914660770167,-0.00125495925676972,-0.00220917925997531,-0.00151448603351666
1.43,2.24941545639086,0.263532205631653,2.62912809053817,-0.0953715244997999,-0.00547900780706778,0.0520982930158405,-0.330244606992582,-0.670690914813496,2.0246916718997,-0.0660570805726834,-0.0635747609289491,0.00104879325489698,5.1447852926928,-0.000236114152933716,-0.00214882776498562,-0.00250017720722112
1.44,2.25490656115023,0.195292616669103,2.63229648165418,-0.0715646858244879,-0.00944611369579074,0.00628855824959893,-0.408438197257087,-0.621093669701644,1.81741099303729,-0.0537705065380308,-0.0865374993808232,-0.0473622641649906,5.3231358105382,-0.00162353659308393,-0.00180520602699694,0.0019612704801753
1.45,2.23399739965011,0.22517646156246,2.57193291008548,-0.0583330439437994,-0.0100099199693606,-0.00320727627720033,-0.390706732785574,-0.651693771949753,2.00099221243983,-0.103478800656132,-0.06556493801029,0.0547754506820902,5.21431467958883,-0.00102029471523172,-0.00250877598506449,-0.00241696937478971
1.46,2.21624780725725,0.186526578693383,2.6356720406785,-0.096832423817843,-0.0216488470291731,0.0169924713563491,-0.422400276950863,-0.697177630399959,1.87650128366038,-0.0943961366470716,-0.112393527335253,-0.0544172783147056,5.24685044021005,0.000861933007267386,-0.000989821883790208,0.0017737744776905
1.47,2.22798897895967,0.191996942272322,2.61931537948882,-0.0722652204924353,-0.0186157208564159,-0.00427018406615248,-0.396219889153244,-0.630084602405266,1.94412418983047,-0.000971425046679145,-0.0319234381470978,0.0535586001034686,5.21323851313177,-0.00302415883967124,-0.00321532424675122,-0.00230732263000675
1.48,2.17954935608336,0.158746862029505,2.60892963662229,-0.0818545065754704,-0.0351263846200184,-0.00707514780918218,-0.468804200735488,-0.74231789316678,1.86253319815192,-0.197561684706166,-0.161343604881532,-0.0733998385614274,5.26806153186687,0.0030553930590199,0.000247215221904795,0.00380995886510637
1.49,2.20458073240548,0.167740561480502,2.63461459428252,-0.115490878918529,-0.0421040930307835,-0.0151928864894634,-0.404251690662426,-0.664591974021617,1.97000163392014,0.0846586585198952,0.0162763526474813,0.0956253408300537,5.15119768261015,-0.00299878833163582,-0.00373695893885103,-0.00379566904026651
1.5,2.21322417449918,0.180764476601989,2.67754911008099,-0.00777852564227609,0.0211859278620878,0.0504328578888919,-0.423285369766256,-0.643127079658809,1.86254110142539,-0.165101192953722,-0.147702419983537,-0.0723235057956834,5.28226726137984,-0.00178248621468761,-0.00262058692029739,0.00108997232505145
1.51,2.18814693766146,0.171919450329265,2.63387939467692,-0.125738289957342,-0.0574048071497771,-0.0342503734552733,-0.380733705075685,-0.789963782510561,1.96103517650347,-0.130511950685959,-0.114843991024316,0.0195293849837903,5.12945232093123,0.00331013309310951,0.000360494658458295,0.000691121647775933
1.52,2.21313529804257,0.116562601525592,2.69825392637323,-0.104087211825213,-0.0371755762235282,0.00865532617501926,-0.445236723787357,-0.652553395734026,1.85267930976591,0.0856013674924621,0.0013355944082784,0.017412750210073,5.19577219711153,-0.00357462780991673,-0.00387829352484071,-0.00121866328995248
1.53,2.2110465072558,0.198539253215652,2.68485520774935,0.00935169478512582,0.0350817822899717,0.039634958220536,-0.380247876754554,-0.649935374327355,1.92535266133236,-0.171863669712489,-0.139760942063525,-0.00101157731780478,5.23130248420317,-0.00255826275651881,-0.00359850176220897,-0.00175075359687104
1.54,2.19935708196339,0.159344130961262,2.69697502239558,-0.124542943164258,-0.0515451012464243,-0.00203006572702409,-0.351490396883334,-0.823331366470929,1.92805985000291,-0.156761348729028,-0.15551000146198,-0.0374436668303395,5.09192703121166,0.00397407080704727,0.00115432219489332,0.00186788630180818
1.55,2.23073564534856,0.104431745398658,2.73463005900432,-0.102974357628791,-0.0436808836237505,-0.00205569410927715,-0.419105946328293,-0.649728781375178,1.83059149625685,0.120516334902546,0.0427833992267729,0.0528526962511593,5.16865012559636,-0.00459043853937402,-0.00473531911185107,-0.00238003660507725
1.56,2.15148089758829,0.124252522731449,2.65490223912092,-0.031705067507091,-0.00545104067980921,-0.00108495509432379,-0.469919326084204,-0.763727263238528,1.85755373736823,-0.259999925983765,-0.221149400176013,-0.0716777338864781,5.23767813289078,0.00216762290517547,-0.00034946226162125,0.00345387515193407
1.57,2.18426456427794,0.131611476577498,2.72466718961222,-0.140021026151358,-0.0658765917232945,-0.0112367124684874,-0.349814054493993,-0.769968307179503,1.95057758839731,0.0487560558572238,-0.00876258603845589,0.0909251130652556,5.0413119141654,-0.00078093137649908,-0.00229238751892409,-0.00377486618885974
1.58,2.23935607462678,0.130775124707153,2.78827104881475,-0.00215148049914531,0.032393069021219,0.0721197139158405,-0.39760227025069,-0.621433483493958,1.8182834405096,-0.0564406205853207,-0.0785608461798095,-0.0518863638828424,5.21817221497529,-0.0049421877609968,-0.00550789702310731,-0.000870369403965619
1.59,2.16384446051235,0.136974059318573,2.69577175967118,-0.0935258192602991,-0.040453094168961,-0.0317039784835485,-0.360503131940146,-0.869614846010243,1.91051287885304,-0.265219210548218,-0.242155553630085,-0.0288257816770887,5.08772610164222,0.00542492174447926,0.00218008081637952,0.0028691746320337
1.6,2.17430655817295,0.0255378542509709,2.74789183202638,-0.184324821466269,-0.117835268412127,-0.0368849637653331,-0.450395871699801,-0.781868655091865,1.78381296879615,0.145601919117828,0.0506307818187729,0.0433962951281494,5.14965739721907,-0.000706218487045637,-0.00229085798656422,-0.000316652928148881
1.61,2.13554071640324,0.0597849662743635,2.69972178739023,-0.0186364594480856,0.00259461500301614,0.00100377827647317,-0.508474311996475,-0.714375199221209,1.95485318717064,-0.0976660385453832,-0.124846481728794,-0.0225231143271317,5.13665010537275,-0.00283782290701353,-0.00397471687238907,0.00103886711277658
1.62,2.1401053849812,0.122552022087622,2.80331532858983,-0.0861272657071234,-0.037327926787445,0.003277266704442,-0.338326986395157,-0.842309129258772,1.85150993128707,-0.158768142626911,-0.165413278738711,0.0323254890910657,5.0522803093287,0.00211797637642533,4.03173316870743e-05,-0.00168583651965527
1.63,2.17584269369684,0.0257684251022282,2.75641796352606,-0.138535433480942,-0.0813218416078129,-0.00457187739406602,-0.429794174056912,-0.810111235742466,1.75402985322069,0.0201564705549976,-0.0354291071172502,-0.0485823388948423,5.14590610172845,0.00027799229234519,-0.00168308856386927,0.00250426269997286
1.64,2.15172211176315,0.0525273032683032,2.73690591427853,-0.0548894137903752,-0.0181165878900418,-0.0215784066803451,-0.445464000152188,-0.753640138275194,1.90605579016035,-0.0445851465079608,-0.0907851717905543,0.0510616013889172,5.08793377164942,-0.00239940537988334,-0.00366394758857317,-0.00138898631421926
1.65,2.11202115300174,0.0440586357705418,2.77880304021931,-0.104186567617229,-0.0655197116980177,-0.00649375903812775,-0.413872070910712,-0.890237750715454,1.77119316013014,-0.172688580462692,-0.190306295992099,-0.0521435174174131,5.10939850462031,0.00385809636832801,0.00114665479528454,0.00276722203773998
1.66,2.17735737065182,0.0352041916766139,2.78963264498181,-0.111087838268079,-0.0617085046174528,-0.00592477132522581,-0.389386514180481,-0.765368936772236,1.86416717302018,0.115960822104129,0.0375641360684746,0.0744576562265545,5.02778019014714,-0.00374350479249993,-0.00472933557474059,-0.003233135525058
1.67,2.1402370179245,0.0397105670136214,2.79670996275972,-0.0270465786714114,-0.00382800118371044,0.0180479447185671,-0.437437451826269,-0.817572619954203,1.75328892642912,-0.218109587631605,-0.219856767558085,-0.0808604435529214,5.16554520493418,0.00105092179012802,-0.00117028411561623,0.00297356227804137
1.68,2.15519840719927,0.0528627496968967,2.7959477849567,-0.133508429493786,-0.0773446360459097,-0.0198283492877547,-0.314443255164815,-0.879452853588964,1.89150481229248,-0.00284639089656026,-0.0537502165613562,0.0761505617439139,4.96551677198306,0.000590922715745408,-0.00133983862012995,-0.00267674090003447
1.69,2.19902408808788,0.0136540199836993,2.86601357162738,-0.0481546819263821,-0.0112928503750952,0.0446574019409261,-0.404179253812725,-0.74708024546425,1.73900543017751,-0.0171649608365832,-0.0685057187647199,-0.0450102169649697,5.10452037202973,-0.00337938442588034,-0.00447891481304785,3.99531039145383e-05
1.7,2.13776339105948,0.046905223031022,2.7911085759233,-0.0737421902120785,-0.0354575934019217,-0.0205868666753057,-0.349664729317545,-0.90283233001514,1.81354670620907,-0.195109306413379,-0.204406742542445,-0.0023655205043571,5.04670518717451,0.00279288973512147,0.00021362688192143,0.00107645348362707
1.71,2.1713300684216,-0.0124203616849705,2.84712958580627,-0.135746084620832,-0.0827379217591323,0.000269964149789533,-0.358900654275207,-0.857902302677541,1.77126506349837,0.0623599961624288,-0.0163963238635291,0.0267873034075016,5.01416082447958,-0.000878293880191915,-0.00240530229252313,-0.00128984537356828
1.72,2.15014291524014,-0.012888327897738,2.82648116947363,-0.0443266593052025,-0.0190663758938731,0.00540025123505674,-0.430958257411485,-0.813882618131042,1.77659189500399,-0.0949765080368261,-0.128503710788146,-0.0329043690165869,5.08344359583672,-0.00135108843182193,-0.00310826022491393,0.00129810158071163
1.73,2.11592261166193,0.0035955328817282,2.83299689181197,-0.109325222453524,-0.0659795892279675,-0.0215971086632627,-0.350152029335147,-0.937484820548846,1.79409045877757,-0.11691789193942,-0.156226225521076,0.0210960825221021,4.99799018149375,0.00268541755015056,5.30050251359653e-05,6.7995839805303e-06
1.74,2.18054279576769,-0.0236130395998316,2.88581684081152,-0.089386211525495,-0.0486063912313851,0.0267695218862133,-0.356867316084736,-0.808468323781004,1.76177539452484,0.0731714242883363,-0.0128078166663506,0.0178101382656747,5.00045717785331,-0.00354138322451309,-0.00436607603334603,-0.00210029179655266
1.75,2.14683338994368,-0.000515429409035484,2.85811044190175,-0.0337969760118234,-0.0130046791780662,0.0100657013951215,-0.369352776444459,-0.882363739767371,1.73237592722327,-0.197541139260229,-0.200853573600496,-0.0444164013552967,5.07086181430062,0.000979814667542639,-0.00140424369823794,0.00161979241554128
1.76,2.11780455429554,-0.0579740548711226,2.83594781234599,-0.165164958281843,-0.111809466828698,-0.0423311668576402,-0.352886654133493,-0.996127015883374,1.77247486845345,-0.0367446770087669,-0.101729937950941,0.0159798020803303,4.98423918241952,0.00374381142036439,0.000357414295375753,0.00123145950382527
1.77,2.18186302797249,-0.0534236878393528,2.91723251676491,-0.0503084211803964,-0.0208267868000831,0.0332505636162491,-0.377503018598098,-0.750721532389679,1.8207515682484,0.122682661162089,0.00392125450553502,0.0505453223428266,4.95651854080692,-0.00672188977681387,-0.0068324737555525,-0.00392114111863675
1.78,2.10446128226883,-0.0137778551196289,2.88945868932818,-0.0338084586102652,-0.0303901987754856,0.00498923828389703,-0.352691697350771,-0.989956324423968,1.65834158800045,-0.34368749857971,-0.315105979068339,-0.10027716077,5.06990576278274,0.00528468077990442,0.00193184618959539,0.00450843561886787
1.79,2.1514027225055,-0.084722027952287,2.87004701301769,-0.194542092626085,-0.134816260960912,-0.0390840985073185,-0.312407439197575,-0.972809432388205,1.80259572842598,0.155474180575049,0.056126673307499,0.100821595081666,4.91633657927937,0.000152658116669188,-0.00256673731652523,-0.00293401448273569
1.8,2.13565383911163,-0.114301261427682,2.91102930008639,-0.018363465678636,-0.00437692558248276,0.0267871959775701,-0.461836215203898,-0.815370554103068,1.75748718651185,-0.0624386990059409,-0.146302854101935,-0.0759476824147764,5.03149479282856,-0.00321974554170867,-0.00430188139019368,0.00231545378844012
1.81,2.07999423149095,-0.032532770241768,2.90884821255828,-0.0989299333788523,-0.0766404000938601,-0.0358479493102653,-0.290011289314261,-1.03571597263124,1.74995098896048,-0.193276015897345,-0.2070332748923,0.0436226041936509,4.92028641007026,0.00448436865366823,0.00142548968609372,-0.000381979390625773
1.82,2.16736631800545,-0.123451286887878,2.93933354795638,-0.137316027580836,-0.0875397233915333,0.0198319458529401,-0.356325869552423,-0.904357859265626,1.67447842947252,0.135096160571877,0.0209364364342772,-0.00237826865598327,4.95994618159133,-0.00234519041264444,-0.00396698393675802,-0.000834358167865425
1.83,2.14632006749082,-0.0595632631968238,2.92367443268945,0.00675505535429805,0.0148725795801524,0.0220115482292242,-0.346652340148314,-0.856448323569436,1.74952129141871,-0.132614422697569,-0.175114992769846,-0.00145761264354748,5.01458045012543,-0.00258895611423582,-0.00405648384724413,-0.000964883536695157
1.84,2.1161817428077,-0.0741908159943524,2.93725077124861,-0.126890348712457,-0.0913121623400685,-0.00808630965189333,-0.250677714067316,-1.09104226290079,1.74323779303497,-0.165786546168023,-0.202446121857786,-0.0266230349999731,4.86972515373059,0.00545403576075657,0.00207381512130406,0.00163699942486822
1.85,2.1754164633462,-0.165480024416844,2.96899180735302,-0.12791244492601,-0.0918280411657491,-0.0101398726331045,-0.368579602378245,-0.890532654820965,1.64356395083616,0.169544533093298,0.0465867174781357,0.0392449734586744,4.94910292678937,-0.00360432883105652,-0.00483887199634545,-0.00138245553668274
1.86,2.10611741025368,-0.0962036729174172,2.91683780913863,-0.00282137266923516,-0.00187055651367493,0.0151566253083262,-0.370423661798634,-0.929505615329187,1.71213244253865,-0.204141090313835,-0.23026979631797,-0.0332790618946609,5.01167653688435,4.42901991252148e-05,-0.00227427020172113,0.000833973157157704
1.87,2.10850019471978,-0.110584988561606,2.95933520897851,-0.150237745984687,-0.109489058207923,-0.0165790493404596,-0.24420569667426,-1.09280211073054,1.74225804901709,-0.0555676371214783,-0.12776979295233,0.0170080045682964,4.83580159095629,0.00377439101338664,0.000763984100361925,-3.43870945462217e-05
1.88,2.13671440561876,-0.21635845031104,2.96697312494091,-0.114020990320643,-0.090915261780663,-0.0196671442192716,-0.419125561867772,-0.931831185752097,1.60819674850262,0.0798289468525271,-0.0325796926295687,-0.0201058092458529,4.9704608396724,-0.00171834945119797,-0.00344723064738546,0.00185775238150748
1.89,2.08094855715998,-0.123131318552893,2.93420605950036,-0.0395510904575987,-0.0335344832284739,-0.00924094749265765,-0.345540661028769,-0.971786629032293,1.72559255122241,-0.125574883709601,-0.179142146409349,0.0371043733216286,4.92744285041092,-8.39090290084476e-05,-0.00227541078039924,-0.00135073772476496
1.9,2.14084378370054,-0.114939498296617,3.02248614821141,-0.0906244010411616,-0.0623834771062276,0.0409079209037764,-0.221351113118507,-1.02283866897763,1.67341048458327,-0.0318727080102631,-0.110879455457276,-0.00547920062138253,4.84065498526358,4.8171942993101e-05,-0.00169445534123735,-0.00169131945262034
1.91,2.14051810676513,-0.199578934743635,2.97234211672121,-0.0983685517710731,-0.080077443988056,-0.0191952512796502,-0.336258419656474,-1.031029701625,1.56139413290391,-0.0658681157537672,-0.124039482494738,-0.0496518115066438,4.96763254270803,0.00165565595456799,-0.00131154987235965,0.00322976822486137
1.92,2.08434499715768,-0.211060878014986,2.9253583074896,-0.120733118329732,-0.0961321074549996,-0.0473815849463493,-0.350792391926915,-1.05171208835745,1.6893163781786,-0.00986365168845182,-0.115456985591085,0.0474571387913916,4.89473006154632,0.00140638957280435,-0.00134513500580936,-3.68441297308731e-05
1.93,2.13605597919142,-0.162530005143182,3.04003127146427,-0.0433577072326232,-0.0370139566330085,0.0472861386684241,-0.277082256272749,-0.928108509387565,1.67941570490618,0.0304747901017452,-0.0741321032014836,0.0240923780859233,4.85284986075354,-0.00389017996675942,-0.00472314410993281,-0.00337788641431499
