time,x,y,z,roll,pitch,yaw,xdot,ydot,zdot,p,q,r,thrust,roll angle,pitch angle,yaw angle
0,2.01841953230695,5.01841953230695,0.0184195323069548,0.0184195323069548,0.0184195323069548,0.0184195323069548,0.0184195323069548,0.0184195323069548,0.0184195323069548,0.0184195323069548,0.0184195323069548,0.0184195323069548,9.17978296354284,-0.0109004871428384,0.00244627647683442,-0.0019378595655582
0.01,1.2193717654818,3.0193717654818,0.0193717654817975,0.0191001439702659,0.0179519864820024,0.017689763911577,-0.0640087423073492,0.100405933157203,4.32756542225604,-0.434122060518443,0.105060887399571,-0.0313844021503996,5.77836365846286,-9.87803701216538e-05,-0.000117399167201634,0.000480194212101522
0.02,1.30669175650408,3.37102571738629,1.75504248401785,-0.174710699590587,0.0441491045020742,-0.0114331379071504,-0.0203447330244325,0.0254683839501237,0.927219276200458,-0.00636875415852961,0.00112566631036067,0.011360649178403,7.04971167705865,-0.000894853541418028,0.00122514461186262,-1.95217153222123e-05
0.03,1.32981157173101,3.34441418439596,0.405469536467919,0.00146512392862857,0.00761072335851216,0.0111996778837535,-0.102233450369395,-0.393935221807295,2.26455632444785,-0.0353333977202459,0.0540278590801676,0.00483609685618635,7.00975566044492,-0.00586134943939691,0.000997961410877104,-0.000809105348223472
0.04,1.2719439370874,3.14426636337116,0.999469244037611,-0.0301320115522829,0.00928366639289829,-0.0130016471170945,-0.0507953023008369,-0.0375482593539484,2.18650554320677,-0.254391795918731,0.0291861520642939,-0.0285486865630091,6.68590277990497,-0.000816920552170897,0.00204121330703019,0.0018870673687282
0.05,1.34772531033212,3.35011794437596,0.965714256551933,-0.0735850459741586,0.0453573149695654,0.0225267015463463,0.0221288131647097,-0.0215819332165715,1.92051645709107,-0.0134343391102833,0.108030241606228,0.0666359715615275,6.86112906217407,-0.00517329327978625,-0.00167996744548881,-0.00426022034676167
0.06,1.33737324078373,3.3163232108938,0.850216782648289,-0.00793230244016468,0.0437389194409354,0.0240948027229859,-0.102336456960507,-0.174653215190435,2.09665635206652,-0.21864600294099,-0.0619730980493291,-0.0899172678637803,6.84405098482957,-0.00239090595250674,0.00229277760549408,0.00306208907941986
0.07,1.32620137788775,3.29307164926561,0.985915559387842,-0.0579104751437803,0.0126071522922443,0.00134026759892292,-0.0503708435308436,0.00577024596126779,2.12050884975734,-0.0788877937352233,0.122302437715744,0.0926272122618922,6.72437476554265,-0.00464939809806311,-0.000812827238302583,-0.00451973642757532
0.08,1.31182082021595,3.33154787992408,0.956948933757033,-0.0321032800985749,0.0530070601824216,0.0379522487293506,-0.0413500141574268,-0.134445887705785,1.99542169483075,-0.198120558478523,-0.0262628327563468,-0.0924001786285091,6.82722271996609,-0.00219975832816881,0.00102751282842933,0.0025326545476121
0.09,1.33149731889353,3.28960010159284,0.942697444078472,-0.0693223425063198,0.00966540326902757,-0.01939457378552,-0.101351754308731,-0.0809828651797713,2.12798864505797,-0.0883854100990088,0.0600562458922244,0.0664429448038749,6.70963220473161,-0.00357240829884436,0.000719958977780727,-0.00228712922011793
0.1,1.2561443133544,3.26128784848244,0.961358933852423,-0.0711681935068605,-0.00247358612046156,-0.00115324146998842,-0.100477303085268,-0.21972895411018,1.99012207335237,-0.18210644091896,0.00643533323355101,-0.0723190163177336,6.77783679142567,-0.000266474593245802,0.00247828992374275,0.00343308423582696
0.11,1.27743000869212,3.22413088480227,0.938982322570805,-0.0937590509785784,-0.00831613711377962,-0.0391969977565573,-0.0534767334118824,-0.21229921157856,2.08981436746695,-0.0366832302488965,0.0917278706051591,0.0608277156791951,6.69784949412495,-0.00292390573795305,0.000767265159005441,-0.00106561220744486
0.12,1.33574936889792,3.26598540262804,1.0274423074138,-0.000235250146666845,0.0617809762994465,0.0460924133565643,0.0113562554593079,-0.193011772108782,2.06633793311343,-0.115980746555668,0.0530694454147233,-0.0034971039099593,6.75428459481029,-0.00565690247051782,-0.00156351673392389,-0.00205489747690968
0.13,1.31812118515793,3.22737433424224,1.00121042295873,-0.0682600593361457,0.0125823050956857,-0.0164046313870823,-0.168271107486253,-0.103154440093364,2.10229704997803,-0.256243461276532,-0.0658480221056269,-0.0545805635204564,6.67961563493014,0.000613899985976157,0.00330473881738604,0.00331272457921939
0.14,1.27400035020935,3.29616399394084,1.03066196593297,-0.101858508180967,-0.0127800521440967,-0.00644335339523695,-0.0490434871003677,-0.177102489538581,2.06604909699589,0.0153536120004858,0.143430512193988,0.0784297887012029,6.65605880706075,-0.00456486965500192,-0.000563678634417155,-0.00345201621325186
0.15,1.29970756190865,3.24120445430134,1.02557419525601,-0.0116938473947064,0.0518587147819404,0.020797070395936,-0.0358536109167252,-0.272347709069549,2.05211988826645,-0.21174878260545,-0.0224784791460914,-0.07972769197096,6.7320277815644,-0.00251458310924654,0.000673662388532861,0.00275119518140579
0.16,1.31229900335715,3.20690908906666,1.04448022722521,-0.0992547497893625,-0.00684850444551679,-0.0334674704481324,-0.138081453805858,-0.12687191783439,2.13947554893373,-0.124818745115969,0.0332408352333524,0.0552459980797936,6.590751151689,-0.00142772923615328,0.00169069098059011,-0.00108042474755269
0.17,1.24313716155691,3.24251703719454,1.04808956717761,-0.0895420153107691,-0.00888986385662122,-0.00185744037292471,-0.0872061318308867,-0.305475614791018,2.00299272633876,-0.100600491877225,0.0475764212646343,-0.0449536682829894,6.67230148265609,-0.00162862399851282,0.00143892554355492,0.0021763900807627
0.18,1.26841662921563,3.16965223964674,1.02848512461474,-0.0777415494405678,-0.000580325247106807,-0.0412920859657262,-0.0751840607645865,-0.305380312491905,2.10034924634687,-0.107345457157681,0.0432201596365963,0.0254730994373136,6.61619690988728,-0.00191577205263499,0.001215820864507,0.000706942766542163
0.19,1.32019047457422,3.21694776408826,1.11935979085047,-0.0389238276043266,0.0399686328884781,0.0286771494851208,-0.022308955501213,-0.21807502782736,2.09651953458646,-0.0850741031300846,0.0681122047742616,0.0302844463187588,6.61372994913686,-0.00503421415002731,-0.00129648416010419,-0.00282991967531229
0.2,1.31442505695307,3.22478693176967,1.10793050258376,-0.0496543875396031,0.0303612136289156,0.00841936313673564,-0.11132036957442,-0.200959758014881,2.08947832429099,-0.229001629815383,-0.0448181516402414,-0.0612032321664775,6.61574681440111,-0.00112004027390882,0.00179314941102883,0.00245557661054202
0.21,1.26338577471344,3.21878404131456,1.09574291294273,-0.122358514032031,-0.0284340367275466,-0.0367505129166106,-0.126059036654128,-0.244995093007223,2.09549046494595,-0.0839736098417967,0.0670580226863166,0.03876006446055,6.55172473675626,-0.00116728493941811,0.00149960930156232,-0.000135485436026614
0.22,1.25944813226136,3.20180963850839,1.11361102872376,-0.0653711327408915,0.0168865203635187,0.00173265693126332,-0.0464882764763638,-0.358050116450801,2.06670194936576,-0.0855512545655235,0.0521926398705793,-0.0152575509703171,6.58208751972675,-0.00328268936816449,1.74373813144847e-05,0.000604768982731583
0.23,1.32723944529271,3.18479553804347,1.16272279565489,-0.0353658101689825,0.0429323912088633,0.00872454324538392,-0.0527844440508157,-0.233916425234223,2.12373229011652,-0.14573836487023,0.0220778695442751,0.0262058464335826,6.56230520213289,-0.00391533319385328,-0.000479352290516238,-0.00168972186193388
0.24,1.29989382136398,3.21435165514447,1.16678886696123,-0.0776236360905675,0.0126282746829937,0.00827806565531271,-0.120845432926867,-0.22663811555705,2.10352914847574,-0.187668736195669,-0.0128724484795233,-0.0370878939628944,6.53079233558272,-0.00111143368617105,0.00156546573339434,0.00132085013283509
0.25,1.28533436171211,3.23150663867742,1.1759475901618,-0.0844973169025487,0.0101728971274981,-0.00377166468138738,-0.0635190710547794,-0.270242164976946,2.101029486414,-0.0659215733373655,0.0776324456420229,0.0356802427409674,6.51315846374421,-0.00374797217440493,-0.00052027152771148,-0.0015509093938225
0.26,1.30522308993484,3.20684517407129,1.19514870747756,-0.0385214284984092,0.0434835691727707,0.0196972727600133,-0.0663750591510685,-0.290809143745404,2.0984977836681,-0.176290999235021,-0.00660580928619726,-0.0270288243151953,6.54218667404971,-0.00302808161780046,-1.94603318600774e-05,0.000318992128362962
0.27,1.31157440855884,3.20470552925222,1.21570685497936,-0.0771086078384072,0.0180118455836385,0.00289014765312792,-0.100482095006746,-0.228921339245073,2.14523057339736,-0.142043798176776,0.0199367160896297,0.0181362897862188,6.4656771242146,-0.00258704286791819,0.00039991717741451,-0.00103671801633967
0.28,1.28821751073801,3.22263414348201,1.22967538898827,-0.071019567295419,0.0211725958902747,0.0145402102796294,-0.0816838911870464,-0.290477141107451,2.08096323251,-0.131124045444723,0.0287828049312144,-0.0162870662246854,6.49838030818827,-0.00289875031331102,-1.93942706674021e-05,4.72651444172058e-05
0.29,1.26013595262126,3.15818827442616,1.19241024359938,-0.100421017771838,-0.00768048771843381,-0.0321099500741206,-0.142242758181277,-0.350260564685771,2.09782038075176,-0.172077376863546,-0.0129057583825788,-0.0209549041636843,6.46889750544317,9.61131352296478e-07,0.00203967865225203,0.00247883471384255
0.3,1.27488603402034,3.17313536964897,1.24341626403455,-0.0850719302891332,0.00776091714651067,0.000321530067200544,-0.0588641504613647,-0.338478583363497,2.12034947644272,-0.0281989776292389,0.0935944209515562,0.0579727197214052,6.43565655407856,-0.00459706934899871,-0.00116388682085958,-0.00279083154619427
0.31,1.3212053378287,3.18643887096177,1.28565327886547,-0.0130253831952898,0.0635771366043109,0.0415362627570509,-0.0496399121621697,-0.302711899416187,2.11034491996707,-0.205185247096533,-0.019168193711061,-0.0418995208201873,6.5026879227593,-0.00379783090876695,-0.000960982159706425,1.50615057219525e-05
0.32,1.31406558604106,3.1904104536881,1.28308263804632,-0.0934636268482345,0.0135131416580802,-0.00462588069542855,-0.132862121751517,-0.243401784019345,2.18561243155658,-0.179209861819572,-0.0153971036377413,0.0110001991564138,6.36916431826722,-0.00132164895737525,0.00113526582704918,-0.00033685752381341
0.33,1.21361240262749,3.15205920801119,1.25096923910843,-0.143004263233534,-0.0450527719669961,-0.0385986266747935,-0.175275188430948,-0.430976935085527,2.01470910329621,-0.128932490932321,0.0145703070096888,-0.0456539171590862,6.45298145914534,0.00112270596467462,0.00250942756674342,0.00396439338512351
0.34,1.24810694717711,3.12102724687254,1.2551900943186,-0.0829020475726175,0.00639478267263471,-0.0215196963601527,-0.0468982943424715,-0.446103260833261,2.17323842998966,0.00344537195383478,0.103013190057676,0.0792581683961261,6.36234301444462,-0.00513001181172259,-0.00159577244180529,-0.00275471851281971
0.35,1.29696801990185,3.10321343680214,1.33985136397575,-0.0307113498783148,0.0397422358144976,0.0227936288262485,-0.100427272929773,-0.378891401733158,2.06955475152094,-0.253278460069625,-0.0580913545199113,-0.0638584874927283,6.4531346564392,-0.00149551197547127,0.000798425504384664,0.0019325517254673
0.36,1.28536234448318,3.14711264702155,1.3092545737075,-0.123241475996484,-0.0102400720804163,-0.0186365951781845,-0.117290017414815,-0.315512270895232,2.18279106150126,-0.0963017052301231,0.0486282281659746,0.0454598736821888,6.31279427840896,-0.00182636144928508,0.000373572007313206,-0.00130306173382571
0.37,1.25821897071594,3.15502539607213,1.33858286957744,-0.0771711337249014,0.0162321396362796,0.00847325790465744,-0.0953724549203193,-0.436118067565034,2.05845688301998,-0.123233104711041,0.0141241852234726,-0.036044486216775,6.40019485234723,-0.00265727529036833,-3.39200704039189e-05,0.00128547331013283
0.38,1.28079627262624,3.11035101621869,1.33551120934671,-0.0790250052479783,0.0131901660675856,-0.0150496952336795,-0.103208410522152,-0.391884400173633,2.1546400668526,-0.149103683023085,0.00910776735572527,0.0268663450074516,6.33457622521091,-0.00219088393543978,0.00020313985635383,-0.000582628887199289
0.39,1.30865452163268,3.16311288048555,1.40557225510819,-0.0596038710687563,0.0408737994446009,0.0403032385741748,-0.0522366240308699,-0.344899991936751,2.13117582880171,-0.106169111790317,0.0407909192771842,0.0127777913531507,6.34019567125108,-0.00462621170054671,-0.00188436589120633,-0.00251633136582761
0.4,1.3094829168458,3.160388080051,1.39446211962271,-0.0573406441629648,0.0395108487700955,0.0183459816719577,-0.101175661788816,-0.361414561989968,2.13666300694748,-0.218168159415343,-0.0509957572848405,-0.0405345468587345,6.34121854639495,-0.00197501547109711,0.00041133150329584,0.00104645318741387
0.41,1.27764238011964,3.14240662053054,1.39580175943809,-0.114632913366546,-0.00795315290876748,-0.01083908828039,-0.124005398050353,-0.383804061335623,2.14120305152101,-0.121451167919623,0.0308699951238974,0.0255644875491398,6.27742278097781,-0.0016971510924008,0.000382235457085413,-0.000724421388941679
0.42,1.2440950625395,3.10762573660614,1.3866929531991,-0.0993850147462775,0.00187497277666252,-0.00699472060704329,-0.122567819551138,-0.478095019089158,2.08141144459024,-0.129470681095155,0.00811591231072734,-0.0306823969805096,6.31817291242836,-0.00158126124530855,0.000353565012169758,0.00176626324747503
0.43,1.26667803656806,3.08374145318607,1.40483900859696,-0.0871049099480863,0.0093679350918408,-0.0137495384528827,-0.103569558510245,-0.452280190099052,2.14486439411976,-0.11175847299315,0.0225733934276455,0.035707084696875,6.27279600162923,-0.00281257212255327,-0.000323226590630302,-0.00105385810544475
0.44,1.27590203471279,3.09600297013963,1.4432984351666,-0.0764321339620934,0.0187925433935003,0.0162847939138848,-0.103896539935988,-0.440537133581065,2.11323651574455,-0.159425567860134,-0.00250836777876318,-0.0205457023382561,6.28471426615872,-0.00230267569645019,-0.00016698942342348,0.000192677109747112
0.45,1.2593585490384,3.08396476062691,1.42670629181241,-0.109982543340634,-0.0039550766442999,-0.0190984922428129,-0.133347698508691,-0.46495648027535,2.12422142272235,-0.150723228244004,-0.00527951188454906,-0.00538398268760247,6.25097104704021,-0.000886737551182041,0.000778135749977472,0.00114154117166467
0.46,1.25256956495775,3.07875142639915,1.44574186689333,-0.103184507276789,-0.00120893093988847,-0.00807427882992657,-0.111849509721691,-0.492285168281146,2.11559945033417,-0.0904873998176002,0.0338973966728694,0.0183579289597507,6.2444512851756,-0.00263572598513644,-0.000357687725597463,-0.000499885084260857
0.47,1.27687887039805,3.07796375617146,1.47798020350745,-0.0653119619346271,0.0288329426134954,0.0142855333939351,-0.0892583006970654,-0.473270994576052,2.13265927724914,-0.150388111280377,0.00111793017107113,-0.00444798307464477,6.2494367263338,-0.00309470388565736,-0.00088941724531697,-0.000459262914788981
0.48,1.30772013929968,3.10645184295266,1.51733491697718,-0.0686156358011154,0.0377522366817095,0.0258563365765162,-0.0752014997065765,-0.418031011944424,2.16313418717085,-0.151842383666256,-0.00129054381452258,0.0143707071919873,6.21322812166293,-0.00343041164644742,-0.00121871794409418,-0.00189088002653013
0.49,1.22470867205232,3.04201464377525,1.45666812654505,-0.145981735098575,-0.0394350094189535,-0.0410888592351541,-0.210391458925912,-0.554887159372542,2.07107982033991,-0.22998614200797,-0.0771467386752381,-0.0795627288002339,6.2273608198426,0.00325396558709272,0.00335634728492599,0.00570492988744289
0.5,1.20576830062998,3.0208594361471,1.46130897669515,-0.151232864861628,-0.0473326948354954,-0.0501139572947049,-0.118469901762223,-0.583904835757522,2.14792043239426,0.0600947016407269,0.126506207969291,0.103020781584052,6.15851112337887,-0.00377500295151344,-0.00113349641190444,-0.00251836442753557
0.51,1.28991617604576,3.04387302578497,1.56411057412861,0.00681506610216147,0.0771460931564669,0.0607248738732571,-0.0440557515104133,-0.520961445277966,2.13472052263582,-0.191524851846516,-0.0153954183728713,-0.0357582438320103,6.27145338028383,-0.00522230979115381,-0.00317267835435308,-0.00108520097606405
0.52,1.30379043583157,3.04936534672737,1.56180719989077,-0.107098509867348,0.0134849504561154,-0.00748062184121313,-0.142703054588761,-0.449824238698858,2.23262556398113,-0.2568398771373,-0.102814835179991,-0.0142549725537949,6.08422448581248,0.000775746196382345,0.00209724292179927,0.00103415090092949
0.53,1.24092041358644,3.07027047175984,1.56107963407405,-0.15031869548659,-0.0394249092728763,-0.00920456918325237,-0.127961157656138,-0.539485467792235,2.03479533445882,-0.0284007206335905,0.0856965686296134,0.0169725280253252,6.18749245199882,-0.00234994653734669,-0.000396502148872891,-0.000382833343342836
0.54,1.26434366166452,3.04006199073105,1.53652770851841,-0.0461680232342969,0.0496290242949696,0.0137544345746787,-0.073937062738241,-0.572252953095268,2.18454139140585,-0.144699026107403,-0.000589194978252567,-0.001909508993101,6.16727928887007,-0.00411859758258678,-0.00230588771402854,-0.000509006520045652
0.55,1.2585604596738,2.9891359242268,1.59008309625624,-0.120080157620871,-0.0110662605300864,-0.0214336302167117,-0.170043355901486,-0.561000534047706,2.1237342794676,-0.239243131091689,-0.0959687063437647,-0.0267281123523647,6.10909525162096,0.00163094812372106,0.00259382294081229,0.00228157338614798
0.56,1.21561892107627,3.00165414747341,1.5547489072684,-0.159684275134636,-0.0513362487471954,-0.0280715625385589,-0.141221377276612,-0.608045798059281,2.08614126798111,-0.00824324916868976,0.0941708349828369,0.0317276157782784,6.12900670472835,-0.00208030131577777,-0.00043951862455882,-0.000184918212845852
0.57,1.25758275608384,3.00212412302532,1.59531554899145,-0.0421646516886718,0.0510597676660749,0.018111778327346,-0.0752718536205552,-0.607283378774456,2.16627681064297,-0.137610602042881,-0.0038499927705094,0.00106405687545677,6.1374431063176,-0.00443018550710097,-0.00254499322648999,-0.000842929137891418
0.58,1.30866211077709,3.01793882120517,1.67148691586154,-0.0721313156740792,0.0348919387732355,0.0261127548114567,-0.087204005769306,-0.515921013886325,2.17202187613837,-0.214335077999321,-0.0668688817497829,0.0059485381943847,6.07482388546475,-0.00192203668296707,-3.43255455696463e-05,-0.00148327332540211
0.59,1.27873834923067,3.04300281246406,1.64498897110007,-0.118724755617083,-0.00523108631548706,0.0160944517708044,-0.105944442980098,-0.556536315010517,2.10593807223576,-0.125904584307375,0.0170987431933383,-0.0201111997547979,6.08794853977788,-0.00187450693939033,-0.000406771479924278,0.000191194519451922
0.6,1.24650159906929,2.9963226275094,1.61524547790783,-0.108051437573018,0.00461120012607745,-0.0181451442819058,-0.129866331478828,-0.629870773971931,2.11788183914997,-0.14470324356439,-0.0155034864849461,-0.00450348383623465,6.08665093364761,-0.00139911832419502,-0.000359232266301638,0.00108674183108532
0.61,1.27049396413001,2.99209951475741,1.66996978337863,-0.0899783628124025,0.0178181415532347,0.0139515156846589,-0.0921371770326276,-0.591205919421429,2.14797204040326,-0.104162059693545,0.00712124343350384,0.0366204898993886,6.05326712923521,-0.00355260274123599,-0.00148076030606993,-0.00236306590454099
0.62,1.25735686678466,2.97819764707136,1.67103650460798,-0.0954861123799603,0.00498820717011273,0.00878046138812814,-0.132453614610066,-0.628243972185037,2.10119378605371,-0.210426397336573,-0.0555464865002996,-0.0545674536942566,6.07248371619332,-0.000465756701563425,0.000547918933515067,0.0021873384204867
0.63,1.23208166493147,2.95389119683728,1.65137619760134,-0.148455493974393,-0.0295023081060619,-0.0353436799890278,-0.14405293585041,-0.657759279680103,2.12410490701803,-0.0945969830341958,0.0200409900109494,0.0342146552959981,6.02146944932825,-0.000774111236809988,-1.08117424081309e-05,5.41261224845614e-05
0.64,1.23426083657567,2.9451527224347,1.6789863236093,-0.0974889681308269,0.00664551267499701,0.00529105806643136,-0.124016296451752,-0.678463690512282,2.11034526063241,-0.102097913726488,-0.00185683624114295,-0.00620102583358459,6.04435100925895,-0.00286951589735866,-0.00110009257049444,7.17128341701964e-05
0.65,1.23931861651688,2.92352066263778,1.6971754254068,-0.104451982709023,-0.00516220438843051,-0.0149075458820818,-0.138662950288584,-0.67927881773249,2.11880960023621,-0.190264056251603,-0.0453425208500641,-0.00849138572318527,6.01852756231946,-0.000401874419554648,0.000481982151507704,0.00112620886185485
0.66,1.23909955495703,2.93389479811462,1.70778467880711,-0.133131446824805,-0.0153925649220398,-0.00741841135422285,-0.123131332298833,-0.676865227333615,2.11268201806263,-0.0846487649327852,0.0222051206380925,0.0203061645993369,5.9956030888245,-0.00185757051828405,-0.000772348253015468,-0.000597342452189725
0.67,1.26048777094839,2.94601046952212,1.7338446106547,-0.0766187049167937,0.0264301412333359,0.0180061580278989,-0.0951086710068731,-0.671159226441118,2.12401358049889,-0.1319678988278,-0.0153733125530322,-0.00388739417202294,6.01912457304829,-0.00339987972747096,-0.00173245935140829,-0.000611718355853527
0.68,1.23603605932738,2.90543051477428,1.72794512227429,-0.127376652092863,-0.019427306595672,-0.0229357267209285,-0.157622053057017,-0.720760747839772,2.11382020471315,-0.221134501049273,-0.0773379721813368,-0.0300819019765975,5.97361497501614,0.00145270168033365,0.0016305319735951,0.00252524536627424
0.69,1.24068937947899,2.92047167477421,1.7503294609759,-0.137230075687565,-0.0185239107818557,-0.00517788660743134,-0.103018415751459,-0.695371764130078,2.11648245522971,-0.00287825764078498,0.0759758557651776,0.0589035086847048,5.95513720441449,-0.00380997740977623,-0.00218562574478228,-0.00252176155221699
0.7,1.27790468878658,2.93577173201793,1.79063293596654,-0.0342683166030481,0.0575465251670663,0.0437394041571716,-0.0768374387425353,-0.683882365103254,2.12531609362836,-0.205283954259097,-0.0612202769937607,-0.0356025134761623,6.02858575030819,-0.00359734973640954,-0.00225198774964366,-0.000265411234359342
0.71,1.26563857984281,2.91301268746179,1.79088682720086,-0.136629576339114,-0.0147470844284493,-0.0139252836498825,-0.127428056426195,-0.707998901428975,2.18079867002765,-0.212829044508586,-0.0773503713251629,-0.00370932499571616,5.8777293271621,0.00112508484481838,0.00148291160195915,0.000855014242186248
0.72,1.25447936489066,2.92166308740236,1.81216753508098,-0.129965058823993,-0.0117551923863842,0.0118585387348184,-0.0973677897864107,-0.70499393328751,2.0593524649047,-0.012509494859294,0.072865901513857,0.0288316265236745,5.95894983604154,-0.00410091534831905,-0.00252545047711497,-0.00189358181089354
0.73,1.25242338183064,2.89298528359967,1.78668545281629,-0.0638140935000561,0.0341335732640932,0.00917857629221766,-0.11830785345033,-0.753386863432059,2.1327270832835,-0.237384570703449,-0.0943280915645106,-0.041353862453982,5.96814346667681,-0.00129182493296582,-0.000593217027336688,0.00160360487409134
0.74,1.28829011714151,2.91643097348144,1.86658532632068,-0.116738077147276,0.00656339467009655,0.0194128688863707,-0.0615874345840902,-0.685688083469605,2.17556394112931,-0.0918340458152449,0.0146466761238225,0.0653498907598935,5.85121043695199,-0.00317648112059728,-0.00180680777976583,-0.00396725892121916
0.75,1.28062394305258,2.91754354031988,1.85884510129249,-0.0784732198347076,0.0285007390904901,0.0422559077752274,-0.0937564909150383,-0.725483667040707,2.05584986936664,-0.186449331420499,-0.0538784038281069,-0.070164606223784,5.97048330836617,-0.00224423391956089,-0.00128647764663334,0.00139840148486963
0.76,1.21335915897427,2.83688371432523,1.78515353292003,-0.170589817934285,-0.0504611995918823,-0.0634100842525494,-0.18509483312494,-0.832362387382752,2.12949426615829,-0.194200429107356,-0.0701926734872653,-0.000107006523814422,5.86738535408247,0.00293528117846398,0.00194168404096002,0.00301978559388444
0.77,1.21926114713244,2.83831695131811,1.85363335436888,-0.139382080494251,-0.0225977149336865,0.000488699460802962,-0.11942643262829,-0.788377682440193,2.10676827189315,0.0466583075681301,0.0784831721367939,0.0639761806630623,5.86384976747001,-0.00487160236893602,-0.00282648447397916,-0.00301131822977191
0.78,1.20675359955497,2.7984838638094,1.84442213909973,-0.0770245747103228,0.00176131996869601,-0.00916316375374132,-0.174771975419565,-0.860055897698654,2.05652904656717,-0.299801069103654,-0.135429156360864,-0.0929072949346706,5.9385828877796,0.00143119701509801,0.00120496389354219,0.00488956992157991
0.79,1.24481958422824,2.83406218079808,1.8828902416237,-0.16399120270474,-0.0316580823565944,-0.0188980946417627,-0.0866739475589078,-0.78056833684472,2.17282303943542,-0.00248940516147354,0.0724609849646383,0.119326942543436,5.78048225693024,-0.00283802392799711,-0.00214724595188011,-0.00472791135096226
0.8,1.25870947227457,2.84763986053563,1.91147365239424,-0.0555480350414928,0.0403117183417546,0.0549118489742697,-0.106293324114343,-0.799964354293391,2.04384421042193,-0.185339797534271,-0.0753652394396414,-0.094258312011417,5.94638385071536,-0.00303238170811561,-0.00185346838131438,0.00197803684653124
0.81,1.2587459372654,2.83275878815006,1.90278078659785,-0.128255204359749,-0.0122991770161388,-0.0275766497974423,-0.100083478279461,-0.817873489622346,2.19375069136188,-0.18970433002215,-0.0547382228192279,0.051382878620742,5.76337884628072,9.81363458627523e-05,0.000190658083326944,-0.00108790823199676
0.82,1.26105607151981,2.83590827015566,1.95234507437571,-0.125418000394805,-0.000433308477641052,0.0362026864523866,-0.0933087227365433,-0.80229190685802,2.03254252294535,-0.0575550438039003,0.0191433980396331,-0.00978013042713996,5.85855478317292,-0.00327024424651447,-0.00229662109499615,-0.00119419618489245
0.83,1.28354959845608,2.84925033651365,1.93547389748431,-0.0566909207582768,0.0459279015473188,0.027885326213053,-0.0640519006230308,-0.798672446896226,2.14953352117417,-0.181415405178442,-0.0603301427652843,0.00170351920725382,5.85055605406177,-0.00348441175859139,-0.00247331546179438,-0.00126517504271351
0.84,1.24922907791197,2.80081270032053,1.95450414929344,-0.146410605108826,-0.0258996411726172,-0.00762114827041889,-0.129280362466941,-0.877349579994731,2.10827068372175,-0.224402711519693,-0.100425405901254,-0.0329532321936288,5.76660225902043,0.00206150985225355,0.00160670986646809,0.00195469270623713
0.85,1.22788126633921,2.7783614715683,1.93773847185959,-0.161164889202697,-0.0399861354811303,-0.0162017758748957,-0.129182254091444,-0.868421075931015,2.05181787181395,0.00214780290111655,0.06198605072805,0.0381751110575547,5.80922105500595,-0.00282900738619896,-0.00206884003945644,-0.00100893225558385
0.86,1.24656187056284,2.78466669912182,1.96356989422618,-0.0559331728195671,0.0401313831094674,0.0265510439781684,-0.102354614695379,-0.865983461686378,2.12508118926812,-0.184113919373049,-0.0709324954500479,-0.0124348070852577,5.82947845920066,-0.00309536630964331,-0.00244210723017373,-0.000533023679863676
0.87,1.26356840701621,2.78547855722534,2.01594871719172,-0.125465196785715,-0.00605848921407988,0.0108383796671897,-0.0840511662892526,-0.874820233781084,2.13314073770395,-0.189772559200133,-0.0796022233820313,0.00310877605130497,5.71851891441163,-6.02796158322971e-05,0.000233865031467348,-0.000606438193306324
0.88,1.22068604515729,2.74138377521729,1.9654871258876,-0.168450430584987,-0.0497868496316739,-0.0203038277458133,-0.156719996531078,-0.932837803247683,1.99868536155943,-0.100542931453837,-0.00987081219312965,-0.031727845426419,5.81055204691931,0.000322186352788911,-0.000112249631715537,0.00248441855470149
0.89,1.20929210525651,2.7232866198315,1.95286255770112,-0.122618233450878,-0.0117836950319831,-0.0233660158711442,-0.13853979200805,-0.940792441530703,2.13455248756863,-0.076001387614228,-0.0133651112870798,0.0430875575959731,5.73899187989817,-0.00246830947299751,-0.0018944421982887,-0.000875534605716428
0.9,1.22983801756061,2.72187280335534,2.04113420494492,-0.101489107280828,-0.00176617827255807,0.0171153776683789,-0.114810284335001,-0.928951383508802,2.05327655164156,-0.179921581921531,-0.0759076673667827,-0.0186502990546171,5.76186933126579,-0.000978063878385253,-0.000580716081565573,0.000144024851445023
0.91,1.18110807092576,2.67129744335447,1.9614104579239,-0.192569311605895,-0.07515211782114,-0.055008759693735,-0.191694447659297,-1.02922811719057,2.03440203533041,-0.161266145388427,-0.0617754897313423,-0.0371645282891965,5.75563560449226,0.00356174437216562,0.00158033693911411,0.00437926904567041
0.92,1.23037772065773,2.71034246976779,2.02992991039048,-0.116666749044604,-0.0019395767361783,0.00595739587419147,-0.0839863641432719,-0.91573133202618,2.15585843093314,0.0814691682135871,0.0784887013568435,0.110786844768715,5.67835995911192,-0.00686614542775563,-0.00494377794029825,-0.005422140592105
0.93,1.22465714642763,2.68557531100117,2.07274491319006,-0.0576220456668113,0.0110512210675523,0.025176491156614,-0.138737560137949,-1.0021596535717,1.99237617565391,-0.377389308223556,-0.209397236343238,-0.131617463270461,5.806131050502,0.00241939316860855,0.00173380503218513,0.00514455125975655
0.94,1.24638612075621,2.70569548308298,2.04318080638633,-0.203849770597841,-0.0642685548953606,-0.0325159246018392,-0.0684772837374086,-0.964917059397344,2.16268038108634,0.0271756519642631,0.094709931855321,0.12623028359099,5.6047303232029,-0.00163262913705706,-0.00219274945633371,-0.00441249216393406
0.95,1.2283423365742,2.67405306849669,2.06752901727284,-0.0781756024139492,0.0246931632185278,0.036748949736582,-0.145503614581079,-0.987496099832482,1.99484001749228,-0.163527443171008,-0.101503738520093,-0.106345630400217,5.79420016215823,-0.00220977456596728,-0.00171365324667687,0.00340292593264764
0.96,1.23528596195564,2.67831957866764,2.08224472295994,-0.131500250262051,-0.0269230504114093,-0.0323463708938149,-0.0774576269640536,-1.00599153851583,2.15471611533888,-0.165044211890792,-0.0550945681047528,0.0815666300542476,5.60552479089035,-7.99304980828068e-05,-0.000173491278504968,-0.0022794375839149
0.97,1.2571500811281,2.6798541317387,2.12920306641236,-0.128002780477499,-0.00468646655066443,0.0471923090933936,-0.0853531458913815,-0.976205075008205,1.98701480054692,-0.0727469181766696,-0.00298716526880465,-0.035782595764334,5.71231173211128,-0.00254578728915921,-0.00253623731542952,-0.00046732197542992
0.98,1.23451126025598,2.65951938464899,2.06771313115318,-0.111546513284956,-0.00318829552327933,-0.0187811963423949,-0.108647307387566,-1.03742177540325,2.07874589344477,-0.189977071376516,-0.104945115406768,-0.0133405377511187,5.6788506605625,-0.000136259551639481,-0.000301717305702836,0.00158937944883573
0.99,1.24119476834151,2.64768047865758,2.13135567762685,-0.144967153413734,-0.031139561557965,0.00350369868688693,-0.0824578953301599,-1.02614616418916,2.06080387039055,-0.0815029953489353,-0.00788082521954305,0.0418904428107262,5.62653680438717,-0.00145938496062187,-0.00139229550813501,-0.00209869104635546
1,1.23442480769429,2.6313720588281,2.11875722240466,-0.114801708221508,-0.00498063264329779,0.0138025784489671,-0.113390090562489,-1.04537810481702,2.01653920822295,-0.145929760310602,-0.0633620787384975,-0.0471017735584678,5.68475899161948,-0.001045269963793,-0.00143311883203476,0.00164826904557563
1.01,1.23886445300092,2.6305775227282,2.13405666399031,-0.129335018748465,-0.015076134186208,-0.0102251569457872,-0.080575521762985,-1.05310317589727,2.08007896707949,-0.119669490858921,-0.0511053399480082,0.0429966154896035,5.61141628708087,-0.00117560062448461,-0.00120578859082826,-0.00148845320239163
1.02,1.21359167990208,2.5877955987174,2.13286937389771,-0.15016451166898,-0.0412416435669307,-0.00447667998860668,-0.13423105455073,-1.1061372924306,1.98805900197835,-0.150308389379823,-0.0727467941472738,-0.0495994092849313,5.655186370321,0.00101114922325267,0.000178208679200245,0.00259773001763713
1.03,1.20259007398428,2.57003324332287,2.11966749512733,-0.156531640054609,-0.0447772466021081,-0.0348460299817118,-0.128650282244309,-1.10832856734172,2.05676077530743,-0.0577181424913585,-0.00908420495854742,0.0428947914824073,5.60501006009224,-0.00105297458103256,-0.00146709067406292,-0.000343188761763719
1.04,1.24969967479118,2.60580789368703,2.20432245489456,-0.0787423118332411,0.022206307219363,0.0431501162599076,-0.0603375817545181,-1.04287984625782,2.05350773505807,-0.106340730431261,-0.0433770756463554,0.0146773602211053,5.62792410666194,-0.00382218051554576,-0.0034314338121844,-0.00259998161388864
1.05,1.22963936645066,2.57705108855434,2.17861503160605,-0.137571326566314,-0.0303781689785881,-0.00740584841221674,-0.0974946973027222,-1.15558999868986,2.0246393781731,-0.251471575685612,-0.151380386814493,-0.0655587348198953,5.58809113857667,0.00298894727432505,0.00163632264678964,0.0035034551346298
1.06,1.23253344291844,2.55501809000498,2.17626945484564,-0.180463176244217,-0.0603303062621074,-0.023980801720636,-0.0915899205341776,-1.10982778340702,2.01708184999051,0.0350268452537925,0.0633010829860989,0.0772096200318492,5.57878145001693,-0.00240692952406276,-0.00255273148842273,-0.00248309059090941
1.07,1.19687204840563,2.52124277630467,2.16442357223745,-0.0999550777352211,-0.00640736127488743,0.00160870045113069,-0.153919033746335,-1.16998576910624,2.00749359392786,-0.21018714593583,-0.133592572341411,-0.0780860633158947,5.63280789362687,0.000452082498426661,-0.000480906861233323,0.0036915412037701
1.08,1.2013229748876,2.51519626783,2.20775047933732,-0.177893859682756,-0.0650199832814486,-0.0414553532387616,-0.0926709495197026,-1.18340424867831,2.05052788376708,-0.0786469493438539,-0.0286900982537946,0.0714010967326615,5.51688036024434,0.000588558268144241,-0.000235565365328006,-0.00139149434836536
1.09,1.21122589756935,2.50076126271549,2.20776628518688,-0.13258230226359,-0.0274066932043505,0.0137097016729392,-0.127166831473385,-1.1604727602131,1.97106661084186,-0.0748453267128735,-0.0335078469198089,-0.0417163228253331,5.60201792955564,-0.00159363052452205,-0.00194279563999726,0.00138282415627623
1.1,1.21139122484423,2.50669778177186,2.21916477257941,-0.122576992981309,-0.0212249923577989,-0.022640955203423,-0.0911186336468323,-1.19233186705693,2.04061358615777,-0.156465860336356,-0.0880693632977221,0.025134990631297,5.53959564219334,-4.1535871784792e-05,-0.000790644043223384,-5.94283188323124e-05
1.11,1.2475840238043,2.51779619580565,2.26998042785916,-0.131851369067059,-0.0197466222650616,0.0266096922116773,-0.0465538835615026,-1.16098346439012,2.00157247116644,-0.0732531654497291,-0.0273875849958337,0.0142043322591937,5.53214254653305,-0.00194082052961058,-0.00209698944384575,-0.00186415736764608
1.12,1.26176676270594,2.52136430529301,2.26425930494835,-0.0990520416949451,0.00421960534606531,0.0233656694034002,-0.0470387575249321,-1.16867768722606,2.00193839320401,-0.151072379293731,-0.0775476508917756,-0.0241420508653846,5.55765076276778,-0.0014998208412881,-0.00197897761419493,0.000130811175403928
1.13,1.2654339042796,2.51479808344052,2.28243001647693,-0.127929113042815,-0.0127931062840192,0.0103150285943846,-0.025709826392774,-1.19463439177239,2.0290200315609,-0.131298497405521,-0.069182331821876,0.0209307021577397,5.49435302410099,-0.000690664037846122,-0.00131944948734905,-0.0014118155786334
1.14,1.25068927107166,2.47816448395753,2.27780500122021,-0.139478538175814,-0.0287773959446239,0.00991592289413781,-0.0662034047877755,-1.21582631334763,1.95803531140996,-0.114296877421766,-0.0621588525256312,-0.0278868886045228,5.53553384622978,-0.000337691989643463,-0.00104489467476853,0.000902371735409319
1.15,1.2440227477605,2.4693470526722,2.27605189233882,-0.127309967953002,-0.0203617783837517,-0.00306471265737133,-0.0618730172569298,-1.21756921325691,2.01549270776323,-0.0955543411167899,-0.0446247063220307,0.0265250634025038,5.49847099012366,-0.00141061176097865,-0.00204781378994423,-0.00104530556629822
1.16,1.21287168229722,2.42692209135952,2.2831500631101,-0.14939929719028,-0.0426511541830943,-0.010449740383077,-0.102371703523841,-1.28401925758085,1.95090603292477,-0.163322934020141,-0.110426577808599,-0.0393594733114284,5.51581787740889,0.00177573610141367,0.000287173936398327,0.00239398699816223
1.17,1.21089317056248,2.41014562295742,2.2782037292057,-0.166158398547376,-0.0594600111133601,-0.0265480243551887,-0.0922698818694272,-1.26847830271135,1.99428711419417,-0.026373898061826,-0.00747943172685533,0.0431291031292738,5.47555159651855,-0.000998260715270216,-0.00164872787330176,-0.000752256914950707
1.18,1.25033842047358,2.44236477541004,2.34575558064639,-0.07838886608301,0.015558499190667,0.0411997885369041,-0.0446223516311424,-1.21160368748759,2.00098146765477,-0.109845035925201,-0.0589045435663997,0.00400359958741078,5.50145255669624,-0.00327350991375597,-0.00363882471036249,-0.00200958809678169
1.19,1.25860142215205,2.44447408560739,2.35732277876795,-0.11994727505853,-0.0126661857860508,0.0167674889840641,-0.0107733888353366,-1.29427005913911,1.99871672295353,-0.208677817932531,-0.142170658770526,-0.0288849980427077,5.43620087010374,0.00122696332885307,0.000169063374704893,0.000638624432141307
1.2,1.25905457303585,2.40221407012019,2.33678089005213,-0.169541610463413,-0.0560976652215386,-0.00579082294157221,-0.0433845365041736,-1.28520479299417,1.93130109077753,-0.0352999649025552,-0.000540714014983876,0.019630060764006,5.46891496982149,-0.000726206168693402,-0.00167566334229778,-0.000620696978092316
1.21,1.21237153905868,2.36013170203019,2.30027107609193,-0.13233793847821,-0.0305022032001775,-0.0158187259344341,-0.116564706681683,-1.32989439695566,1.9627145675607,-0.139707220443014,-0.101332251901585,-0.033453689203675,5.48328090443258,0.000559880641721645,-0.000987182453344355,0.00237284304958503
1.22,1.22108094222008,2.36736374358383,2.36787422265957,-0.145431547116737,-0.0425181736299999,-0.00973783876988732,-0.0471860311316047,-1.31670302990754,1.98874424588349,-0.0638771271117685,-0.0481535262589851,0.0549126851987995,5.40675759560302,-0.0009984908498014,-0.00147637418258014,-0.00209294938380447
1.23,1.24463943254305,2.36634436238515,2.38146970306616,-0.113539300981486,-0.0192369784445556,0.0287556237138011,-0.052899197099231,-1.30969430443919,1.92414086059359,-0.124372128372869,-0.0699515583493417,-0.0386009427737839,5.46481421478413,-0.00094391364249199,-0.00195206533179124,0.000534643516824518
1.24,1.22561939314074,2.34308305086823,2.35488027619295,-0.154501996656031,-0.0443030846835191,-0.0248357353571211,-0.0595082507332458,-1.37897569442566,1.96172462283979,-0.136791650569657,-0.0977787052373552,0.00430556971986768,5.4152653694337,0.00154979011133733,-0.00032814361795853,0.00100102767379093
1.25,1.2374055730543,2.32678867030197,2.38597285668865,-0.146558875360953,-0.0423355570226369,0.00487076152728882,-0.0487570323098807,-1.33378778806435,1.94156838931911,-0.0236214615563335,-0.0266241925837235,0.0253496981606877,5.41581209506584,-0.00184661664297604,-0.00217512703520647,-0.00138358564890512
1.26,1.28865948004169,2.37992290551555,2.44604799481215,-0.0579486545285249,0.0290307985125943,0.0587298534240459,0.0231208300400546,-1.28030415364689,1.98348317633045,-0.125140865465453,-0.0630083481224304,0.0108328805977094,5.42847859990303,-0.00367926755445958,-0.00439633213440618,-0.00313055485908607
1.27,1.24940742150141,2.32534229488945,2.41243361315147,-0.156775233598481,-0.0434136866919627,-0.00661790202779005,-0.0184298510300568,-1.45617296540693,1.94363545996691,-0.248549618905486,-0.197541573952779,-0.0745849083489623,5.36552706511328,0.00475233871102871,0.00219230261094397,0.0038790893493261
1.28,1.21131180876818,2.23440017800863,2.36417942448657,-0.228206985786489,-0.124065469077822,-0.0648724643970215,-0.10485030067027,-1.42440509333503,1.8702035137566,0.0690126430993242,0.0467445210837791,0.055441684834723,5.4445092608489,0.000394784466292412,-0.00119814650629257,0.000451924772137823
1.29,1.15911972283502,2.21136293201251,2.35229474408608,-0.122322850539812,-0.0409257684864003,-0.0272076731789405,-0.163528264229202,-1.45376206569296,2.00949337823051,-0.117112102283622,-0.109671928068212,-0.03294407824052,5.37611935619623,0.000196023370166584,-0.00144641099024851,0.0028709282111627
1.3,1.18168972144441,2.22631373216185,2.47617593618571,-0.161666049194748,-0.0698929676947198,-0.0301089338099676,-0.0597058730328099,-1.46178136894505,1.89209430715807,-0.0964360510874818,-0.0868823330226702,0.0487058180889825,5.35258407818986,0.00134897382070373,-5.8248103447908e-05,-0.000861643099839214
1.31,1.21410415134576,2.22358883112013,2.41151542327886,-0.152252795888154,-0.0576789868353006,0.00509052168582259,-0.0741644189803945,-1.43993720528637,1.89222601083255,-0.0456065494673202,-0.0359316251649262,-0.0288253847253366,5.39430360386494,-0.000441116735018877,-0.00185326072656919,0.00115046057966633
1.32,1.19868830459788,2.20954503650364,2.4242766447364,-0.141859912076502,-0.04858692934991,-0.0344576159147003,-0.0759429603499583,-1.48727809986418,1.92083639778061,-0.127292780468866,-0.110793929234956,0.00608249907186091,5.36225862042902,0.00134066077762568,-0.000637977892202434,0.00136254318461115
1.33,1.26454040345941,2.25259977554115,2.50571771941136,-0.113989335612647,-0.0179816550631398,0.0382098070253626,0.0368810817922237,-1.39704515560111,1.94122565123685,-0.00319297066909248,-0.0153208663781933,0.0614297121458679,5.31420333594715,-0.00365146308450259,-0.00382683602764663,-0.00463451814501333
1.34,1.28027223347535,2.25091790430818,2.50310728854941,-0.083215453665154,-0.000884194373970785,0.0435505842051474,0.0243918401955301,-1.46461928722765,1.86883971223349,-0.223007921824953,-0.156348863735201,-0.08278238799625,5.37736743726219,0.000741603530658406,-0.000914646965493974,0.00193095488304496
1.35,1.26978384490713,2.21331946549569,2.47168571601689,-0.179848355046971,-0.0649067644242638,-0.023881833229771,0.0327324630338263,-1.51691732605754,1.93160270291601,-0.0542208403577996,-0.0425030124974759,0.0510911941386365,5.28256242296816,0.00111151870559397,-0.000959340019396093,-0.00127282150254747
1.36,1.26798202948307,2.18041862502239,2.49493133745514,-0.11674842239166,-0.0216157297335817,0.027609903032329,-0.0224054740646762,-1.44245757844722,1.86226756054497,-0.03857804856617,-0.0561514341373133,-0.0204214601426757,5.36217895489168,-0.00231204040113508,-0.00294442932890956,-0.000284480969980223
1.37,1.18023130151138,2.12387115692057,2.44306004263514,-0.17386532375573,-0.0911316651544617,-0.0631867849468277,-0.0863013689759901,-1.63170539661787,1.85940959494409,-0.231164658415259,-0.183269787521299,-0.0517277735897986,5.34517439493001,0.00642499525701982,0.0022738437494669,0.00545054188385372
1.38,1.2534700136367,2.14896953178851,2.52288938694769,-0.164729980064909,-0.0593638885374233,0.00468701113179671,0.0125745220373945,-1.44341475133893,1.95923036988248,0.194131537304754,0.0932453531834668,0.142181938158118,5.23381855401691,-0.00586174708672617,-0.00553506410006439,-0.00689026153823839
1.39,1.25221332221903,2.1651594489667,2.55749235396133,-0.021273622176623,0.0196096813291089,0.0618520010205444,-0.0207854175224147,-1.50855467497807,1.80561061549488,-0.330239389547762,-0.233025002727325,-0.145543196630187,5.4270554723301,0.00108972425319968,-0.000859842690827851,0.00407380726824797
1.4,1.22055260110151,2.11524788860575,2.48664326012497,-0.25442097978806,-0.130805697971725,-0.0795340278855409,0.0239607849905762,-1.69125275474444,1.99915214393816,-0.0726365285559359,-0.0574918408232262,0.0712129115924139,5.18913230827174,0.0060407492387607,0.00124379930100046,0.000399259730469515
1.41,1.21343353823836,2.0175417141917,2.51247679562423,-0.174802543109756,-0.0743325031611072,-0.0123656443913581,-0.11884405308298,-1.51565609117621,1.82282885733287,0.123635697750441,-0.0136728689861253,-0.0237196506507552,5.33112136857557,-0.00304303565873421,-0.00272926940888815,0.00171673818346818
1.42,1.21008391007823,2.1070165985976,2.56442044122574,-0.0550853072867548,-0.019681276777142,-0.00587664397992736,-0.00848666538340759,-1.55831461308431,1.91722715013802,-0.211060955968041,-0.131495089134646,0.0384006955097386,5.27132155162764,-0.000338243036327301,-0.00180000979359614,-0.00146876051862361
1.43,1.28684239472606,2.13014815790907,2.62598625192422,-0.151072936466878,-0.0295985622298528,0.0514881606618029,0.102373765834363,-1.60900373479136,1.88022420341943,-0.0689542152876653,-0.0676730688014234,0.0022405681927186,5.18439722662491,0.000511127471332447,-0.00195317450853577,-0.00251649013692683
1.44,1.28834732192604,2.06618795198866,2.55197974610163,-0.128007150538813,-0.0374331749871652,0.0063774209031647,0.031635156954796,-1.56948387070352,1.76064048914971,-0.0632060648272449,-0.0985928066525774,-0.047465435124109,5.33206872447052,-0.000538251838674208,-0.00126333609980159,0.00196967280847989
1.45,1.27477474728042,2.08054941258405,2.55589291404361,-0.1171503508058,-0.0419056928842013,-0.00408950060607208,0.0543263849692981,-1.60891711386283,1.91494681888223,-0.0992584529456162,-0.0635596783449483,0.0551788760021456,5.20387479825816,-0.000136975239499373,-0.00210255020913713,-0.00238677537779228
1.46,1.26131701265739,2.03442635368695,2.60147994939432,-0.15086024677665,-0.046442170536543,0.0171708556170126,0.0189154399138122,-1.64954178105956,1.77224395012937,-0.097400869884115,-0.116380276914105,-0.0535258058228951,5.26841975869173,0.0017388685431646,-0.000764782600282451,0.00172834063943147
1.47,1.27421640813074,2.0366293363371,2.57436823395759,-0.128511533734121,-0.0473866933974838,-0.00479976059014142,0.0558835208653082,-1.59859936509664,1.8651180947678,-0.00439674573946855,-0.041867834413279,0.052819822066126,5.21683996180724,-0.00194348159071844,-0.00257354374457084,-0.00224350727464409
1.48,1.23389462079613,1.98797034850657,2.58412415186796,-0.139079396521567,-0.0647063224033235,-0.00773059218348959,-0.0177578492747192,-1.71090975796812,1.76736810868797,-0.19173374361803,-0.15599644253712,-0.0717917713384731,5.26872918872603,0.00402899945953895,0.000471999801779351,0.00376794577060439
1.49,1.26064631695535,1.9930905418352,2.59673816837244,-0.168124575901494,-0.0673936635035393,-0.0153591888418923,0.0498605975402292,-1.63879777270897,1.8709018292648,0.0860343280082451,0.0066482952345587,0.0949607485480344,5.1727843869153,-0.00211473878034531,-0.00325218132842422,-0.00375469195596829
1.5,1.27425147689537,1.99673576320368,2.64242733209747,-0.0632890099736496,-0.00776266062146946,0.050037128209483,0.0363525288026215,-1.62401230470581,1.77683691946857,-0.166165586983402,-0.148468504361409,-0.0711707247417841,5.27164204365634,-0.000585740987274557,-0.00201066296571921,0.00105460960650106
1.51,1.25519190542172,1.97592858822898,2.61220252960844,-0.180917830417077,-0.0854537696364223,-0.0345492190944677,0.0764967064473142,-1.77964710788625,1.85846593517012,-0.11944007558747,-0.109117949620322,0.0189915048230492,5.14121136776372,0.00422463736515528,0.000521105731623826,0.000734049009391737
1.52,1.27860320347022,1.91873161028839,2.63154719250002,-0.155119878468876,-0.0609511055781106,0.00787701671060967,0.0175394423697055,-1.6384215494665,1.75511319233634,0.0860643245230214,-0.0108125322663301,0.018570787434481,5.23025410099994,-0.0025336910668083,-0.00326535477184017,-0.00123880210024293
1.53,1.28611077170009,1.98670468944958,2.66293607466485,-0.0458245952911121,0.0038767584105527,0.0397717736333452,0.0892510458310946,-1.65246290480803,1.85092384501428,-0.165655844769596,-0.134410217995895,-0.00115340218728496,5.19484850741958,-0.0013685974308757,-0.00292112459434714,-0.00175680797985598
1.54,1.27853666966766,1.93761194180042,2.67380151425237,-0.177282534059343,-0.0759928050841531,-0.00247872763868218,0.110489481411937,-1.82516933886687,1.7999893316108,-0.144331422564108,-0.147178612518878,-0.0373395851231375,5.12441495985099,0.00491303485366114,0.00121229983244224,0.00188686285016708
1.55,1.30665242035349,1.88329116359513,2.64904388117017,-0.153053676860786,-0.0672444183406679,-0.00299696407057942,0.0538231478330448,-1.65555581268462,1.74959545742825,0.123068476668671,0.0275323532828583,0.0534965247191154,5.19932391790058,-0.00344870659906336,-0.00395859417643416,-0.00237119081350295
1.56,1.23921772164767,1.88591343647438,2.63549463436709,-0.0863317686949318,-0.0372493681243903,-0.000910493021286728,0.00838250319576583,-1.78231337833897,1.7743694687399,-0.248249418647911,-0.209191605646192,-0.0711928372344776,5.20689855638466,0.00343182010421649,0.000109889971782631,0.00341829151469363
1.57,1.27588500522553,1.88483954054807,2.69685746576342,-0.189911468533708,-0.0887419879292244,-0.0121088510996775,0.120420920101434,-1.78475755528979,1.82082516126045,0.0652949566390693,-0.0078628921305823,0.090399599933241,5.08066229415767,9.51411743706186e-05,-0.00199166812874548,-0.00370862219770115
1.58,1.32812995674642,1.88413604353773,2.71723696944772,-0.0511165096329137,0.00759196847402901,0.0719351868106364,0.0846144638945852,-1.64339393320031,1.73636646328463,-0.054675714441882,-0.0844815107266654,-0.050211511132399,5.22006042319013,-0.00363201020942646,-0.00463791155755564,-0.000955708241534815
1.59,1.26540116101276,1.87118380509853,2.679218929654,-0.147227319117088,-0.0703563556720572,-0.0313992520804582,0.119473943926845,-1.90605390657045,1.82022299625173,-0.245963165120279,-0.225220782740348,-0.0303986608035714,5.0751384451029,0.00661419055613945,0.00236647972237767,0.00293043697889588
1.6,1.27243898551747,1.75835045443628,2.67654434986729,-0.231378240824179,-0.13783660454078,-0.0389969114856753,0.0281047921263839,-1.80473281016399,1.65946348585828,0.160506031085867,0.0414232802669311,0.044950861751628,5.21720734563945,0.000267443354420206,-0.00186338167496744,-0.000290326920112222
1.61,1.23903816898193,1.7855761636146,2.650509690763,-0.0677914576469912,-0.0268483443949651,0.00145554767303793,-0.0079983989295922,-1.76607574466891,1.87566735884381,-0.0905451441117296,-0.125245728652466,-0.0216660266611424,5.11539720539136,-0.00134185118930251,-0.00305001161092522,0.000959850989364882
1.62,1.2627749238977,1.81917001041278,2.80379630157279,-0.137734029235664,-0.0644595765840148,0.00284876483458742,0.144370281174428,-1.88456820812943,1.73173484932522,-0.13038934077622,-0.145932867288408,0.0308805451075056,5.05156101615022,0.00313776256011047,0.000254875863486686,-0.00160030689141344
1.63,1.28467619244335,1.73587584230955,2.67982570759579,-0.181923777257415,-0.099453741476864,-0.00589514674645567,0.0566689095763899,-1.85112818871264,1.63951725855896,0.029781527638943,-0.0433425606655055,-0.0464904717339283,5.1986105464736,0.00142802842834157,-0.00123272515857245,0.00246599936185124
1.64,1.26738958709206,1.75229345373473,2.68646515811389,-0.105200178840448,-0.0483628296527045,-0.0213277415980491,0.0598294527902609,-1.81988976324555,1.82224724203969,-0.0294206892721503,-0.0892717952356557,0.0505141578242294,5.07553728473704,-0.00090389240336242,-0.00271269934597178,-0.00138890311296694
1.65,1.24178876090591,1.72212901107667,2.75756184541658,-0.153049298080208,-0.0904057196872743,-0.00739057633116875,0.0756168989637716,-1.94307251676277,1.64963259992694,-0.142621895473844,-0.169616915763245,-0.0518907236493583,5.12600649800971,0.00488487369221719,0.00122795450644163,0.00279666550894533
1.66,1.2990061709942,1.71948936300964,2.72383816233206,-0.153066743545759,-0.0804553052320144,-0.00685216660565974,0.109567598197114,-1.82742401053859,1.75798701642317,0.127389311023017,0.0251703584526404,0.0753582713450538,5.06187117799727,-0.00251724581260425,-0.00394174177629513,-0.00324148412205618
1.67,1.27205398549619,1.70927105185716,2.75539720391182,-0.0773220257834274,-0.0339162016768827,0.0184035965798265,0.0701627505860301,-1.89148719106341,1.65798921648748,-0.197602070933462,-0.205291936186128,-0.0807492290052791,5.14582566791329,0.00257023318011334,-0.000462003173943334,0.00294123794380219
1.68,1.29344615271145,1.71073414551888,2.75804935723744,-0.178664316595449,-0.0992511582571057,-0.020984551482279,0.181509272624793,-1.95048902984059,1.76731774579713,0.0293156193439888,-0.0411862573632765,0.0757111172251764,5.00118370599989,0.00157966926603349,-0.00109234919546551,-0.00260259977052251
1.69,1.33195337206281,1.67194189877904,2.78706064089311,-0.0896476852046645,-0.0312641237216029,0.0444015057269801,0.103918009121442,-1.82200704242762,1.6402009851154,-0.00574356920850511,-0.0738734708524822,-0.0431720586112178,5.12388706647254,-0.00196744004828548,-0.00361597885931242,-5.16055021198136e-05
1.7,1.28426561714218,1.6876506588014,2.75886101905994,-0.122426876529675,-0.0647399484575517,-0.0203058332713538,0.161506048665235,-1.99427999539365,1.72416597184083,-0.166244798024028,-0.185667425470284,-0.00405904975299948,5.03020854126916,0.00421897908753399,0.000736009833601862,0.00114044925073441
1.71,1.3173148486211,1.62309079329192,2.78543832557014,-0.177830926596854,-0.101319816713245,-0.00154914722949022,0.143144419655269,-1.93531151424484,1.63796313402155,0.0923942127258584,-0.0105153519371217,0.0284128215035771,5.07143851911763,0.000179810804216506,-0.00201870178508527,-0.00128369410612084
1.72,1.29695073992887,1.61902908035769,2.75858626838178,-0.0858988420202925,-0.0423922168152053,0.0059687443935065,0.0899857436767055,-1.9122426549346,1.69165318640187,-0.0790507848019388,-0.127923375235183,-0.0325022817473635,5.07783468807645,0.000199160157773426,-0.00221989607790957,0.00123918238239651
1.73,1.27759040152188,1.61457962812476,2.80465191054037,-0.155959435784478,-0.0924259951593702,-0.0222710174373445,0.164267282191949,-2.03790309768975,1.67827241242399,-0.080817479000729,-0.135855086239337,0.0200815709457638,5.01120230433672,0.00400267578689266,0.000472516515052912,8.73381288704901e-05
1.74,1.33760193199307,1.58760033684419,2.81151404101495,-0.128245185196017,-0.0660306440597203,0.0255665181356763,0.155475571569967,-1.90102426936366,1.64578794531563,0.100447729506586,-0.0102961309499156,0.0197913872906017,5.03879439245266,-0.00237159592099127,-0.00374597551484096,-0.00214853419236729
1.75,1.3098805510002,1.6011399465143,2.80796612219985,-0.0758892790757671,-0.0377894101916142,0.0108884928543492,0.156065672084055,-1.99484651839653,1.64342643593754,-0.175484785277518,-0.190486079100034,-0.0451699465365093,5.05159075090411,0.00257269633632413,-0.000623909313361624,0.00160698661842174
1.76,1.28801775422525,1.53117181098633,2.78618471629537,-0.208785269667065,-0.134324141979288,-0.0437953841226814,0.165623448808076,-2.10759269725078,1.64446467452327,0.00267247186899744,-0.0847531129339452,0.0159503860179374,5.03878567788241,0.00502137648429396,0.000663427798941159,0.0013074482225348
1.77,1.35003566608019,1.53278505672703,2.83235421402341,-0.0873242139448553,-0.0393993748239684,0.0326924635202784,0.150324590842883,-1.86324287223437,1.72171984150684,0.150079691396981,0.00269081075835646,0.0524227338326692,4.97354759435302,-0.00542641333732511,-0.00584714338818245,-0.00400740472968528
1.78,1.28827841871586,1.55154514778912,2.86322146858961,-0.0756318407601027,-0.0561196133456238,0.0057204575541611,0.175442184358756,-2.11434693228895,1.56208543936019,-0.314746660560757,-0.289943596026584,-0.101832339474337,5.04216747326443,0.00689050322130823,0.0023730715027018,0.00454754316799965
1.79,1.33089231480965,1.48097148248642,2.80067124812144,-0.234563919940399,-0.152205580126404,-0.0416749855335025,0.210330820273464,-2.09498149955727,1.66381395569813,0.196947929913914,0.0610882197505682,0.101929011939024,4.99987801975751,0.00137609094251438,-0.00205816774489662,-0.00286186793862816
1.8,1.31608672224973,1.44587001082202,2.82176837353311,-0.0546580454932814,-0.0262382800053758,0.0274453367523304,0.0795140745611611,-1.94635445616344,1.66579142696956,-0.0353795564682569,-0.138835573579766,-0.0741521860401676,5.03007063872861,-0.00168829424381929,-0.00333043695346579,0.0021862995369621
1.81,1.28222041443522,1.49971616738721,2.89241810626612,-0.13908620944225,-0.100715828171644,-0.0360834633679041,0.241428036890942,-2.17467382549559,1.64635203187157,-0.153550169099024,-0.181708515841296,0.0411389630546643,4.91421163677217,0.00595631541147619,0.00180808503720825,-0.000248071435989208
1.82,1.35737492519647,1.41618417244016,2.85367037653958,-0.173361861280495,-0.102047397256429,0.0176769681163302,0.172239147675708,-2.03071747222969,1.53310056583952,0.172904608495587,0.0241012383727247,0.000754157430180266,5.03598242633619,-0.0010669358873072,-0.00330898507285205,-0.000885030192980781
1.83,1.34280145029794,1.47221173510839,2.85461393678237,-0.0293323018125366,-0.00942501055719874,0.0234743450278639,0.201121878935123,-2.00553984575853,1.67139855758009,-0.101733360649685,-0.161106382421319,-0.00226080138882484,4.97641997303839,-0.00100107731491482,-0.00301277548329735,-0.00101545393865726
1.84,1.32583088197565,1.43808299454005,2.90251468930964,-0.165696928591763,-0.111064168195392,-0.00909035717526206,0.283057631408098,-2.23949209537743,1.61151140236062,-0.121880790587806,-0.173441276817244,-0.0274365058473091,4.90911294626543,0.00690726999342344,0.00225069096949359,0.00173000149167333
1.85,1.37618233969052,1.34874852548809,2.86040554719373,-0.161207986760214,-0.10571077542569,-0.0117701454154233,0.172650835023734,-2.0336084969325,1.53413375853812,0.208690707766767,0.0421719614536732,0.0415191564803968,5.01104971391872,-0.00227064456657346,-0.00393832958772599,-0.00141895695658661
1.86,1.31993780705613,1.40416801418099,2.86663438779881,-0.0382059244389222,-0.028179299856171,0.0161651041998425,0.183549283603743,-2.09003803042906,1.61864720657801,-0.169053725315356,-0.206154547417802,-0.0337755397652664,4.97389726394105,0.00168475334505024,-0.0013578617067534,0.00080568427943645
1.87,1.33078190488583,1.37580264580445,2.91397088182804,-0.186331369736848,-0.125568066447622,-0.0176866210857435,0.292454725755794,-2.2519813068239,1.60610937622463,-0.00770877445983972,-0.102932758225421,0.0166926427149257,4.89340882659117,0.00519143281391249,0.000957471793934711,3.89449056571739e-05
1.88,1.34919910781586,1.27110318364473,2.85884229483333,-0.145233415962697,-0.105442133651003,-0.0206899602935117,0.133441705483881,-2.08959220425357,1.50107964089027,0.119341110389364,-0.0357105780225196,-0.0182605290918763,5.02585275076802,-0.000266057636564876,-0.00248882786468495,0.00181936984543917
1.89,1.31175646038841,1.34632801279206,2.89016942195212,-0.0734725765089191,-0.0600040933570535,-0.00909683397662193,0.213237615528412,-2.14523274548585,1.6290322244157,-0.0841449529452247,-0.15235969695379,0.0365626276073222,4.90086319670483,0.00153013899155858,-0.00137865865811778,-0.00132937506986689
1.9,1.37495479931487,1.3453511322543,2.96947577305386,-0.124080475245649,-0.0758464482946912,0.0400885301194414,0.317737826287435,-2.18804668012831,1.53357502059276,0.016491257760782,-0.085741705532986,-0.00474357937647044,4.88349501162198,0.00145984666740057,-0.00137192920508899,-0.00168935621035015
1.91,1.36579458869847,1.26146818503283,2.87419783797565,-0.128356640047561,-0.094802407099109,-0.0194591673893809,0.222548782865196,-2.20382851209957,1.46588602988022,-0.0247022944741313,-0.12136867732352,-0.0493232000933183,5.00561678322351,0.00319326393391715,-0.000452197042284241,0.0032327782455745
1.92,1.3237841029332,1.23636470588756,2.86157499105865,-0.153085500380059,-0.120248793393902,-0.0485001001164722,0.21172286864464,-2.23495852098141,1.58170962886881,0.0366414251548969,-0.0920071643347035,0.0477912560830221,4.92485455881628,0.00302852683909498,-0.000559152460941101,1.13619321709814e-05
1.93,1.38118224002805,1.27268021876263,2.97456860465938,-0.074118896916489,-0.0511769882179167,0.0467423652513249,0.272909486009525,-2.10397188120554,1.55896833997605,0.0810499071149885,-0.0524647462380648,0.0253847752065716,4.86650676190111,-0.00249317134268517,-0.00408562026366701,-0.00342302356512532
1.94,1.39333718041091,1.29600739828582,2.97474311563087,-0.0632729622984856,-0.0455842607986814,0.0349708504721429,0.345728557243536,-2.2455310323776,1.49016706257611,-0.14971696414593,-0.195435842027332,-0.0542183682348597,4.89291482225706,0.003366119845002,-9.40109858148079e-05,0.000894516462495892
