time,x,y,z,roll,pitch,yaw,xdot,ydot,zdot,p,q,r,thrust,roll angle,pitch angle,yaw angle
0,1.01841953230695,4.01841953230695,0.0184195323069548,0.0184195323069548,0.0184195323069548,0.0184195323069548,0.0184195323069548,0.0184195323069548,0.0184195323069548,0.0184195323069548,0.0184195323069548,0.0184195323069548,9.02632002930371,-0.00901293943106372,0.00045088377716923,-0.00179247037494717
0.01,0.619371765481798,2.4193717654818,0.0193717654817975,0.0193436853316022,0.0181917589477085,0.0181725113705161,-0.0611424848925424,0.0976351584953044,4.17261912580452,-0.357261641673703,0.0275591840882123,-0.0282866722009082,5.83138678918497,7.53564275287295e-05,-0.00016654226938859,0.000447896619725222
0.02,0.641823023255633,2.70379550596688,1.6920910004784,-0.143518304207716,0.0126627777880802,-0.010234814463349,-0.0215452507039102,0.026671984972973,0.979253605263971,0.000830426300638186,-0.00245311118149858,0.010429613561605,7.08818146238033,-0.000417470176155444,0.000933661958851308,-1.49425494154672e-05
0.03,0.664057999493598,2.67967269050935,0.425653403909035,0.00490921851490029,0.0057794039836484,0.0108403417990886,-0.0278001824031898,-0.32340305832424,2.28762019971354,-0.0150461678164169,0.0419474053121105,0.0049573708350391,6.98982568870142,-0.0050995789034017,-1.33531175674911e-05,-0.000760669616572002
0.04,0.638569094921407,2.51238037638326,0.984446372801911,-0.0213601605958807,0.00391151407929913,-0.0125391374196293,-0.0422683258519975,-0.0257134897244777,2.16626253966426,-0.222385540750505,-0.0110473244378053,-0.0275013617187806,6.70427010292302,-0.000191484645473081,0.00148017240670039,0.00187396275800696
0.05,0.685651420071124,2.68930598108971,0.955545296298472,-0.0600777171801594,0.0283381568498052,0.022235032376678,0.0369854658758186,-0.00105655857178094,1.93766366934538,0.0133071933793147,0.0849958417426485,0.0663155631757422,6.8744574609557,-0.00457153272754097,-0.00205402130854811,-0.00419153447772627
0.06,0.678089927541782,2.65944757082986,0.851360571848916,0.00392618892162785,0.0338979864235218,0.0254697181390956,-0.0628107621303481,-0.14064253247612,2.10608329903222,-0.192343343693539,-0.0775921721562933,-0.0884404208681121,6.85455277091254,-0.00186135850558667,0.00147101822047827,0.00297621522646689
0.07,0.677580836708189,2.64256540099991,0.976635826366566,-0.0467800983275703,0.00497749225545907,0.000742432213213975,-0.0240343377245478,0.0374205404377481,2.12974964232976,-0.0558372294717093,0.0884871666182804,0.0908277123004932,6.72722486873169,-0.00390287731181606,-0.00131811607931065,-0.00434891848123298
0.08,0.657568817096052,2.67918676809122,0.953047847780045,-0.0213188863926849,0.038816666273256,0.0387387463496924,-0.0181843416337278,-0.104277359712122,1.99692991009774,-0.165074101089632,-0.0473749890962711,-0.0887666187138334,6.84748001764421,-0.00171264908318162,0.000492221762403866,0.00236777468199103
0.09,0.675932936343209,2.63726168884259,0.93481726057519,-0.0550305730751128,-0.000493374150039416,-0.0184070119256653,-0.065137637323662,-0.0485082383200779,2.14624373734294,-0.0666734737021667,0.0363580849160003,0.0629691988052927,6.71669211366731,-0.0029495040911041,0.000100556992530957,-0.00212468579688171
0.1,0.606413796205082,2.60985961899452,0.958962721752464,-0.0605916522112154,-0.0130626250806827,-0.00235896008162455,-0.0692619027616294,-0.181563074066402,1.99626381144717,-0.153892550587553,-0.019606438556655,-0.0688506711817169,6.79482427004617,0.000292796174141389,0.00194199032137593,0.00335881761644464
0.11,0.62541966820616,2.57555040815021,0.931477160521803,-0.081027714654585,-0.0206325316817844,-0.0389100842511732,-0.0202348732839964,-0.179050300909209,2.10674332353265,-0.0116081813888267,0.0677946520190774,0.0592753355964168,6.71016803041439,-0.00233848383579764,0.00026198581038016,-0.00097748111115242
0.12,0.684527497643714,2.61538533663104,1.02596919366492,0.0119187033419401,0.050703897922788,0.0462030205253333,0.0488546158696378,-0.156396687797914,2.07722624433524,-0.0887170863532287,0.0310965457973287,-0.00159156616272249,6.7603176246874,-0.00509270642330382,-0.0021593761379655,-0.00209539971626843
0.13,0.668953643739049,2.57882392233274,0.995647102181804,-0.0552859724214243,0.00175811053604653,-0.0147963987210902,-0.132954028997064,-0.0627937373506816,2.10889791608384,-0.230165261306593,-0.0922515958830819,-0.05540456198696,6.69756931779032,0.00114840109763825,0.00276524705084928,0.00331656210315072
0.14,0.624307922297047,2.64804829523872,1.02486723836377,-0.0893493433183991,-0.0256091093529183,-0.0083725246513808,-0.012227037004408,-0.137001742406811,2.0834415049151,0.0402011071574716,0.119383039114332,0.0785337873062498,6.66252593574773,-0.00393211376962371,-0.00102241241565383,-0.00333102468059742
0.15,0.650623897087622,2.5940413423424,1.02312674749171,0.000857458439755487,0.0403520975330157,0.0221789599633436,0.00507573938987299,-0.230945543599886,2.05848886390621,-0.18203906547808,-0.043248731054276,-0.0771116203977507,6.74849716935881,-0.00207709807661017,6.95221640535019e-05,0.00260571286874416
0.16,0.664896905030148,2.56086695096519,1.03710101353266,-0.0851438883485363,-0.0177526511962106,-0.0329574482554197,-0.0981637794326657,-0.0824884977844174,2.15695418186841,-0.103504687812552,0.00551812135804047,0.0522025261311228,6.60058363426767,-0.00080696287446269,0.00121754059136738,-0.000924504742989193
0.17,0.595795482255877,2.59674258739473,1.04694499017077,-0.078127528611403,-0.0222424367111161,-0.00348657254271042,-0.0463304655741313,-0.259861940582709,2.01295944030161,-0.0708590391293313,0.0257765921018415,-0.0416076924808257,6.68824040891999,-0.00112864071861803,0.000964008415239336,0.00212366130863354
0.18,0.621416701037359,2.52579871441878,1.02203004431889,-0.0631470552698776,-0.0120981048996528,-0.0402879482729471,-0.028904702211051,-0.261713406805201,2.1179378663574,-0.0829452618091116,0.0202489952133105,0.0244119030723096,6.62970719490586,-0.00143403273430308,0.000697027620754487,0.000739107055971245
0.19,0.675466767246047,2.57211645694714,1.11741100219713,-0.0260587499564723,0.0280876886811209,0.0283136207859023,0.0224537490276704,-0.16939563235659,2.11035580727979,-0.0606519502002089,0.0440057657386283,0.0310203675384032,6.61922087826995,-0.00444373594644568,-0.00177037113026341,-0.00280086455824599
0.2,0.669428365298341,2.58224309799681,1.10409909406357,-0.0366391140109026,0.0178388516605871,0.00974550507628448,-0.0662864165857397,-0.151472481658597,2.09632259574827,-0.200092544367767,-0.067559649927955,-0.0605278570797644,6.63139473267405,-0.000663215051858048,0.00128974791380754,0.00240372791246955
0.21,0.618931605422842,2.576268935243,1.08948085134913,-0.107644413961312,-0.0407550150347185,-0.0374524712450241,-0.0782159241507527,-0.194415483114995,2.1129753749134,-0.0607901539663074,0.0425824418802861,0.0377152850129682,6.56417682659751,-0.000627009137700509,0.00105363791575214,-2.46493725273079e-05
0.22,0.616294170073519,2.56008257377816,1.11156695757233,-0.0525042275883573,0.00403464686498847,0.00115622036273366,0.00320591350930988,-0.305150952236014,2.08018277484876,-0.0581151582150955,0.0303368647799972,-0.0128447644803442,6.59482169182507,-0.00280202939001847,-0.000448660154879132,0.0005494526062705
0.23,0.684697324466892,2.54536051242741,1.15753954840402,-0.0207871719945938,0.0307329319204214,0.0102416238335913,-0.00210858289826594,-0.181240130375531,2.13808889892109,-0.120861770982079,-0.00113370564910774,0.0251034804108731,6.57109286801139,-0.00342685099131821,-0.000956080133261863,-0.00166309790664245
0.24,0.658302892809822,2.5741750904923,1.1635837406161,-0.0638140885913454,-6.4817325710902e-05,0.00824981378800933,-0.0698852934368672,-0.169792648875608,2.11469278071595,-0.162028887468676,-0.0363742375844897,-0.0364600606612833,6.54279115825091,-0.000609315252301682,0.00111559276776338,0.00133163885488519
0.25,0.644225931312562,2.5929092633506,1.17125387289212,-0.070389147801787,-0.00297683287102016,-0.00398759675095364,-0.0108463801513703,-0.21356365708717,2.11483885361159,-0.0398680136603969,0.0546840475342411,0.0359737649047676,6.52331621019916,-0.00325706003600814,-0.000944995066548549,-0.00151708350272522
0.26,0.664918282449629,2.56904975986383,1.19106906018408,-0.0239045708172963,0.03063276703384,0.0205998087143051,-0.0116065535307344,-0.23247307161334,2.1105736338542,-0.150122222084884,-0.0283813281178194,-0.0262366294192583,6.55492027322521,-0.00258697328763105,-0.000483567039276541,0.000280192209489741
0.27,0.672396765603901,2.56797939858841,1.21054996602584,-0.0624531460580694,0.00530731125144154,0.00337571562783531,-0.0450539769515785,-0.167557712780306,2.16060019842797,-0.118005660986399,-0.00395319602579206,0.0173848860707894,6.47346591066618,-0.00208135043028897,-2.43356808913192e-05,-0.000982720014151195
0.28,0.649748693881042,2.58679224360311,1.22660547412416,-0.0569521339098079,0.0076313178864002,0.0144073079129254,-0.0253153865102356,-0.228559455583299,2.0910769820013,-0.104007166046576,0.00662434329748765,-0.0150697237528138,6.51068710801978,-0.00245123652391369,-0.000431331111733155,3.43056099632415e-05
0.29,0.622253015002083,2.52348194951606,1.1865861989001,-0.0850425158494167,-0.0207697319492687,-0.0315470416866454,-0.0829683395035685,-0.286743522567299,2.11377956735078,-0.147452262860682,-0.0351762265475963,-0.0211513870087434,6.48471669372054,0.000420742242638703,0.00162315256677222,0.00248877470106654
0.3,0.638392167673036,2.53917642099941,1.24010025789418,-0.0705406453203304,-0.0054905352193779,-0.000377690379993075,0.00193238861595382,-0.273518225797637,2.13896105003061,-0.0044380929937704,0.071266143912648,0.058261980596492,6.44103358028305,-0.00410066609682371,-0.00155547189738535,-0.00273694739457596
0.31,0.68548271661474,2.55388625909571,1.2830767799302,0.00144557210738763,0.0503285621734147,0.0428263373302946,0.0113250429820322,-0.236462147180901,2.11864504702822,-0.177735218312528,-0.0402873594627147,-0.0406654814806442,6.51459550936388,-0.00339693710826846,-0.0014013989678021,-6.01724935901049e-05
0.32,0.678821697135005,2.55845961173629,1.27683516800523,-0.0775543072617168,0.000370817511580385,-0.00372100710640515,-0.0704941707327147,-0.174073196748462,2.20181002741427,-0.155975759483139,-0.0393959841037047,0.00948344573883779,6.37706837186891,-0.000861942497524524,0.000749774951292023,-0.000269558624688265
0.33,0.579601031928141,2.52078007189308,1.24896154069197,-0.128502148712435,-0.0593233608258773,-0.0398107068652573,-0.111502330489387,-0.360344942210896,2.02689192517541,-0.102998090314121,-0.0069093032124572,-0.0441488152468899,6.47226314233289,0.00153301033507347,0.00215865833281331,0.00396998611092054
0.34,0.614710481224976,2.49179382476958,1.24918322072702,-0.0672961316014606,-0.00709495644555203,-0.0217124888447409,0.0218221741887654,-0.376393534054821,2.19707153803083,0.027372971100621,0.0823224278545538,0.0794697435306888,6.36773812717336,-0.00471377399215574,-0.00198285501586671,-0.00272676443971237
0.35,0.665517372102156,2.47458224571936,1.33943383567378,-0.0155455059511496,0.0266450393989292,0.0239826821599049,-0.0334358807458991,-0.306024870225725,2.07960863491914,-0.228357458182179,-0.0795389759858079,-0.0631625210016421,6.46522966607987,-0.00111760170204587,0.000397550013300955,0.00187867454009511
0.36,0.653869253527214,2.51923500062182,1.30385139208522,-0.107805160923078,-0.0240316519978523,-0.0187015586586092,-0.0490852848554323,-0.239803849645529,2.20058880512288,-0.0734806491014692,0.0256108027121009,0.0444017347233285,6.31963275289833,-0.00136267135293328,3.41094318429863e-05,-0.00121948923635594
0.37,0.627655610836927,2.5279123954544,1.33781703814189,-0.062223261475045,0.0019178248140461,0.00816066119190813,-0.0255874533787088,-0.360453700791747,2.06965382659542,-0.0961108151650907,-0.00598642262093951,-0.0341783127451318,6.41315140059791,-0.0023107193057375,-0.000392993668368495,0.00124031191753017
0.38,0.651116003780581,2.48516649133717,1.32918953116377,-0.0623270158542508,-0.000287867155312008,-0.0140614916237973,-0.0309113677997933,-0.31414301789143,2.17300460100719,-0.127059230815668,-0.0125574189943838,0.0260100691540819,6.34381704138742,-0.00180065312284079,-0.000156220319003103,-0.000557794212208793
0.39,0.680413778509496,2.53825630933562,1.40358677693363,-0.0447024090684616,0.0267741375072185,0.0402733404647829,0.0200900707570855,-0.265134524221714,2.14499337808393,-0.0817311714458831,0.019597484465419,0.0133988022443874,6.34458656828517,-0.00419672862667096,-0.00222762775966188,-0.00250595875110984
0.4,0.681687163824112,2.53692902774443,1.39050959563126,-0.0413560828190859,0.02539970371498,0.0196073426257255,-0.0273682032905689,-0.280343444473049,2.14635526159149,-0.192170272151562,-0.0719536300952739,-0.0402151253019327,6.35313612400777,-0.00164442919817008,5.73276339110003e-05,0.00100545482195529
0.41,0.651041554671176,2.51959514240047,1.39008529822092,-0.0979382967006941,-0.0221225764327198,-0.0107573315613958,-0.0483862029676067,-0.300508087596618,2.15903995280439,-0.0995973437097978,0.00907703750342408,0.0247906404382622,6.28454216529981,-0.00129964842049542,6.85821883986197e-05,-0.000662191046387247
0.42,0.618633749965562,2.48614044930107,1.38435140224191,-0.0841290960893809,-0.0126577899605641,-0.00732008276502196,-0.0453135183558005,-0.393002271813178,2.09445624502174,-0.104408526889863,-0.0118141902123039,-0.0292657117205752,6.33144981530313,-0.0012328013015716,3.43247654695969e-05,0.0017373640913831
0.43,0.641917666146173,2.46433937042106,1.39970350156772,-0.0704919037457298,-0.00463794279901105,-0.0131537811385905,-0.0241131735684006,-0.366844438592391,2.16466920195947,-0.0888350195562097,0.00187901614368854,0.0351993925513422,6.27983498271724,-0.00247183151046863,-0.00064438250034479,-0.00103136742714827
0.44,0.652521865548714,2.47681505164446,1.44174589948769,-0.0604608603920098,0.00444625409280559,0.0164567702003968,-0.0239167777297836,-0.352602053687104,2.12682560271033,-0.136275677702082,-0.0228939215133333,-0.0199646367670455,6.29302453585317,-0.00194667566763949,-0.000479175607669781,0.000185944137764547
0.45,0.636679754344286,2.46613932681689,1.42275985742453,-0.0938469039865026,-0.0183870653305619,-0.0187368494317356,-0.0516973134180395,-0.375195481340882,2.13994061422592,-0.12718654321061,-0.0258871101126643,-0.00542491125623406,6.26135212247741,-0.000551567588678073,0.000483168148674403,0.0011497912033638
0.46,0.631000671650296,2.46191603416963,1.44294517857148,-0.0867220444085413,-0.0158095713917221,-0.00825216563156084,-0.0283868584178297,-0.401650993233749,2.13307520425486,-0.0675460777922693,0.0140322048525241,0.0186369235903157,6.25220864952357,-0.00230799708188014,-0.000648318206463856,-0.000481522454032482
0.47,0.656399811953961,2.46254196931285,1.47511090428935,-0.0489377100382006,0.0144109574417497,0.0148079889497492,-0.00455936301302437,-0.380552110641313,2.1474966093347,-0.127453987587405,-0.0185600346931303,-0.00394866086985419,6.2572837998774,-0.00277287674084246,-0.00119496920328916,-0.000481148755570285
0.48,0.688162932756,2.49223208088363,1.51368093993251,-0.0521221849064694,0.023252387525781,0.0266790145199641,0.0104541708879518,-0.323677132540742,2.17823646525191,-0.129095771058697,-0.0218190403767994,0.0140116419702243,6.21773775406401,-0.00309533471200042,-0.00150850663302525,-0.00188245157606923
0.49,0.606300799732301,2.42847423997111,1.45409030969742,-0.129415640257917,-0.0543491497389599,-0.0409735653071766,-0.122916445620062,-0.458058786247662,2.08471585675699,-0.206660318995088,-0.0971988337081971,-0.0792802365885378,6.24349736121876,0.00353437772659169,0.00310852740742746,0.00570037320552838
0.5,0.588582341843848,2.40882711327654,1.45699328196937,-0.134345785831156,-0.0622048818367107,-0.051212387455626,-0.0275225297409889,-0.486760265393543,2.17271578255528,0.0807847841569035,0.107673846394326,0.103032613665278,6.16306674681599,-0.00343772892461461,-0.00139219288438147,-0.00245002577023027
0.51,0.674033047977355,2.43372387897872,1.56403801012352,0.0228561615879224,0.0627636681466718,0.0615452644624992,0.046502234987928,-0.421845617565959,2.14703739866764,-0.167251488699808,-0.0336252237305882,-0.0341839622918439,6.27878707042756,-0.00495977854090772,-0.00349291227532301,-0.00117715503359275
0.52,0.68827451013788,2.44070386255706,1.55700969893404,-0.0895457376535756,-0.000962142191257516,-0.00575778166161432,-0.0505007758910867,-0.347300270027723,2.25035094545873,-0.236233348105984,-0.124826440788009,-0.0160996510213277,6.08872494413996,0.00108012361114902,0.00185422093502509,0.00106256412327009
0.53,0.627200090956585,2.46100401328544,1.56091810981706,-0.134053314055242,-0.0554513920526464,-0.0104979131591388,-0.0357875450899539,-0.437475156044194,2.04739090651254,-0.00598774872402212,0.0672738427769933,0.0176719138939727,6.19534693655384,-0.0020428451270305,-0.000607883326425137,-0.000336123762751873
0.54,0.650982853487827,2.43309964313877,1.53100442251303,-0.0290633227945071,0.0349445482843811,0.0144258544243518,0.0224036058689364,-0.467591299541077,2.20159498589334,-0.121768340785306,-0.0179305038183083,-0.000805588342148864,6.17645748438001,-0.00388613717513259,-0.00260383968158597,-0.000576410189524502
0.55,0.646945462704242,2.38432295194902,1.58753066877958,-0.102632628517772,-0.0254394419619201,-0.0203301068455264,-0.0735237199740689,-0.454428903425308,2.14355862911811,-0.219374767306414,-0.117098147348672,-0.0280467223758287,6.11508527518988,0.00190685920020314,0.00237713909285358,0.00230768917624622
0.56,0.605191192995318,2.3965087111185,1.55405905578172,-0.143333321813697,-0.0673632077940568,-0.0293356799578228,-0.0435035774751962,-0.500188258902069,2.10194901806038,0.0132371816774734,0.0763566800767517,0.0323822731747818,6.13709211173838,-0.00179125650742963,-0.000635638968411443,-0.000141490795587785
0.57,0.647733186359023,2.39932885656624,1.59203754445482,-0.0250522295599476,0.036287533025872,0.0186992965163429,0.0254223484649057,-0.49813618990175,2.18471471314343,-0.115003360497225,-0.0207736445106394,0.00210098702088027,6.14387379962469,-0.0042236603482639,-0.00282643917243276,-0.000907409388580581
0.58,0.700279638864344,2.41682155531994,1.66955785560689,-0.0544255532035036,0.0203285097587838,0.027549635981622,0.0135402593155946,-0.404889994004383,2.18876618871936,-0.195081248253335,-0.0874934658901214,0.00469310692963935,6.07661008535391,-0.00165194352975906,-0.000251955812067861,-0.00146965420788052
0.59,0.67165708025386,2.44140048444694,1.64353645770293,-0.102261772500929,-0.0213585942094255,0.015920816601933,-0.00444514514973754,-0.443890049633104,2.11789333447771,-0.103963697988304,-0.000976334441140706,-0.0197229849430243,6.09360736031044,-0.0016193554087483,-0.000589667503734713,0.000201837694630342
0.6,0.64024801233113,2.39658846193014,1.61097629262118,-0.0903712761928421,-0.0106052905275584,-0.0177640731778868,-0.0255933603966163,-0.51534304691166,2.13451737523493,-0.123473540153117,-0.0326130407234543,-0.00417209986127986,6.09631408812868,-0.00120175842704523,-0.000584025103615141,0.00106456035787003
0.61,0.665579648086221,2.39437604653784,1.667430480794,-0.0724568027377402,0.00289560867253959,0.0143917049436531,0.0133903151967278,-0.475259723125626,2.16786819657098,-0.085025056069575,-0.0115131825971047,0.036258440415657,6.05501639753273,-0.00330703280093845,-0.0016873976391656,-0.00235046215005384
0.62,0.653728762270161,2.38165451529171,1.66970018098372,-0.0787062536752764,-0.0106658355669408,0.00922301578008261,-0.0259649366955211,-0.510157159316984,2.11432030384506,-0.189066001793652,-0.0733599540635245,-0.0541918125391129,6.08032646084759,-0.000261674596853623,0.000368795448501364,0.00216169531759501
0.63,0.629437037419447,2.35850766969536,1.64781321929861,-0.130641351291738,-0.0449076036781937,-0.0352301900900489,-0.0352093910959769,-0.538147392400602,2.14425100034528,-0.0753619047103288,0.0026339641199631,0.033773425278167,6.02745353373833,-0.00056060122714305,-0.000194819359396247,8.00236356487347e-05
0.64,0.633032595530736,2.35100439057797,1.67894109146976,-0.0804154544289899,-0.00872674063708644,0.00514700412277228,-0.0138583831139609,-0.557056811217739,2.12784930019558,-0.0818774906833136,-0.0188990350249224,-0.00554540308330518,6.04971474549927,-0.00267512506184287,-0.00128727208350809,5.67739505984777e-05
0.65,0.639107748488857,2.33194384061739,1.69447621579794,-0.0868689827099121,-0.0205027621976915,-0.0142270131660663,-0.0270062502655497,-0.55618759375557,2.13681897116638,-0.170976277545163,-0.0629207538038072,-0.00869749586804964,6.02463017021237,-0.000218255704919393,0.000312893085862832,0.00111368860333721
0.66,0.640258752943654,2.34258333866987,1.7067596328305,-0.115794605870027,-0.0310337575037703,-0.00744768486247258,-0.0101082705235247,-0.552408867435935,2.13151808320894,-0.0657205137835472,0.00533928012680922,0.0201408586987552,5.99936773419214,-0.00165186294619058,-0.000939198205037257,-0.000578350053510951
0.67,0.662745204693148,2.35605011091041,1.73334076170465,-0.0593259646127755,0.0109482131750248,0.0182930612013609,0.0191637178357811,-0.544833393848901,2.13980026707465,-0.111874061754826,-0.0320347213971323,-0.00337844281476777,6.02386474325057,-0.00323824147529881,-0.001909786584084,-0.000641029459260125
0.68,0.63948475132072,2.31760801921946,1.72536815279031,-0.109486683418618,-0.0349151401659605,-0.022183116120436,-0.0412326216869865,-0.592408892095024,2.13240387097234,-0.202949089196698,-0.0947735520466381,-0.0305985265849875,5.9800470327754,0.00162322600027995,0.00149096973760768,0.0025215212368616
0.69,0.645810469064906,2.33305971272486,1.74972231892464,-0.119968238841285,-0.0344089630941468,-0.00554210349512356,0.0143930910032731,-0.565959746010182,2.13578381089444,0.0156179803753026,0.0600181348457499,0.0589206230313181,5.95659237618689,-0.00361859212534679,-0.00233975016141119,-0.00249567256726543
0.7,0.683825622130046,2.35045553028841,1.78988238778047,-0.016830045926221,0.0421031938225406,0.044434547478084,0.0416862107701471,-0.552461264634057,2.13936544095696,-0.185364767165597,-0.0772961161730003,-0.034941345529124,6.03476343506379,-0.00347510200728955,-0.00243017581433361,-0.0003277392619358
0.71,0.672744548968832,2.32948879870893,1.78781899380539,-0.118454744772775,-0.0302762736380945,-0.0128156003174728,-0.00613801843266426,-0.574061322616854,2.20180464272188,-0.196127180377036,-0.0952619200939549,-0.00493453994916887,5.8790010345461,0.00129867694013389,0.00136204100235954,0.000869046525952105
0.72,0.663782125588171,2.33805769613048,1.81339472674588,-0.112967276545475,-0.0281621069375074,0.0113248807544786,0.0233244239902907,-0.570877320328089,2.07342493679927,0.006465790629062,0.057644912337743,0.029217012009264,5.96217529482709,-0.00394222266944344,-0.00265133223236669,-0.00187842633416627
0.73,0.661855887593239,2.3121929956019,1.78328738619706,-0.0458354984848171,0.0186899135875303,0.00995598943877883,0.00556146225325788,-0.616361329310725,2.15020620308162,-0.218820124083313,-0.109731834195123,-0.0409325218413399,5.97566182301837,-0.00119713243479103,-0.000746844902561838,0.00154583057139754
0.74,0.699560623705917,2.33721633364931,1.86511753194921,-0.0987705643969149,-0.00895469414017261,0.0202383764304265,0.0634970563703658,-0.54771924328249,2.19711499495292,-0.0760123092040177,-0.0023735878075944,0.0642152610919617,5.84712274453366,-0.00300388137535014,-0.00193656325638907,-0.00394161382949563
0.75,0.693478144834281,2.33840763507451,1.86033254186954,-0.0615976033783086,0.0121477648004602,0.0424396663290651,0.0313775199535716,-0.586023781223155,2.06532532049334,-0.166915944392397,-0.0693262437691756,-0.0695317494640869,5.97744162700543,-0.00213725913710527,-0.00138789969595565,0.00136148728373875
0.76,0.626890677451853,2.26027513135061,1.78043906959365,-0.151994318505908,-0.0661500127185515,-0.0627362294732707,-0.0558867165270883,-0.689704595808004,2.15283119496089,-0.178094501833805,-0.0856283907347307,-0.000802100589389988,5.87336143399357,0.00304661458708482,0.00184507573483844,0.00302245959381968
0.77,0.635123068343849,2.26283479415137,1.85546933574149,-0.122087505093186,-0.0384782601134576,-5.27895246679582e-05,0.0101570840443734,-0.645011048469303,2.12763779156945,0.0633683216390814,0.063951423189993,0.0641154134658692,5.86318763341408,-0.00473963380692686,-0.00294777050885252,-0.00298882069700153
0.78,0.623200081631066,2.22613540144913,1.84380574076162,-0.0594826481018858,-0.0139136374786466,-0.00867694666339276,-0.0437390277916961,-0.714339317609574,2.0723786238591,-0.28193017717881,-0.150744723040931,-0.0923316312312806,5.94758026213293,0.00148314056894698,0.00112622009900103,0.00483609625367359
0.79,0.662512243063848,2.26255154902304,1.88122739877119,-0.145726339278883,-0.0474816187699749,-0.0183343071494424,0.0466488187021121,-0.633747110044647,2.19816597045434,0.0115388575302094,0.057789403897555,0.118273295411271,5.77646742996842,-0.00269493596152126,-0.00225898782506434,-0.00469965989698828
0.8,0.678234940814888,2.27619779066176,1.91639458712295,-0.0389479833963431,0.0243787865929989,0.0548599961407898,0.0263213786044074,-0.651359127454601,2.05478350694755,-0.166533664077198,-0.0900632185265451,-0.0935722023750948,5.95252726687227,-0.00297541475181991,-0.00194530406969048,0.00194125061853578
0.81,0.678718911276144,2.2649283437259,1.89810487721672,-0.109421155441853,-0.0280845893856019,-0.0264418631009398,0.0367636246858358,-0.666860516656603,2.21674300745031,-0.175397254577145,-0.0700999059051542,0.0506850594480086,5.76371319085029,0.000180462927833857,0.000114212405814692,-0.00110596193329234
0.82,0.683834477859595,2.26762227578655,1.95542539694796,-0.10842670589889,-0.0167827648895935,0.0362354295041074,0.0422468422980546,-0.651733904479124,2.04844174530832,-0.0414783716027526,0.0054059163125161,-0.0100950831277501,5.85959612324141,-0.00316708897952788,-0.00238128883383009,-0.00117981166257484
0.83,0.706427151583055,2.28315049873859,1.93381265028732,-0.0388511901639991,0.0302011192025186,0.0284257090674326,0.0745396208584107,-0.644734229466798,2.16629945535446,-0.164767351196786,-0.0747294968675269,0.00208585847884599,5.85396582921578,-0.00345038402828055,-0.00256719067492901,-0.00131471857322835
0.84,0.674172654092318,2.23685061329855,1.95373228582704,-0.128230874196814,-0.0419695057434382,-0.00661669327028004,0.0114819438360543,-0.722009289070638,2.12963165985191,-0.210500358429533,-0.115365399397614,-0.0339350812996895,5.76730684729474,0.00214221141290132,0.0015643579005706,0.001954052516308
0.85,0.654800375936735,2.21457433283555,1.93973189802255,-0.143942091369419,-0.0563508203213436,-0.0165463074806546,0.011669747061291,-0.711633380940127,2.06959125448232,0.0177189145146404,0.0490604603499157,0.0382221283310772,5.81128749962735,-0.00275737550358851,-0.00212830098338254,-0.000995041251929745
0.86,0.673832782216826,2.22405816936831,1.9629830051236,-0.0380555948637037,0.0244027654518989,0.0268969370666978,0.0408799409819431,-0.706630775576195,2.14477329426879,-0.168466521186544,-0.0841785983307994,-0.0120686808495216,5.8328427279783,-0.00309146448478669,-0.00252863008708637,-0.000578438070484222
0.87,0.692516711162833,2.2269950685343,2.01642844388327,-0.107404571214786,-0.0219000049355781,0.011913443052284,0.061178208544335,-0.714593082394825,2.15468284969491,-0.177036193427245,-0.094374895491766,0.00220865768141657,5.71631452217531,1.10206031489302e-05,0.000189798366793171,-0.000615173463572658
0.88,0.651848621615335,2.18234233156097,1.96850275574355,-0.151491123720931,-0.0663670137738723,-0.0204283162289653,-0.0113878266924107,-0.771259188828422,2.01486270819609,-0.0851176284518586,-0.0228181492350181,-0.0318603481002686,5.81496967308065,0.000369791083031609,-0.000122119157047436,0.00249457647124607
0.89,0.641035718657765,2.1670090213428,1.95218446081626,-0.104433427369024,-0.0276493447538074,-0.0233760451366914,0.0102115815731846,-0.775918238873987,2.15847825894357,-0.0616432070032618,-0.0252026804378876,0.0433622470690651,5.74000232918337,-0.00247585954621082,-0.0019624751706338,-0.000895173194244731
0.9,0.663471978420529,2.16851177165983,2.04382161854433,-0.0837627849639068,-0.0173888062811435,0.0176845153990353,0.0339797214725963,-0.763947844822764,2.07292833501603,-0.167409291668386,-0.0896093468556424,-0.0190043393456069,5.76257257831802,-0.000942215163917098,-0.000620178101578601,0.000128009060422145
0.91,0.616045876683351,2.11827518754579,1.96296082835323,-0.175429475915981,-0.091483137978577,-0.0548467010493923,-0.04019424231563,-0.861694830110797,2.05571536055001,-0.147379901652289,-0.0747869635816442,-0.0374541011036387,5.75968060658555,0.00359916710486565,0.00160274639560914,0.00438191785399006
0.92,0.66703059777939,2.15865298811312,2.0328651552667,-0.0988243808930995,-0.0180633591117335,0.00581071901905687,0.0688193189675624,-0.746083327727908,2.17980116511237,0.0954556621289658,0.0679172831729412,0.110894639237818,5.67401386805608,-0.00689065336125232,-0.0050287550646177,-0.00542624815172989
0.93,0.662531356874261,2.13767663913757,2.07557661648336,-0.039896791766511,-0.0044472299293624,0.0257465161449603,0.0144092583779995,-0.832231493297729,2.00793000266093,-0.3653002830141,-0.22340033338758,-0.13163885207411,5.81242108919818,0.00241279458684737,0.00174182072026606,0.00510751355364862
0.94,0.685666641885832,2.15742691492821,2.04305602461034,-0.186437992112029,-0.0806775835436997,-0.031749392384384,0.0881693875889091,-0.792509586659269,2.18925488538655,0.0390457429872803,0.0828257092014927,0.125482192023499,5.59885581664449,-0.00158807437414917,-0.0021998866818857,-0.00441392887238178
0.95,0.669848683947505,2.12661109577892,2.07539192418137,-0.0612057160955541,0.00850280341691298,0.0363953156276057,0.00964907430387729,-0.8127859265645,2.00966001330439,-0.148458519323912,-0.112524959122331,-0.106329440055946,5.79866568974696,-0.00228382316469036,-0.00173159074899236,0.00340255172703593
0.96,0.676827854548841,2.13598591957154,2.08028719829556,-0.112806821009437,-0.0422852586084387,-0.0314855788585517,0.0823834263365206,-0.829794049228456,2.17947899754524,-0.155781776033991,-0.0678346589197938,0.081610288914986,5.60374521485014,-7.55089473982146e-05,-0.000183827544445792,-0.00232629540730607
0.97,0.702018940875447,2.13641515953634,2.13426856021836,-0.111862036932071,-0.0212585542602482,0.0476163746089004,0.0728380936401922,-0.800727868125476,2.00497875950958,-0.0595004680137643,-0.0144177305168953,-0.0367449948843879,5.71144531068883,-0.002544265588982,-0.00252314610141654,-0.000449141224209789
0.98,0.679434488247192,2.11794718537696,2.06953387413303,-0.0935533132520669,-0.0190736650962471,-0.0187045655848824,0.0532360671012325,-0.857821197393986,2.09879447852706,-0.177475370100761,-0.115974529108546,-0.0129182535848187,5.6811120179419,-0.000210255325019681,-0.00029442448695687,0.00155532751883551
0.99,0.688585532087454,2.10861104965477,2.13386567109516,-0.127211536043511,-0.0469570368630856,0.00431230380772794,0.0803589481008105,-0.846234469607205,2.08373343643227,-0.0718862316148212,-0.0191049043744079,0.0412035599181192,5.62363732219547,-0.00146449735142934,-0.00139491322308829,-0.00210914778194202
1,0.683287011302994,2.0932814280656,2.12282334908573,-0.09824776386221,-0.0211005787573306,0.0138092209399446,0.0503598172842222,-0.863415353179947,2.03473140460855,-0.133364571008978,-0.0746118049047629,-0.0472946996010868,5.68648880213379,-0.00108951626944365,-0.00139764078417017,0.00164589396480344
1.01,0.688748723956031,2.09496502091146,2.13610087658265,-0.111358487294085,-0.0310488575892282,-0.00970133713219804,0.0857229299314481,-0.869065826757788,2.10317415686247,-0.109064522395365,-0.0613536453199324,0.0429742176410221,5.60965028997302,-0.00124418125008426,-0.00119930195243081,-0.00152035412907589
1.02,0.665753776606686,2.05350191331706,2.1377575935648,-0.13307929096177,-0.0571038529227588,-0.00408804322255541,0.0327567862692753,-0.92115555290179,2.00843592104473,-0.140363113039432,-0.0836826337258488,-0.0502508390336888,5.6555153049497,0.000982276208032289,0.000221212021432575,0.00260276925840828
1.03,0.655961606285898,2.0376033615708,2.12264339380734,-0.139464738117973,-0.0607714402553455,-0.0348337846131452,0.0408020386249034,-0.920482729386388,2.07972580132466,-0.0466048445079519,-0.0189734359841253,0.0430223060797703,5.60410459917278,-0.00111998613790574,-0.00143073506711979,-0.000358235908462215
1.04,0.704707495726353,2.07580100020097,2.20902401871504,-0.0613270564805269,0.00634775279545475,0.0435277241257155,0.1092413675196,-0.854066578895823,2.07454668204088,-0.0963157217225773,-0.0530331751889221,0.014381575285076,5.62678657248819,-0.00391365067190863,-0.00343780514996219,-0.00261756651666169
1.05,0.685929579997662,2.04885313095768,2.1825007887448,-0.120487029759953,-0.0461102798506376,-0.00683262502944968,0.0752313592661224,-0.965751614197002,2.04653344640385,-0.242637496967902,-0.16291545923191,-0.0659134559364853,5.58712548984689,0.00294842523982619,0.001719159098311,0.0034851072361475
1.06,0.691391194451156,2.02690726677719,2.18129860481169,-0.163603835471597,-0.0767026778034549,-0.0235713947142213,0.0814290819094085,-0.918029138189366,2.03876637789352,0.045583409439821,0.0548622008160983,0.0768276440579808,5.57589269488479,-0.00248717745743827,-0.00251215514597136,-0.00249016475115235
1.07,0.656629448771357,1.9961157903107,2.16937045585887,-0.0826569898965549,-0.0219784597310385,0.00136812466458586,0.0208400363292676,-0.975217139280714,2.0291785395542,-0.200709672635537,-0.142961226624245,-0.0782208670404462,5.63454146952233,0.000334417346150222,-0.000431804567815416,0.00369438903355714
1.08,0.66255010221258,1.993271751575,2.21162113883465,-0.16066215278235,-0.0805374674840112,-0.0407596282208987,0.0847632917167335,-0.988058785147523,2.07578599189383,-0.0712789922451438,-0.0385148861789645,0.0714728049402413,5.5126821986957,0.000534730193757094,-0.000174083036361129,-0.00143434517751058
1.09,0.674901650396067,1.97861928307748,2.21520792435473,-0.116454547458912,-0.0436141254638255,0.0138445271995793,0.0497824485378519,-0.96322584753471,1.99112462508365,-0.0643697750640261,-0.0420931477151147,-0.0426196324051872,5.60114052118482,-0.00170833296248777,-0.00187354591994989,0.00140800842997174
1.1,0.675612244222258,1.98810558360756,2.22290498724046,-0.104916510531385,-0.0366530784448198,-0.0226011343484633,0.0888142863831536,-0.993152233182494,2.06380783254083,-0.148962257821648,-0.0967793956025796,0.0256763435749388,5.53856427386638,-0.000158267479071673,-0.000739717840751196,-9.80371390517415e-05
1.11,0.714224575041667,2.00007232828473,2.27638833428783,-0.115466879196997,-0.035470819085781,0.0274475272169577,0.133848581073214,-0.961951071954881,2.02374118804119,-0.0655338970791681,-0.0365705677144728,0.0133862203895784,5.5281352955911,-0.00202109997186462,-0.00203305741159237,-0.00187406797139371
1.12,0.729826062445074,2.00477963791163,2.27009227290321,-0.0825206866609423,-0.0117266046326133,0.0234696737234112,0.134984482743028,-0.967304207165021,2.02135083689737,-0.142005968681874,-0.0861419272165505,-0.024354241736116,5.55706065776555,-0.00163562082299567,-0.00189729569325254,0.000123457176067077
1.13,0.735186883120512,2.00048201160455,2.28720968693012,-0.11071075125397,-0.028432838094585,0.0110081786736717,0.158349129095092,-0.991899246351193,2.05199116624087,-0.124640365950183,-0.0773061024006418,0.0207689726727679,5.49099485559667,-0.000804473599887699,-0.00125832337852403,-0.00144594910523318
1.14,0.72258686760299,1.96506038891303,2.28462069737605,-0.123283696531909,-0.0444256994560195,0.010382484791787,0.118587403528772,-1.0119804516297,1.97874013142222,-0.106660009840336,-0.0708500974253502,-0.0286214380636168,5.53327900273055,-0.000444253764232691,-0.000944943104001329,0.000905868921184857
1.15,0.71722171738085,1.95852817988675,2.28103865502299,-0.110561028593068,-0.0361536203162788,-0.00289052020578168,0.125050920358452,-1.01072415777707,2.03774449814024,-0.0878695937444677,-0.0519317113166899,0.0265865788301705,5.49632466075641,-0.00156298431194043,-0.00196639799317296,-0.00106701235524164
1.16,0.687931938614556,1.91863161936733,2.28965462881262,-0.132719874724139,-0.0580860468661842,-0.00999506205237673,0.0857554400042574,-1.076229409852,1.97416871758046,-0.157359137233074,-0.118250070077081,-0.0398335903871332,5.51314917175118,0.00165427009099093,0.000387356418883967,0.00238562369832814
1.17,0.687616577999001,1.9032862944415,2.28507757193481,-0.149966039551947,-0.074960761744977,-0.026205008716714,0.0976963450226999,-1.05833875597159,2.01708609992431,-0.0194405691646874,-0.0147886919160052,0.0429333126064005,5.47191809777295,-0.00113428939031531,-0.00154923856307889,-0.000767648684450581
1.18,0.728702184957755,1.93804693877533,2.35251451538754,-0.0619659654715902,-4.09894373459962e-05,0.0413092592089725,0.145752088081715,-0.999899220402509,2.02264030692891,-0.103225721766552,-0.0658158010650345,0.00366032040332423,5.49987065659875,-0.00345255047599167,-0.00356710996525696,-0.0020135083061676
1.19,0.738268143401292,1.94239924077772,2.36387551408996,-0.103528653536324,-0.0279875318528545,0.0173588315377238,0.18254616878729,-1.0823981276313,2.02207935652816,-0.204002713308899,-0.150335647778775,-0.0289904933137407,5.43193286707152,0.00110195508789895,0.000286747130365911,0.00060603190375639
1.2,0.741515765632547,1.8999651315247,2.34516673000186,-0.153778883949528,-0.0718902587322531,-0.00501604739199782,0.150222180695357,-1.07187090187674,1.95221097164697,-0.0285720168785749,-0.00709374083822408,0.0189071769092051,5.4647127430727,-0.000877239500181234,-0.00155085634367524,-0.00063006440248348
1.21,0.696033372722353,1.86055427603864,2.30710591240199,-0.115828226490549,-0.0458747773970843,-0.0160272402199346,0.0789703669676618,-1.11281334254055,1.98573553165809,-0.13402404891987,-0.107267070694727,-0.0336820092391469,5.48137171967735,0.000370781025784442,-0.000873143757268206,0.00238234388258616
1.22,0.706280369854019,1.87136333498436,2.37513782524693,-0.129186914617615,-0.05745885352912,-0.00917105035736803,0.150022165213832,-1.09912236167114,2.01275259122721,-0.0599131548948922,-0.0547122645432983,0.05508503465143,5.40170121865193,-0.00114841056328179,-0.00137933869950553,-0.00213690034246957
1.23,0.731936300277111,1.8712236335606,2.38986781644023,-0.0981703773811287,-0.0347666873648253,0.0291606405436034,0.144835998955948,-1.09107651777108,1.9450757380884,-0.118601090306678,-0.0767955108252383,-0.0395661761930405,5.4620714920019,-0.00112263659346065,-0.00180872291237834,0.000550230007583139
1.24,0.714272966326138,1.84996139612823,2.36231025343291,-0.13814159964428,-0.0596699619556345,-0.0246303070684009,0.1409703732224,-1.15809493544625,1.98544432988033,-0.132615071599062,-0.103099197180655,0.00459674818421887,5.41082926338675,0.00136729297101352,-0.000198493075012461,0.000969796330769269
1.25,0.728420189416791,1.83519707400311,2.39556542476343,-0.130923404554076,-0.0572857825690495,0.00557593625333217,0.151873338775042,-1.11172276027673,1.96380903613046,-0.0194665276048186,-0.0323212473293681,0.0246477891311446,5.41084030834654,-0.0020223657537464,-0.00206456287801519,-0.00139247348930221
1.26,0.780853087798743,1.89108994363097,2.45339296621084,-0.0423543861895069,0.0138342244331142,0.058731522747737,0.225291162014763,-1.05677274259676,2.0039939568397,-0.120721160720538,-0.0692185725784536,0.010604559767481,5.4273069925983,-0.00389398800713017,-0.00427603054110468,-0.00313355736891059
1.27,0.743542249760676,1.83825618682672,2.42047083491241,-0.141015167676055,-0.0587829864794825,-0.0059663819354575,0.187177946554953,-1.23177706031443,1.96942210104494,-0.24586226754029,-0.203485516834408,-0.0746975460995423,5.35845534411149,0.00459061723126751,0.00237389578837342,0.00384678381879672
1.28,0.708471221843466,1.74757318573994,2.37531542096437,-0.212864697934311,-0.139129050566649,-0.0639096900077415,0.100017998077532,-1.19743418221636,1.89131051262391,0.0735950758726707,0.0428315795943549,0.0547040500792645,5.43902576272231,0.000198132226260069,-0.0010503956565158,0.000436233659352052
1.29,0.656856773263137,1.72869790914783,2.35997371385729,-0.106515816721178,-0.0557169078520296,-0.0279369505991806,0.0450229437941154,-1.22214886354767,2.03578714513834,-0.113728019968153,-0.114270311067478,-0.0333253706965316,5.37161349604392,-5.03146904813172e-05,-0.00129263241893959,0.0029124697584041
1.3,0.681442384816542,1.74816519867809,2.48559270745274,-0.146135197959218,-0.0845446170268225,-0.0295820267005169,0.148623313721067,-1.23212553227282,1.91519172473368,-0.0953862892921259,-0.0914686049770179,0.0495373644969241,5.34679162187271,0.00117240168663258,8.1124014199245e-05,-0.000933192219100556
1.31,0.715694941887758,1.74397027446855,2.42223618297963,-0.137864465082271,-0.0726508452525197,0.00586371317416072,0.135306947985013,-1.20829950434117,1.91474089876618,-0.041553880775882,-0.0408201618742291,-0.0303986295726089,5.38867150154742,-0.000660569989955471,-0.00167762674391819,0.00118047945957675
1.32,0.701855442519069,1.73287388175292,2.43421020474289,-0.126028026784191,-0.0634610309624441,-0.0348628110715756,0.135907117255193,-1.25315982227004,1.94383011148556,-0.125381407846521,-0.114329447551734,0.00666119403500828,5.35711779243925,0.00109981642695503,-0.000473702488446504,0.00134601544842493
1.33,0.769871300269516,1.77799596897854,2.51626135151791,-0.0991101522252793,-0.032447488084808,0.0391645690984083,0.248763611762282,-1.16323714913687,1.9629994940645,-0.0020003241704114,-0.0192359297740945,0.0610215532056818,5.30885822737503,-0.003859672295406,-0.00371564344939813,-0.00466838565405093
1.34,0.787179587446118,1.77773542648942,2.51289130692824,-0.0687552713894701,-0.0157024035559415,0.0435498820868162,0.238545113430876,-1.23028374613803,1.89040151204471,-0.220497662768123,-0.162040293330965,-0.0835609496334198,5.37355626962929,0.0005099846959522,-0.000698042475472942,0.00195882064451258
1.35,0.779035619133677,1.74127375732303,2.48205086871785,-0.16442073832178,-0.079969525065424,-0.0230284155364557,0.24932181821411,-1.28001789059501,1.95477589885418,-0.0530842436150788,-0.0446150013422047,0.0516123985686029,5.27455843630901,0.000876662527980207,-0.00079177845470112,-0.00134257322678295
1.36,0.77959588195665,1.7102859245895,2.50697862428518,-0.102256605697588,-0.0358060806536981,0.028097609066766,0.192804102430541,-1.20406843189677,1.88306890460819,-0.0373763292935868,-0.0595813894189098,-0.0219684422774483,5.35747217548465,-0.00254699014617847,-0.00279645569307105,-0.000242509304339836
1.37,0.692440279037585,1.65780357114033,2.4517415902004,-0.159159590641182,-0.105538321154378,-0.0635081858578534,0.133832663361654,-1.39100484906159,1.88388962603544,-0.230325813032526,-0.187507067857945,-0.0509079117304128,5.33831928631619,0.00620011363546542,0.0025286774012722,0.00542226126103744
1.38,0.768941113139149,1.6837705169763,2.53469288815418,-0.150054624865659,-0.0740049402821282,0.00617571650414239,0.231653436898567,-1.20020792764768,1.98141824713778,0.195474338540705,0.0928255172533871,0.141507050206096,5.22603785778231,-0.0061460497704392,-0.00543662423772768,-0.0069340540269395
1.39,0.768435196230479,1.70350979019494,2.56874026645653,-0.00688923497899818,0.00572057614624027,0.060837641843389,0.198764417269079,-1.26646189061957,1.82660868587275,-0.331056527824732,-0.238860043466718,-0.146539167492017,5.42619203822765,0.000843837650083815,-0.000625520695849696,0.00415866295998385
1.4,0.738481579314239,1.65465430721164,2.49686298595923,-0.240047444038718,-0.145814875691736,-0.0781965520414036,0.250402829172981,-1.44592136775813,2.02600567977217,-0.0726136363253885,-0.0588887315615577,0.0729239435488995,5.17632630380506,0.00581122936457865,0.00149283050217581,0.000253141571261209
1.41,0.735698227265847,1.55733926063962,2.52938317182269,-0.160802857358351,-0.0884289949578647,-0.011317089012036,0.10275015255893,-1.2675532149709,1.84495590568665,0.124635725952734,-0.0136329843255818,-0.0268997445663423,5.32086891152172,-0.00334287594307225,-0.00259079056618742,0.00181210762587719
1.42,0.731073716657424,1.65409546105193,2.57258593944326,-0.0404683404059025,-0.0327023751529742,-0.00740823919165491,0.216979721727863,-1.30907474082963,1.93660449398681,-0.213312301014401,-0.135842687790798,0.0403455540852182,5.27191818917425,-0.000612168849334788,-0.0015923334077396,-0.00149522166596697
1.43,0.811036895482643,1.67698364686392,2.63616422117834,-0.137911954581043,-0.0446746119468804,0.0533269560119216,0.330039087787911,-1.36196589451132,1.90675233511576,-0.0698838553938029,-0.0694085475224496,0.00158677508162093,5.17316113997825,0.00026651417363351,-0.001731986412038,-0.00257643718423028
1.44,0.815206089116166,1.61175160313587,2.56977851083785,-0.114198738956335,-0.0513830615521087,0.00652871135612313,0.257580876567657,-1.32006749080363,1.77848456008533,-0.0633571062073743,-0.0994528314627472,-0.0488255977889053,5.32470815235619,-0.000829682118228453,-0.00107107949934094,0.00202226120530839
1.45,0.802422226832879,1.63038472864306,2.56519012138811,-0.102911171775257,-0.05531529190444,-0.00409889391142099,0.284548005746064,-1.35657747373834,1.93589201560393,-0.101515102240029,-0.0655515580659154,0.0562077302378373,5.1994571028487,-0.000419273164877683,-0.00189605163945323,-0.00243890581076903
1.46,0.791981395219596,1.58638909248513,2.61377372057877,-0.137780025876118,-0.0606900143730124,0.018068738124474,0.249408677561017,-1.39809892669431,1.79605460744751,-0.0991287394531138,-0.117658456777133,-0.0547259679348312,5.25826988252912,0.00148313481759491,-0.000524613308045239,0.00173904693124296
1.47,0.806391902152393,1.5895952725548,2.58869004611232,-0.114873004792957,-0.0609711738253657,-0.00460707958389549,0.287468337300876,-1.34334377573708,1.88403582591944,-0.0054280753808551,-0.0418609332262351,0.0529529680088259,5.21022107478142,-0.00226349899630151,-0.00238937460243475,-0.00226252613046706
1.48,0.768007154114619,1.54471394606647,2.59538540478157,-0.12551293289745,-0.0781912003661976,-0.00751744309912537,0.21563026353304,-1.45547700333085,1.79005673819143,-0.195283652554472,-0.157874879745956,-0.0722880792873462,5.26052261860329,0.00376628143525288,0.00073733964111913,0.00377838510217228
1.49,0.796800505674269,1.55098455498083,2.61057534685221,-0.155173856904021,-0.0811475692789018,-0.014438515574555,0.28463176130033,-1.38112938007263,1.89106537129126,0.0845408056585321,0.00765383286053056,0.0950790863910804,5.16356291620674,-0.00242252426799999,-0.00305983975275123,-0.00380672348099346
1.5,0.812358461992029,1.55721850459617,2.65601006434859,-0.0500407799509973,-0.0210546067931137,0.0497806810151968,0.270886893271795,-1.36535131860997,1.79763930494461,-0.169380514273784,-0.149833252426735,-0.0723694385705312,5.26650183644398,-0.0009046541152173,-0.00178104223931165,0.0011205299802714
1.51,0.79474054588006,1.5391703492573,2.62451860090593,-0.16786819758099,-0.0989586260970387,-0.0340023934278655,0.315870836616193,-1.52031478494014,1.88081565459972,-0.123490070758074,-0.109246970079987,0.0202849734378247,5.12996453950894,0.00395862454237854,0.000792479026982637,0.000645477488374892
1.52,0.821731402745496,1.48202263826366,2.64771167719739,-0.142739764277452,-0.0743686270660408,0.00918869967063818,0.254252572947063,-1.37678709426675,1.77458003697286,0.0842615561750398,-0.0091730157962949,0.0165860396146688,5.22037953411137,-0.00286630657689826,-0.00306609722354546,-0.00120922257277726
1.53,0.829337202132902,1.55458008588223,2.6749473008611,-0.0325621513103807,-0.00877731152705214,0.0387079617474751,0.328800210494063,-1.38901572242447,1.87012246757008,-0.170423361363961,-0.135376997383563,-0.000630161963509929,5.19234508564679,-0.0017049970287129,-0.00269153708383207,-0.00173178033049548
1.54,0.824549276676017,1.50730326436342,2.6867767759054,-0.165159217985213,-0.0896149551316592,-0.00133269213809242,0.353565928645758,-1.56303574039683,1.82477335063353,-0.149270144097983,-0.147025274111522,-0.0369206284128302,5.1100985419857,0.00465501087368768,0.0015132103572803,0.00181219833059559
1.55,0.855842822476978,1.45248082518585,2.66689341711856,-0.140885776529692,-0.0803440061193081,-0.00178755303563293,0.293965800200871,-1.38948462632989,1.76573847861829,0.121143787987987,0.0305243869261289,0.0518002319339553,5.19063062836963,-0.00381490166336165,-0.00376682871129273,-0.00234932780767922
1.56,0.788486851058852,1.46043039970542,2.64707888438323,-0.0732764450236612,-0.0495453367505374,-0.0021112534532926,0.252251168201791,-1.51491382188486,1.79584553414553,-0.254679796750583,-0.210141677668632,-0.0708392852094956,5.19986681691792,0.00311666174254064,0.00040050549182849,0.00345719693208883
1.57,0.828044673690476,1.4609738571158,2.71145163261969,-0.178287878842762,-0.102063384656611,-0.0104007224067564,0.366480056989307,-1.51769660737005,1.84050292774365,0.0608785542513489,-0.00530588312355405,0.091104320391527,5.0685245380659,-0.000213046906762459,-0.00174143302213188,-0.00382345040018184
1.58,0.882896921289284,1.46075592118882,2.73359269100396,-0.0392024909621552,-0.00506503836391158,0.0720071661375426,0.328128348074772,-1.37385092656808,1.7550237541484,-0.0589741444342233,-0.0829455584430169,-0.052759215760766,5.21425983150802,-0.0040089313072914,-0.00442092721715357,-0.000836693436985238
1.59,0.820565336344333,1.45236733816768,2.69224468316072,-0.134915651659243,-0.0826825144282819,-0.032060496854967,0.36961432925591,-1.63607400074822,1.84186471556535,-0.253423521549463,-0.224890531784468,-0.0279918026654218,5.06280041971489,0.00633080338103786,0.00269063129963087,0.00284814101451038
1.6,0.832172933004187,1.33920610466258,2.69362266537377,-0.220488885374053,-0.150725975791755,-0.0362373819662683,0.275691857568545,-1.53318937989419,1.67680251383012,0.157277559206892,0.0454501475922494,0.0430792625123251,5.20331710212677,-7.72869967460572e-05,-0.00159665788704961,-0.000332623977055285
1.61,0.799031251772822,1.37017581048649,2.66442326024014,-0.0553152831504123,-0.0387555672848335,8.9309632008136e-05,0.241980239482639,-1.48930423031764,1.8963386455775,-0.0967674738070531,-0.122865223584636,-0.0226843231528057,5.10744739685296,-0.00174829434112695,-0.00280220161410952,0.00107513382430926
1.62,0.824684672788746,1.4088503102441,2.8179269482387,-0.126361666528622,-0.0765654818620082,0.0031153804386231,0.396202497628709,-1.61208924092925,1.74991736350584,-0.139339861391569,-0.144146011214165,0.0332040571945324,5.04105846739653,0.00286347456115651,0.000533857827155727,-0.00172228519560372
1.63,0.849705354349988,1.32311062376994,2.69705767874478,-0.171885463165947,-0.111950107475269,-0.00393406904525264,0.308303746635961,-1.57619586197332,1.65776121654948,0.0263264068805698,-0.0404310009712133,-0.0492055754720235,5.18446619862582,0.00107390268778899,-0.000924182369801631,0.00250190076583789
1.64,0.833757218648325,1.34320538937528,2.70196086917564,-0.0926561243539884,-0.060238361934243,-0.022319444780449,0.313335939411407,-1.53982614640207,1.83909824684619,-0.036614833551332,-0.0849208187182919,0.0511485517300715,5.06674092383086,-0.00132259964099668,-0.00247143298869641,-0.00136950306817679
1.65,0.810266979162514,1.3173513031866,2.77234030269504,-0.142426433676629,-0.102011964396848,-0.00671431517252413,0.330371260539669,-1.66696199916773,1.66880744701069,-0.152378298834709,-0.167728709401342,-0.0516042162669484,5.11229575846043,0.00462685095953245,0.00154201633645158,0.00275175118191225
1.66,0.869843133283764,1.3139227921864,2.74041983981031,-0.143142151660591,-0.0926057202120157,-0.00555040202561269,0.365284517934133,-1.54671470308036,1.77239035213495,0.124016135788068,0.029842669555827,0.0742707796338939,5.05173035624411,-0.0029384811458951,-0.00367720412756312,-0.00325025287299546
1.67,0.844773584004317,1.30782093755476,2.770634684279,-0.0653056847673338,-0.0455172787682495,0.0173752325651179,0.326339214448152,-1.61024303105962,1.67726792021644,-0.207766736154009,-0.202297576804018,-0.081064097360316,5.13521865554598,0.00220281279714559,-0.00016500302525939,0.00300835926520232
1.68,0.867970688306807,1.31138960584033,2.77473150481452,-0.168894889090961,-0.110777338932005,-0.0196323334843007,0.441115548422873,-1.6704493879658,1.78251088769575,0.0212697883381922,-0.0370149136938255,0.0769988739592891,4.98802770570454,0.00126706042957408,-0.000796504058645934,-0.00272647251638086
1.69,0.909664944820424,1.27284696110563,2.80377735593247,-0.0795954245948669,-0.0430073799025601,0.0450204246126243,0.361683585071001,-1.53834117014077,1.65706161615463,-0.0117934744608685,-0.0694794883360995,-0.0459307747325749,5.11346320974568,-0.0023909758216775,-0.00333692391790685,5.38836130064349e-05
1.7,0.862687424734274,1.2933250444195,2.7743421648036,-0.111255574189061,-0.0757496585556416,-0.0212326295743166,0.42322085126587,-1.71035699594739,1.73997952530716,-0.177113209651805,-0.181737300264725,-0.00195666650503759,5.01828341515179,0.00387708781197266,0.00105130017332625,0.00108717906191604
1.71,0.899190448545494,1.22934284275913,2.80229247103684,-0.168832935462591,-0.112673331061178,0.000737417197790405,0.404618108328874,-1.65141726568282,1.65305072476221,0.08511215021119,-0.00540636311291572,0.0271435673111305,5.05733226915524,-0.000171777743872261,-0.0017158560589117,-0.00133040900361463
1.72,0.880338064002731,1.2275856012292,2.7747146031181,-0.0755050585749577,-0.0534829691125935,0.00521633939650589,0.352216607574862,-1.62394429084851,1.70744257599042,-0.0872108490513396,-0.12289076675211,-0.0336316250743589,5.06692327625819,-0.00022959725240117,-0.00191936544875963,0.00133282875369691
1.73,0.862700530630781,1.22734338349506,2.82065840776329,-0.145819342429346,-0.10319183829406,-0.0219734482568866,0.429069818440035,-1.75115907377922,1.69279056539862,-0.0922320330699103,-0.130764444326363,0.0219292075487439,4.99691409705084,0.00367213869778165,0.000789616668763613,-1.23511948078196e-05
1.74,0.925679413765809,1.20038603189849,2.82886356711514,-0.119657759331732,-0.0769436801944491,0.0272727895504035,0.419611021177163,-1.61251934962292,1.65918798114751,0.093016219281809,-0.00461938170555905,0.0175349622448195,5.02714921476486,-0.00276874459643128,-0.00345808908854818,-0.00211931142352868
1.75,0.899239327683159,1.21745365639609,2.82357854654462,-0.0657355668082501,-0.0484369524152832,0.00953159826095746,0.422225497717405,-1.70445130033881,1.65833628179389,-0.185979681021568,-0.185729484909355,-0.0446937869807518,5.04071039475304,0.00217047181318579,-0.000292137778121098,0.00165388132486257
1.76,0.880011959552988,1.14964118908873,2.80350976310461,-0.199716696509536,-0.1450465831002,-0.0421216831944575,0.434116262896978,-1.81793190416425,1.65838422557051,-0.00788013545607802,-0.0782821171382039,0.0167997036649342,5.01975622088781,0.00468300640106243,0.00101534453614165,0.00118993582044971
1.77,0.944685374224508,1.15216817730893,2.85017379290393,-0.0784963632210835,-0.0497520180782293,0.0336435364699702,0.417126115990988,-1.56887246286063,1.73364487409534,0.141737297586014,0.0102001634626114,0.0497849946915097,4.96418069032052,-0.00588539705804076,-0.00560473031273731,-0.0039205026064587
1.78,0.883551911688518,1.17656252750509,2.87767719461119,-0.0661535543684856,-0.0659927980967099,0.00380732622846633,0.445494563206868,-1.82245958175186,1.57743713651356,-0.328218568099232,-0.286692790337557,-0.100137843928446,5.02934749345772,0.00656190553310762,0.00276315992230111,0.00456222870392529
1.79,0.929682092732888,1.10521999388777,2.81916371872055,-0.226680710826358,-0.163174990801504,-0.0385066894077888,0.482012542774679,-1.80155816511863,1.67344701810132,0.189355020459717,0.0696864717302228,0.102081584659228,4.9823037454868,0.000957739703775693,-0.00171144874885471,-0.00301636031948255
1.8,0.917239586552064,1.07236469883669,2.83975686482075,-0.0450390585141057,-0.0361607556438616,0.0267795565067823,0.34934526586816,-1.64877194054805,1.6821880140245,-0.0474316864299731,-0.131242757405122,-0.0775772750447531,5.01550180845122,-0.00213217501873712,-0.00304571233478859,0.00238808415106297
1.81,0.883698129757299,1.13205515364727,2.90857050637409,-0.130836809288975,-0.109941761064521,-0.0370073116589024,0.515706246263249,-1.88026040062063,1.6546603525961,-0.166915847756539,-0.176082214904976,0.045265376758234,4.9013652442235,0.00563493212651397,0.00216988531086062,-0.000397343731172602
1.82,0.963068619556513,1.04671046083374,2.87057386576783,-0.166224549701378,-0.112392361425625,0.0209046262721533,0.445587630733227,-1.7331467261738,1.54523645820996,0.164884180149804,0.0321687855812678,-0.00256502106470718,5.01897825155875,-0.00151146244535892,-0.00296686659629072,-0.000877847668339754
1.83,0.949737268698405,1.10683514905352,2.87248022591809,-0.0198225044108366,-0.0187506230636165,0.0213338786324904,0.474656723146491,-1.70530604174127,1.6820365043708,-0.115400143201938,-0.153427504172973,-0.00226688172237689,4.96743232265755,-0.00145249865735492,-0.00271677290013795,-0.000902539024797924
1.84,0.934431352062119,1.07606593269162,2.9187000787058,-0.158579192281687,-0.120482837373086,-0.00832124296128797,0.560929153152628,-1.9432713026633,1.62431417363934,-0.135867477951722,-0.167211425856444,-0.0251960805270223,4.88982748547166,0.00660645613693199,0.00265369607535483,0.00159038798471091
1.85,0.988688466325981,0.985614018964991,2.8798863933843,-0.154194097670713,-0.115521148632621,-0.00929350826124979,0.447828913152,-1.73150078134378,1.54123374385324,0.200907409806402,0.0525356026193692,0.0383997764113414,4.99551849965973,-0.00275803779886797,-0.00363295477295976,-0.00138551993545689
1.86,0.932845731368997,1.04665823607106,2.88231998464602,-0.0289741185825938,-0.036659779064626,0.0139168086239574,0.460445969484875,-1.78713190528405,1.62975109195599,-0.184933639554607,-0.199559990765169,-0.033228896070147,4.96285250091712,0.00126434780464622,-0.00102064062314256,0.000894730722414211
1.87,0.946059729202706,1.0204917850303,2.93117226816172,-0.180179886925187,-0.135123469136685,-0.0161006863557158,0.573559322705741,-1.95277547724856,1.61538378252416,-0.020754902423925,-0.094797630252617,0.0184182779170474,4.87368353111478,0.00486092631619904,0.00136820702254039,-0.000114736760027979
1.88,0.968359734076556,0.915062610407491,2.87798677071312,-0.13818445039312,-0.114586796765143,-0.0190419111389619,0.411045796584852,-1.78377234301066,1.50968624821569,0.109678880116678,-0.0244532403948921,-0.021678573350262,5.00677451549578,-0.000749401769532834,-0.00218306236469831,0.00190531901450583
1.89,0.930886247623008,0.996413557176114,2.90633845274108,-0.0650261468968883,-0.0676762067467347,-0.010696326744052,0.493315822611675,-1.83924684421623,1.63433712809438,-0.100397130764983,-0.145081469463734,0.0382200671890336,4.89026176739005,0.00111140396509551,-0.00104283469537839,-0.00132711687938448
1.9,0.99690735683681,0.99685588530182,2.9854162831668,-0.118577895903441,-0.0852259051286483,0.0415544755963034,0.600805299627412,-1.88585611151044,1.5424565428124,0.00287166541598755,-0.0773843430457673,-0.00485993238181637,4.86732854606297,0.00110034960904639,-0.000974327259099128,-0.00174951625376598
1.91,0.991184210060532,0.912873047866798,2.89335152342662,-0.121658136430748,-0.103574209293473,-0.0191072632545663,0.503611857922263,-1.89676843928949,1.47250848580411,-0.03617901803681,-0.110161540536655,-0.0507631845875201,4.98659512424637,0.00274065398983037,-0.000114029526290362,0.00328637987281143
1.92,0.950047142866558,0.892152130385513,2.87881983229843,-0.145504790483355,-0.127722390761152,-0.0481098797721944,0.495039760920253,-1.92654589476513,1.58551703033623,0.0213462120520881,-0.0828783308549514,0.0487654942758846,4.90635998382322,0.00260437608571339,-0.000198926479987559,-5.21446242126025e-05
1.93,1.00995336283781,0.930915411865641,2.99062359977631,-0.0684894743178711,-0.0597620636772546,0.0475662745169182,0.557080845726376,-1.79630294267672,1.5633161930534,0.0665681070967197,-0.04263489783784,0.0238709169514964,4.85535234933271,-0.00290693840349748,-0.00373935472558941,-0.00338391915072407
1.94,1.02430219059786,0.956306479303903,2.99050466424067,-0.0573056264408429,-0.0536174715995418,0.0338543304540305,0.630674323202125,-1.93769328004026,1.4971670631791,-0.164078150812436,-0.186029037783712,-0.053558443501791,4.87881462789138,0.00294667342793626,0.000268774109653892,0.000921284915221923
