time,x,y,z,roll,pitch,yaw,xdot,ydot,zdot,p,q,r,thrust,roll angle,pitch angle,yaw angle
0,5.01841953230695,3.01841953230695,0.0184195323069548,0.0184195323069548,0.0184195323069548,0.0184195323069548,0.0184195323069548,0.0184195323069548,0.0184195323069548,0.0184195323069548,0.0184195323069548,0.0184195323069548,9.2119627290767,-0.00710946705396526,0.00852864033278154,-0.00173837305415977
0.01,3.0193717654818,1.8193717654818,0.0193717654817975,0.0183589696517488,0.0184334362925267,0.0174292622174169,-0.0646100121599146,0.100987124321757,4.36005622697146,-0.279733221935798,0.341321291827215,-0.0271336190844817,5.72786629073416,-0.000149169790535172,-0.000189246101834833,0.000486855808613669
0.02,3.30439629695706,2.03935827407806,1.77433196327116,-0.112044892422988,0.14008598738195,-0.0100514294665095,-0.019935777108348,0.0237814819145941,0.876537427994266,-0.0052432071696345,-0.000821028264721729,0.0119237906941004,7.07178627116726,-0.000259712524922242,0.00229947629463535,-6.82292483635311e-05
0.03,3.32566980155646,2.01316747255362,0.391417314789662,0.00269856946685348,0.00837843180318839,0.0114437827135699,-0.328814690308131,-0.247355429181355,2.28562403326559,-0.00795508495263292,0.0980772518528383,0.00384169042336791,6.99732090750702,-0.00398197498514692,0.00404455586626669,-0.000732473237407154
0.04,3.17123202776556,1.87529352687431,1.01263206754168,-0.0181517826032857,0.0286580315424995,-0.013861928682192,-0.0657705803471607,-0.026198713746696,2.17396125930638,-0.175930830460404,0.15020845355591,-0.0268868358267718,6.68946957701195,0.000183134207465104,0.00336299243820865,0.00195365393001156
0.05,3.33819263448551,2.0236349400682,0.962344250883789,-0.0404046977861075,0.0959697043424579,0.0238444898083613,-0.0273739284116895,0.0100988703228111,1.92433349115985,0.0298034849228669,0.163007370858451,0.0682209374790518,6.84335696442847,-0.00447739040170054,-0.000144737052503247,-0.00433992577674041
0.06,3.31327929096849,1.99842773017326,0.853560546385745,0.0104321731694481,0.0687258751410232,0.0237531960396548,-0.223139879748254,-0.0979851197442188,2.08292956723154,-0.188116757879833,0.00264146138755266,-0.0915968053923562,6.808418318787,-0.000853205233807819,0.00439136695998597,0.00319446900140443
0.07,3.27130991161296,1.99366317422224,0.989691617994886,-0.0423700609416738,0.040594896984756,0.00156572445933272,-0.121864766890778,0.0556971412829565,2.08783648369005,-0.0120884204695841,0.208146628199059,0.0955834694221872,6.74261326148347,-0.00370415336219183,0.000861302813768052,-0.00458198037242212
0.08,3.27753960391895,2.02145335936569,0.955815634993707,-0.00411645696275212,0.0914112200245267,0.0382173154209694,-0.12093574142117,-0.0888630147401829,2.01269710040607,-0.157666138729361,0.0459240658730839,-0.0936993740974564,6.78061809255728,-0.00122425830542241,0.00250962072886884,0.00261678564936633
0.09,3.29417931984307,1.97799513989692,0.950439776188249,-0.0494717391418559,0.0419007584975336,-0.0195331155990531,-0.205197432900829,-0.00973512381192963,2.0861264194351,-0.0429691827086577,0.123128618340543,0.0683808956348476,6.73534425014911,-0.00233498140142396,0.00260370771903332,-0.0023065084267299
0.1,3.20717168128676,1.96039849266961,0.957532692754242,-0.0510187431930527,0.0277228211656029,-0.00044193193708926,-0.195810243602981,-0.160051454171581,2.01321172064141,-0.12804128343892,0.0871641096333478,-0.0726333503021538,6.78253801051006,0.000762716511873501,0.00388549491181419,0.00347729575951827
0.11,3.23290554615412,1.91893237138799,0.947463961048205,-0.0681963684343834,0.0283916663202854,-0.0384978580625846,-0.150147527881655,-0.148744493926066,2.09101707291441,0.0117338952155076,0.153011735917862,0.061926469893566,6.72555280133965,-0.00199848486385207,0.0024340813733184,-0.00108967914812615
0.12,3.29054595922927,1.96264466609323,1.02376109654517,0.0219381574800607,0.0919440714190245,0.0459178580123339,-0.0960612578119677,-0.11825824498624,2.0886090167126,-0.0738748043795785,0.12694561571969,-0.00397167267117145,6.69892348856523,-0.00461909712966351,0.000292353835603796,-0.00200337995143063
0.13,3.26758544183288,1.92970235708825,1.00307497741661,-0.0475219521020811,0.0477910613883843,-0.0171032518556121,-0.269487119956514,-0.0341041346925381,2.05185268998198,-0.207631000706311,0.0149941829776586,-0.0533716379841709,6.7051959739762,0.00181192242531818,0.00451448794997436,0.00333903249044848
0.14,3.22460134823581,1.99545680724426,1.02799220412911,-0.0779698841387867,0.0254042774219309,-0.00501269973925191,-0.162767805678753,-0.106941845303421,2.08992562212982,0.0711500693793052,0.199371317700862,0.0792310092945939,6.67200356183066,-0.0037444736486669,0.0011788100105706,-0.00349012491877861
0.15,3.24574952198271,1.94139665403343,1.03581140888998,0.0141285483378131,0.0811542747986974,0.0199763095746519,-0.157735643533151,-0.194547719954958,2.0617824671347,-0.172374541452933,0.0561373336207769,-0.080528529428785,6.69183304234803,-0.00149210813765654,0.00223641150118661,0.00284489625162867
0.16,3.2544585777245,1.91140526307543,1.04001321609193,-0.0780354644229029,0.0310465475831425,-0.0331938006670123,-0.249608476848019,-0.0426166265868188,2.10274584273657,-0.0744640069989111,0.10377514534616,0.057442958064421,6.63644054402998,-0.000309880395167902,0.0030442594434507,-0.0011377345935356
0.17,3.18851702464556,1.9490085676892,1.04627140866263,-0.0650124561274586,0.0271663930582482,-0.00061709657671824,-0.214523130127652,-0.228271889213732,2.04344611149995,-0.0485502020288159,0.112078343638653,-0.046019655337914,6.67318349052807,-0.000756908324011487,0.00291957913932952,0.00221984783643442
0.18,3.20731246747513,1.87445849702652,1.03843565887289,-0.0512027702181989,0.0328099875388501,-0.0416442441163856,-0.20615495477528,-0.21717575928378,2.09617479865971,-0.0628742360063677,0.11185096335417,0.0265105319033183,6.64010602136394,-0.000962922218743927,0.00270663577463156,0.000720592014543591
0.19,3.25735284488538,1.92632467050732,1.11089661360908,-0.015855925325206,0.07582692680011,0.0291968694357065,-0.149170378379889,-0.125241421747407,2.11693861346369,-0.0386365826599285,0.138896568301737,0.0306938058461297,6.5877950320606,-0.00408370649907073,0.000238478649512948,-0.00284572549433755
0.2,3.25262448052898,1.93651147959649,1.11131502979924,-0.0254946987249075,0.0674574391239321,0.00794237831007761,-0.246552651605455,-0.112735567043025,2.06639207922478,-0.181912346514767,0.0281284100348435,-0.0614323343537156,6.61237130025494,-0.000117603487831541,0.00306567323478455,0.00251370065436092
0.21,3.19674502326264,1.928202462926,1.09629773248094,-0.0969736961838802,0.00950064996479057,-0.0362769323243967,-0.26866560204781,-0.151359728127936,2.09320011486329,-0.0328778984370686,0.129245562591186,0.040234098650293,6.59400537903297,-0.00024052121389285,0.00291308127937696,-0.000171542626546013
0.22,3.18947116262828,1.91392869493012,1.11933699543395,-0.0389180388637712,0.0514844609819586,0.00256875151556856,-0.191504726051224,-0.261207250316251,2.1003036158215,-0.0389678366157147,0.121660615991109,-0.0159092121255459,6.56807369517337,-0.00243451324998106,0.00144850393552652,0.000628440309165066
0.23,3.25576320507851,1.90074244503563,1.1619764901588,-0.00988881709803336,0.0805275565396113,0.00806644807329734,-0.197076341912354,-0.131737215155882,2.10900987439676,-0.101027695273361,0.0922030599124398,0.0268145214318331,6.55260050605787,-0.00299975340240792,0.000888625157599073,-0.00167715737457167
0.24,3.2281659347391,1.93118789069198,1.16156149148041,-0.0529848882695811,0.051111850439199,0.0083210241189364,-0.273855971320659,-0.123764134425181,2.09761763131097,-0.14058996165474,0.0557617812164331,-0.0366520445878714,6.53817090045992,-0.000117046366720984,0.00281989292102796,0.00133088427086249
0.25,3.20873190841745,1.94876744312923,1.18462023777567,-0.0581777041495829,0.0481536594977937,-0.00311211826557817,-0.221288602046785,-0.167035661492534,2.10695995686422,-0.0143361996592517,0.141658367765114,0.036091179210024,6.51566097401279,-0.00296290842736524,0.000885058413907385,-0.00156668338961649
0.26,3.22640077766042,1.92511853756436,1.19736810248652,-0.010646596087825,0.0803539208168588,0.0194236168456765,-0.226499987203435,-0.181946769434523,2.09863032644754,-0.133885848909182,0.0646813633746968,-0.0272709624230835,6.52295720513085,-0.00215767269108407,0.00126201433315534,0.000343064352641069
0.27,3.23109961722669,1.92600641933714,1.21372375305624,-0.0521374340575656,0.0579197193281932,0.00278188071150742,-0.263966935927236,-0.115472159174252,2.12941088057962,-0.0948524293071969,0.0862303338867701,0.018840705308613,6.47530098546828,-0.00162560396629543,0.00166256196237314,-0.00104110507109016
0.28,3.20505933628743,1.94583544382029,1.23332442171892,-0.0442080720891642,0.0597249904445392,0.014917658371622,-0.251753041954716,-0.17933589347327,2.08967131262372,-0.0807293141635844,0.0953478914338697,-0.0162152610626653,6.48894838496519,-0.00212607475450681,0.00124794327683619,4.37334236345539e-05
0.29,3.1736462733529,1.88132655010345,1.19720123777085,-0.0717678179193346,0.0312264428069412,-0.0320755879605402,-0.316560487836101,-0.232280611245504,2.08735035979085,-0.128004468834859,0.0536450126483263,-0.0208628946151442,6.49691384604956,0.000889521947828476,0.00316388688885306,0.00250213159206402
0.3,3.18616468365398,1.89939338468948,1.24119116535784,-0.058697740325859,0.0470627708809684,0.00103346464423357,-0.235812758758046,-0.21592422373981,2.14287230476857,0.0205439411224673,0.15526814689473,0.0586637741008694,6.4351975879816,-0.0038046571483441,0.000184649824630322,-0.00283213644297454
0.31,3.23069334691972,1.91621651736295,1.28688028062202,0.0150220826752771,0.101525573212411,0.0410704121562704,-0.229779160398134,-0.180951510686106,2.107829292483,-0.161186441210283,0.0526785093102309,-0.0427094395040079,6.46651290453639,-0.00302636657639961,0.00023638431765663,3.43600360388032e-05
0.32,3.22113102254722,1.91982314027923,1.27987312955256,-0.0663858724017419,0.0556084851684377,-0.00511187520548846,-0.317489110585558,-0.117026992835894,2.15644827262172,-0.133921364054199,0.0498433423014199,0.0116261445987297,6.39026105576059,-0.000362749331064527,0.00224778227462501,-0.00032931260340673
0.33,3.1164588796439,1.88369909261683,1.25699855133635,-0.11552271940998,-0.00493384686459462,-0.0378458634343155,-0.367860965782447,-0.30386755851962,2.0327179244865,-0.0764661740937184,0.0772827795781927,-0.0452683316427228,6.48547168037032,0.00187370338382684,0.00355912856108886,0.0039474565062831
0.34,3.14813813982114,1.85389828592289,1.26105336364467,-0.0519324955520912,0.0456802188452778,-0.0207051065228121,-0.242708758672949,-0.31245587165126,2.19482589788803,0.0484733504153087,0.163174826364644,0.0790578154908413,6.36538640615745,-0.00448112860575848,-0.000295597613859464,-0.00277002399973315
0.35,3.19435406931294,1.84205568697198,1.32848023932848,-0.003133172482237,0.0786766520166484,0.0216706750416424,-0.295635714709097,-0.240546093752427,2.0702738414838,-0.213861722161641,0.013695208900235,-0.0641229094443201,6.43994884735825,-0.000605468084456406,0.00178509312947168,0.00197401948987308
0.36,3.1826239547443,1.8860748150861,1.30646324755151,-0.0968682399653115,0.0332488215330307,-0.0184544214094106,-0.320338373844847,-0.177003621538421,2.17404581575245,-0.044579823442398,0.107206023844494,0.0466067361674542,6.33969262883012,-0.00102529144248655,0.00149355875823763,-0.00134071227475223
0.37,3.15068955752584,1.89395977668459,1.346292903081,-0.0461608178819113,0.0552825707279466,0.00913024914663518,-0.303234457588161,-0.298779715052181,2.07971117323369,-0.0767104169120957,0.0795563042987773,-0.0367128156280885,6.38780002097247,-0.00203666319915578,0.00105246302243123,0.00128452064504947
0.38,3.17033669435581,1.85119217582313,1.33478633102601,-0.0493414894513743,0.0551065316258544,-0.0154777677261744,-0.31326382543395,-0.243823825005269,2.14157231981662,-0.108102886160165,0.0726038384376806,0.027001755298545,6.35017369344271,-0.00137155246978542,0.00121434126005284,-0.000570535331964697
0.39,3.1967450635556,1.90781371503676,1.39993583517826,-0.0321966363663817,0.0825991358127161,0.0404018704417308,-0.266907710994631,-0.197620030360001,2.14654924367078,-0.0583089671466535,0.102747156439418,0.0131982824902043,6.31602367471824,-0.00391226625059348,-0.000731140547466746,-0.00256652524056713
0.4,3.19427170042704,1.90570784523979,1.40060534284475,-0.0268052029382976,0.080876009593994,0.0181861999985947,-0.320023617780869,-0.21353400857212,2.11631483682071,-0.173733811112502,0.0165761195395373,-0.0414752033486218,6.33565210033931,-0.00127368529481111,0.00135056979086894,0.0010634025494661
0.41,3.15893492205914,1.88806586424134,1.39607638645721,-0.0850450963845054,0.0359828102465402,-0.0111997300699586,-0.348537760528079,-0.229466738770706,2.13877697473744,-0.0763038714632761,0.0899485680955616,0.0261557224561207,6.29428760902073,-0.000924311898280347,0.00137201045105295,-0.000725468989261433
0.42,3.12208314939539,1.8569904491539,1.39343972169673,-0.069493274423092,0.0429643092441677,-0.00649027558037478,-0.352406212157597,-0.321970841994387,2.09280846615453,-0.0822199093083831,0.0701705838829607,-0.0305535268035172,6.32092978189388,-0.000942858368462935,0.00131821569623718,0.0017357957905286
0.43,3.14176006861456,1.83589709662586,1.40111543893253,-0.0558486554154311,0.0518550592878887,-0.0135313301320686,-0.336197447274118,-0.291252559965737,2.14462382478455,-0.0687465041015078,0.0833674763997317,0.0352147145351284,6.28408949231794,-0.00214865679758854,0.000640464981810991,-0.00105096873032461
0.44,3.14887196519392,1.85050939914252,1.43782676412302,-0.0468517461887621,0.0612925901168895,0.015941235474278,-0.34049171722426,-0.276842093780985,2.12328378395401,-0.116299436290325,0.0595438427793294,-0.0203472305781594,6.27921906322323,-0.00158479821170465,0.000759224226269307,0.000180149228027549
0.45,3.1293188874852,1.84022774818049,1.42871312991101,-0.0798868235319804,0.0392616542362842,-0.0189238549985931,-0.375467240660751,-0.298996591269407,2.11932118064933,-0.104036278489704,0.0548623391132134,-0.00547194234797109,6.26812808368396,-0.000233908451216776,0.00165845355826107,0.00113545166760432
0.46,3.11893951702882,1.83628458950767,1.44543868242453,-0.0714723021703683,0.041692832763252,-0.00780033689112969,-0.358003960330047,-0.323292541862552,2.1290605264303,-0.0465311371527005,0.092852877449819,0.0183964700171218,6.25002449889879,-0.00202894489146685,0.000567519624436413,-0.000521795265790207
0.47,3.14042048084913,1.83863928159883,1.47620772130888,-0.0344677956505816,0.0716201815051031,0.0141677193094246,-0.338879888120015,-0.299780690076746,2.1354202932152,-0.108493432567685,0.0625371422897143,-0.00480047379731034,6.2421301018835,-0.00244752364618393,-5.55235252020075e-06,-0.000474971521974618
0.48,3.16860581432465,1.86968415709077,1.51226252272608,-0.0382794825880172,0.0818464776278935,0.0255102734108046,-0.328788198799265,-0.242867377053892,2.1591878062795,-0.107777035935775,0.0587001136953899,0.0141842123728826,6.20436488124093,-0.00278930972177349,-0.000316790754804923,-0.00191424100875825
0.49,3.08195668471303,1.80612850060774,1.4600506409506,-0.114573974742568,0.00450001342024406,-0.0411951638160474,-0.470758968339287,-0.376447785780198,2.06534468984119,-0.185684236831279,-0.0163083585270158,-0.0798822884152013,6.26210222402224,0.00391282013549569,0.00402742888956973,0.00573427460326209
0.5,3.05889369746294,1.78688025157542,1.46596794234113,-0.119369422535204,-0.00284922762697045,-0.0492658392010468,-0.383800112812871,-0.400886526244699,2.17349780833346,0.106725443416024,0.177593096802602,0.103881783811459,6.17950848380185,-0.00325935666677874,-0.000159719061938129,-0.00258772839114706
0.51,3.13992389500124,1.8159095439493,1.55550914668956,0.0395060016706211,0.118210905512889,0.0604306447954135,-0.309942167486008,-0.335156268620362,2.1458889944734,-0.153652312404027,0.0504035119224852,-0.0372459857388703,6.23011221763382,-0.00470430051024718,-0.0023432427679226,-0.00112187800645149
0.52,3.15165310028178,1.82416579690989,1.54530099809705,-0.0772634647771259,0.0606926066842833,-0.00879428917931548,-0.414158588752997,-0.260456733412374,2.20409740178515,-0.216077492449613,-0.0440490375070331,-0.0148588448692138,6.1098409470162,0.00157725278312849,0.00278226587346948,0.00109389889229643
0.53,3.08367517465688,1.84425877004672,1.5737095742165,-0.119200145135622,0.00539066928732682,-0.00915089963721571,-0.403462169226137,-0.352859362272692,2.06039534469129,0.0234245960102828,0.139355620696112,0.0184810564313675,6.19194897381105,-0.00193198173217474,0.000430220205398249,-0.000451838900950976
0.54,3.10554597432682,1.81427903810417,1.54497530880028,-0.0103160466255992,0.0927335668242966,0.0141949349672326,-0.356956388470823,-0.375206900341893,2.18121308847816,-0.108730311001638,0.0592795147579424,-0.00334319213833305,6.15234451232695,-0.00366106626730894,-0.00153970830867339,-0.000538773629421297
0.55,3.09496686329748,1.77111789397071,1.56944873524144,-0.0903264611654209,0.0349021441091327,-0.0223553563877181,-0.455093104930765,-0.360233160073866,2.11648361465833,-0.200804131334196,-0.0385146970539274,-0.0272172755359933,6.13822528083804,0.00241249890932269,0.00321372171975459,0.00233189672875374
0.56,3.04965615303279,1.7831291223522,1.56288688004466,-0.128695993942642,-0.00606148130518894,-0.0278059948750547,-0.431750292095712,-0.409576293866875,2.1125698587816,0.0437705520562559,0.145927427262126,0.0330201130478299,6.14147261342409,-0.00170634055228725,0.000339691317237995,-0.00025363571748378
0.57,3.08843919554155,1.7849809724263,1.5971071877635,-0.00548646905317354,0.09440805377805,0.0185348396978154,-0.370600810625706,-0.401407870038549,2.17038880224436,-0.103003616148508,0.0552628231614908,-0.000386153559687246,6.12038118733835,-0.00402274601956538,-0.00183090498418081,-0.000879093591730018
0.58,3.135253901093,1.80738467451018,1.65059349121219,-0.0421781889139956,0.0815506346492367,0.024887348757261,-0.38406034691909,-0.306569523016474,2.16463182617611,-0.177674766330938,-0.0103452124167041,0.00529255285542324,6.07654142027618,-0.00118186120060487,0.000630917103635229,-0.00146205218652095
0.59,3.10305095401166,1.83134000835606,1.65394410773329,-0.0877310412866973,0.0407418855636137,0.015643008310814,-0.40822796865946,-0.348697410912627,2.11379251668488,-0.0756852197429737,0.0720337707875216,-0.0194865339671118,6.08396977946993,-0.00149596528006077,0.000252072862941176,0.000155924482597248
0.6,3.06691041990336,1.78492381866362,1.62538006698127,-0.0713308526551744,0.0502928584364975,-0.0178856517755284,-0.438053276252423,-0.41590574220915,2.11264556012565,-0.108276944347495,0.0388273824504404,-0.00515396840867569,6.09399106087476,-0.000992956866094715,0.000262480296792501,0.00106602063011535
0.61,3.08752928829062,1.78557686541613,1.65999632353985,-0.0585718838054407,0.0635938347860552,0.0137678503780664,-0.403987152979494,-0.372343603634074,2.15493735330834,-0.0668950651585448,0.0606972638242216,0.0362923275028888,6.05096434928741,-0.00295183728074914,-0.000804531204843455,-0.00239430843122833
0.62,3.071187601539,1.77512669202909,1.66815570581649,-0.0635015407562658,0.0507721448199722,0.00839590015109715,-0.448395097407909,-0.408779060363794,2.10211896758595,-0.165592712079509,0.000769155102607444,-0.0551454541315434,6.07531410699079,-7.48532884544615e-05,0.00107308282442429,0.00218652134647369
0.63,3.04233065164035,1.75120270002246,1.65228014257596,-0.113213026423719,0.0177201552193553,-0.0355101608855885,-0.466376292847619,-0.433938681805419,2.12858398127069,-0.0564671343978955,0.0695253253664053,0.0343629369303133,6.03990276991228,-0.000346495150291734,0.000606112329989508,3.64630626486075e-05
0.64,3.04044207664949,1.74567329159551,1.67789757698049,-0.0646760598248366,0.051432677675293,0.00563369103775178,-0.450003519754128,-0.450618800605066,2.12278317011124,-0.063916918966466,0.0525789406128722,-0.00650660034783122,6.0403645838309,-0.00241438074148059,-0.000524867359044675,2.11704920637038e-05
0.65,3.04170957418553,1.72959663299826,1.68526382602725,-0.0713511697486728,0.0418898642795282,-0.0152145382547097,-0.468760185615463,-0.448196354079553,2.11730026761453,-0.1500169071908,0.00719582490028336,-0.0094848146928237,6.03478782701873,2.08986644941095e-06,0.00096755078121963,0.00114537991265142
0.66,3.03852630119983,1.73997495150131,1.70386769802054,-0.0989950535865822,0.0312438772708635,-0.00771903177076048,-0.458199345209967,-0.4439446362678,2.13028886432091,-0.0463736013739927,0.0715343036994604,0.0208443937532676,5.99939755237057,-0.00145209981158825,-0.000183405691313871,-0.000640160986885623
0.67,3.05602166470769,1.75446170024055,1.73503810433618,-0.043007223778128,0.0720495975590575,0.0182872211608835,-0.433513408543275,-0.43388178312313,2.1264032003166,-0.0940391920174535,0.0385330912660769,-0.0047510186531663,6.01038130617967,-0.00303073010730217,-0.00122686594492485,-0.000659106612643537
0.68,3.02784304817912,1.7182204353242,1.71677202873658,-0.0937015228259628,0.0283703817813724,-0.023591259165556,-0.501778699572298,-0.479546181526403,2.11148578443291,-0.18382861777397,-0.0268647965874056,-0.0309985928534447,5.99574704605112,0.00188266912616075,0.00205846427438173,0.00256660662192362
0.69,3.02853477356279,1.73400036239583,1.75319757781432,-0.103630488172178,0.0282133952883044,-0.00526348347082959,-0.451145194154559,-0.45326468188793,2.13790190566858,0.0371990391607468,0.123452524503631,0.0599225569252217,5.95170851667903,-0.00347869760767613,-0.00160499595300204,-0.00260095484741073
0.7,3.06216273002607,1.75291076623412,1.78763921535824,0.000790934406904399,0.103245659805614,0.0439266340702565,-0.42794853278199,-0.436707794655056,2.12137358995757,-0.170543396055818,-0.00647786128295717,-0.037315762177365,6.01175696874191,-0.00329836384620816,-0.00183978674564062,-0.000314609868982699
0.71,3.04641655555699,1.73398098798258,1.77615526175796,-0.103637786466076,0.0343418502503764,-0.0152071984109751,-0.486357155829256,-0.456269139278048,2.17681330849344,-0.177484716493612,-0.030081025082259,-0.00463245790732039,5.89745891442886,0.00161933447951609,0.00191990469382721,0.000920356973612493
0.72,3.02943313234671,1.74339060212408,1.8265082770839,-0.0964687540279676,0.0345925414403093,0.0116695023428926,-0.456255510072399,-0.455479139596102,2.07896445277284,0.0301342677507029,0.121606142674303,0.0303341163087092,5.94468636031313,-0.00388752376619733,-0.00203821576505916,-0.00200103580713685
0.73,3.02585804211226,1.71760226591134,1.78330015684719,-0.0270309204328728,0.0812487227396445,0.00954025690236928,-0.485031730517499,-0.494432471053302,2.11979385622418,-0.206380865238253,-0.0431767908159612,-0.0436702611053856,5.97283493200761,-0.00101034163918861,-0.000268800904046673,0.00160639296371538
0.74,3.05700674676204,1.74576519547327,1.85043228316004,-0.0846402564222243,0.0551164073463085,0.0180968630922082,-0.433128853235439,-0.425917769315002,2.19050890517919,-0.0570242803038117,0.0591850939409637,0.0655274012633004,5.84718979596647,-0.00271345591554551,-0.00129522919800827,-0.00397733862687051
0.75,3.04491124989794,1.74725326080879,1.87189771985551,-0.0444388526212728,0.0745584067641722,0.042184000496565,-0.465177768034136,-0.464728517540474,2.05631482679285,-0.145708233424546,-0.000978906524645606,-0.0703688864953813,5.95281798648197,-0.0020954645089651,-0.000979438550622764,0.00132245031134986
0.76,2.97526858699717,1.66938978062565,1.78086433619285,-0.134210097080601,-0.000522846805364168,-0.0637781402252734,-0.567742997325253,-0.563342949220311,2.1192994516767,-0.163454415620115,-0.0269929294052375,-0.00161766953762232,5.90089472390982,0.00327833814552959,0.002272284716412,0.00308629868711323
0.77,2.97510051014839,1.67443352234213,1.85372170398224,-0.106641256877647,0.023576396184773,0.00041962615813177,-0.504555810436633,-0.520839466945052,2.13415605886275,0.0838262909421871,0.123838314105124,0.0654682391254284,5.85430155849981,-0.00457892802560133,-0.00237232390453283,-0.00312339992774957
0.78,2.95839657581242,1.64062464156892,1.83242676271716,-0.0412815121928648,0.0488704231503519,-0.00878601247886611,-0.564064066749049,-0.585198038736706,2.04865003073068,-0.265331863682153,-0.0845342753133142,-0.0953586925320645,5.95634446183045,0.00157056286376578,0.00135752905651182,0.00492141201471466
0.79,2.99354602680923,1.67787334475265,1.86547890726671,-0.129669232051604,0.0183373727752951,-0.0201077922461066,-0.482858731037888,-0.503749146661874,2.19850034757573,0.0281082740904775,0.110416697280029,0.120154370655998,5.78576428711353,-0.00246401193693858,-0.00169159584275228,-0.00474685262380399
0.8,3.00283024588051,1.69208284227455,1.92065168561229,-0.0220288254613938,0.0849917671915368,0.0553016994602636,-0.501243210455864,-0.521951548298865,2.04827793960255,-0.148317393618326,-0.0234374376443604,-0.0947238814319569,5.9231476223373,-0.00290328388648669,-0.00161512219432178,0.00187666611715279
0.81,2.99980275251439,1.6825517929478,1.88647440401666,-0.0924790966784503,0.0386825521161258,-0.0283247260613915,-0.504603316729704,-0.532430783978358,2.18222030860887,-0.159120437583954,-0.0135053350925264,0.0493001723064107,5.78860441321028,0.000366133326533349,0.000445438911790493,-0.00100964753958396
0.82,2.99653214145278,1.68625537349185,1.95737717662905,-0.0916066135960643,0.0462091105960059,0.0353145459444641,-0.496922611274389,-0.521375326978058,2.06116102664931,-0.0237554691178608,0.0629010890139002,-0.00807775566724941,5.83639701239129,-0.00304319371739407,-0.00196031262096808,-0.00129440139748398
0.83,3.01704794262136,1.70173335936089,1.93753063627308,-0.021448097845694,0.0938898264959908,0.0284066405187083,-0.47511334532465,-0.507011550919122,2.13362548004749,-0.148388017851769,-0.0140397448056989,-0.000468165366829795,5.8477609417436,-0.0033695655805149,-0.00229161736206541,-0.001303673709383
0.84,2.97729570396249,1.65880519368023,1.94009916019874,-0.111362069215559,0.0234243941852651,-0.009045531100739,-0.547125130714847,-0.584177631234097,2.1187806750434,-0.195721258266048,-0.0599040589034733,-0.0337290635705366,5.77789929023908,0.00235247577557635,0.00184091753301665,0.00201495310657291
0.85,2.95044054922582,1.63706388458672,1.95334922267674,-0.127742399119298,0.00729168949617509,-0.0164306758405352,-0.549022507384429,-0.574355517337691,2.06518374914711,0.0384649072861525,0.104183398909936,0.0395191944060808,5.80495450385333,-0.00270800575166339,-0.00182015435352764,-0.0011006241415823
0.86,2.966168587323,1.64831770373541,1.95391102077995,-0.0189671851809868,0.0881551104347838,0.0271235991751688,-0.529285362513786,-0.564731890167703,2.12311819908632,-0.155799778513989,-0.027203736668063,-0.0144782144949127,5.82798678946128,-0.00302508815102052,-0.00232367774314614,-0.000568777183543762
0.87,2.97767404695439,1.65466879933306,1.99495102425114,-0.0917835585528345,0.043021348548123,0.00942048113297843,-0.515322957708484,-0.572264222087333,2.1460079308014,-0.162618973616778,-0.0413314140343431,0.0023729291207277,5.72413732721695,0.000255587630282591,0.00047466057195816,-0.000566819236198894
0.88,2.93049699712746,1.60929589859075,1.98068618446806,-0.134963965926543,-0.00272603427318598,-0.0207197536381937,-0.5893231415984,-0.628807044966602,2.01072009352849,-0.0634569366695289,0.0331430386260608,-0.0308557321595839,5.81104874919127,0.000350742546103117,2.11780113438265e-05,0.00242997711364355
0.89,2.91642837778525,1.5949395236731,1.94974183772852,-0.0850810682610161,0.0375961317770798,-0.0227639964697842,-0.581980763831463,-0.628457857892578,2.13791208703447,-0.0500088436795064,0.0250720822600203,0.0419037758415762,5.74754137951065,-0.00240980253850937,-0.00177960454533099,-0.000904139204138776
0.9,2.92954307649795,1.60145291436634,2.01937333658513,-0.067926253213502,0.0457270632072167,0.0164908893266266,-0.55785988991304,-0.618739735503425,2.06867514666497,-0.153831058210494,-0.037185601257471,-0.0193082130477387,5.76562718202434,-0.000736449485601901,-0.000415614051364751,0.000135436938343762
0.91,2.8788303481427,1.54960654146312,1.95815798559667,-0.159042211274174,-0.0271511248517683,-0.0554939776456348,-0.642266031365339,-0.712181359753888,2.04765724954857,-0.126579423794074,-0.0218208165493921,-0.0373237222083865,5.77383267373848,0.00358389419493927,0.00166052079266282,0.00438935958652685
0.92,2.92319218850015,1.59167094812453,2.03114796732482,-0.0796191344052755,0.0469432583017647,0.00641135919198548,-0.539944513647363,-0.596509588830836,2.17570799496613,0.107260738412063,0.115093679234104,0.110995587366154,5.66611603067376,-0.00683661073511032,-0.00482687778126606,-0.00552309774235497
0.93,2.91033350215763,1.57588690700034,2.05026934378556,-0.0232842493127136,0.0581723850385075,0.0249193702450721,-0.593232313340657,-0.68077991814699,1.9899678755636,-0.353168305552615,-0.169838342033642,-0.133909376713659,5.82261668158965,0.00256161688486378,0.0017554637970458,0.00518266679570459
0.94,2.93180446188964,1.59329312396279,2.03569851147958,-0.171199518372862,-0.0149557439566804,-0.0342412072510703,-0.534522395778494,-0.637585844488021,2.19367597448032,0.0591260758772282,0.128849745184626,0.127155489288002,5.60476283150724,-0.00153591266188522,-0.00203848040841767,-0.00440350024501992
0.95,2.90675134791123,1.56460575256631,2.08453301048472,-0.0410447832378199,0.0712800243878108,0.0374020729788437,-0.610399766447479,-0.658350290994392,1.99824847883403,-0.136790813949465,-0.0599909952360338,-0.106297856878097,5.78178545411611,-0.00234448060077702,-0.00178064927550162,0.00329468415083258
0.96,2.90918988843451,1.57832719887082,2.05466296338362,-0.0974366069415773,0.0237763967100769,-0.032759590131879,-0.551463916887034,-0.671210686280965,2.15752757197582,-0.144340806146574,-0.0246336549298872,0.0792667428907911,5.63082285772708,0.000143017130059081,-7.93826263724056e-05,-0.00220513124285008
0.97,2.92656388943986,1.57749175000444,2.13406829856186,-0.0952675364348819,0.0410884515438926,0.0459978192372582,-0.556649516121479,-0.646419462980286,2.02172811162842,-0.0402583181830378,0.0356048362637195,-0.0342452986701266,5.68756897800234,-0.00258618869428138,-0.00249433152048715,-0.000544028951159574
0.98,2.9017425556974,1.5592729388644,2.06956544637941,-0.0743709704826541,0.0464277717627808,-0.0181796528398889,-0.58978497753739,-0.694255950038037,2.06663523984252,-0.166489953581571,-0.0697503314333903,-0.015046129978464,5.69772897482131,-0.0002258665808768,-0.000389765107315142,0.00158309405805028
0.99,2.90200698510785,1.55386782558362,2.11781671650784,-0.111218824388899,0.0172749660603707,0.00252807390967268,-0.567515185113939,-0.687086980317016,2.09254025934662,-0.0604555691393626,0.0227812341577617,0.0417448406927556,5.62198528433076,-0.00129479199353894,-0.00131280663900896,-0.00209474463789798
1,2.89082787972348,1.5379500250373,2.12600075593144,-0.0815684757943909,0.0415961398529404,0.0136368464628927,-0.601416241968404,-0.69988919185723,2.02265250361159,-0.115220299224112,-0.0258476768469405,-0.0471020074801805,5.68323887797481,-0.00117443491459763,-0.00151525353775157,0.00159795492171061
1.01,2.89077458497913,1.54304452881799,2.12115415634369,-0.0925597417156053,0.0348368797441294,-0.0103678688548233,-0.575733441201052,-0.703369545412676,2.09275810555648,-0.0996535121352562,-0.020737846206362,0.0418878905421733,5.62146342581741,-0.00120344609693126,-0.00126699333883546,-0.00148258472564451
1.02,2.86011141146155,1.50258862968989,2.13153112499587,-0.117019401649462,0.00557576739667891,-0.00511204991436284,-0.631585623830195,-0.756967588665808,2.01034832950122,-0.127355267452117,-0.0407079367415113,-0.0495371921468206,5.65527787050947,0.00105619808716642,0.000164631008722016,0.00258624572147147
1.03,2.84510867699003,1.48747585913409,2.1186822952551,-0.122585364796461,0.00326937350296826,-0.0348399785066502,-0.634381532373265,-0.751271056967311,2.06939608119786,-0.0306094207529768,0.023880127710491,0.0426095031407163,5.61294432398772,-0.00119492049531819,-0.0015784119384185,-0.000366760125091251
1.04,2.8857569931632,1.52951218796496,2.19109110555485,-0.0424372831674275,0.0704252844930934,0.0431276158356202,-0.567349337055768,-0.68657340606823,2.07350484733941,-0.0882696841216228,-0.0131231033374447,0.0140662578375704,5.62411792738504,-0.0038667003399616,-0.00355178443097843,-0.00264870685088039
1.05,2.86165989940276,1.50339589530164,2.16721725373648,-0.104950524656206,0.0170796211053334,-0.00815598965328377,-0.60909713375274,-0.793677977787241,2.03942046242113,-0.228910775297495,-0.121953479752898,-0.0666719289715537,5.59931019706301,0.00298652565406763,0.00157656762873934,0.00354963624638948
1.06,2.86041035486303,1.48201993347699,2.18682005440616,-0.146385431942807,-0.0127127151883695,-0.0247052328666208,-0.607881931989074,-0.746181008152602,2.04321622340755,0.0602099457972773,0.0944040334581099,0.0781907887585497,5.57149250630857,-0.00256184659751003,-0.00268226385856139,-0.00252760189829947
1.07,2.8194418688492,1.45350930012722,2.16112034784684,-0.0637634212936228,0.0414129321764801,0.00219875098614673,-0.677272441896946,-0.799795926565666,2.0129088074571,-0.192957773510663,-0.103966712194236,-0.0791907604037677,5.64552484396188,0.000300752700566725,-0.000688964576984828,0.00366961190254737
1.08,2.8170455738003,1.45508331836862,2.18431494486955,-0.145865513608162,-0.016837238507429,-0.0422897301036015,-0.620653431765541,-0.812502486737231,2.08146129756161,-0.0593546962648754,-0.00344515406698491,0.0709124633562963,5.52799204399996,0.000622706312534853,-0.000297351551598807,-0.00135800018165536
1.09,2.82350008638584,1.43877470916127,2.21593991243734,-0.0986166265693313,0.0185142953022925,0.0136086060425506,-0.656666961959894,-0.787735502492913,1.99672098826505,-0.0498785576738046,-0.00151713807381059,-0.0411066635092016,5.59302922323815,-0.00185470046631496,-0.0021737517120515,0.00131866908685189
1.1,2.81821673194858,1.45201414796878,2.20425207096496,-0.086916568899391,0.028116615856285,-0.022404629625101,-0.627612696682304,-0.812210101712342,2.04990272268201,-0.142134852866147,-0.0637572918607507,0.0236760379941197,5.55976780211605,-0.000150950631179398,-0.000990282730403387,-4.33132392181139e-05
1.11,2.84977284488272,1.46513240709466,2.26067917342501,-0.0999196212255867,0.0263057839143536,0.025665985604397,-0.583553831841757,-0.784477898506242,2.04026102795049,-0.0538081734804839,-0.00116922922576372,0.0144731960122969,5.52178436506132,-0.00198145182733714,-0.00222260587835272,-0.00187927121830204
1.12,2.86047884567023,1.46931654515134,2.27036837216419,-0.0650110910788081,0.0512571334929986,0.0233316491078331,-0.588772195685556,-0.782876135948214,2.0116927595721,-0.128750262003757,-0.0486760623492108,-0.0245753704847263,5.56023477230273,-0.00178368326107074,-0.00227560085207144,9.86944293272054e-05
1.13,2.85886764069419,1.46876982829607,2.27568907057526,-0.0928991259316726,0.0356937562967556,0.00974053557524332,-0.572816284394033,-0.807556577178835,2.05308757599687,-0.118420965348815,-0.0473064346030329,0.020177009536474,5.49704681270714,-0.000782474138478373,-0.00151202584457538,-0.00139370054349179
1.14,2.83889993170154,1.43382651655412,2.28631646187046,-0.10781679171071,0.0167892583142732,0.00926270413795165,-0.615481688081145,-0.827715133292977,1.98074296803213,-0.0941951185839572,-0.0360107590672612,-0.0275919399111442,5.53097927182245,-0.000490662730176722,-0.00125299470114802,0.000880931951879882
1.15,2.82782591868872,1.42886548261457,2.27694338181613,-0.0929661772198194,0.0273289300081009,-0.00307777394700364,-0.619681173330804,-0.822134182270661,2.0322397568194,-0.0774209062657147,-0.0196028077395144,0.0259799274885673,5.50407352622079,-0.00168385672696914,-0.00237401076629684,-0.00105847582249467
1.16,2.78974351017122,1.39240467965392,2.27658479643757,-0.115335428286749,0.00442149730967813,-0.0108538032856504,-0.663143574642214,-0.888757254751124,1.9774903955068,-0.150701459014101,-0.0896362003762012,-0.0397396203980173,5.52250553589862,0.00163049517733299,6.84247938457933e-05,0.00240276571561069
1.17,2.78348662301385,1.37737816726229,2.27929236977951,-0.134701531301103,-0.0136041734127552,-0.0268871970599638,-0.659308678454461,-0.869326620597497,2.0219543156123,-0.00795661988136179,0.016896207064508,0.0432445701864041,5.47616693889922,-0.00119139701389564,-0.00192368680892632,-0.000768205083258285
1.18,2.81669061035547,1.41482074608574,2.33974993351362,-0.0438994323267409,0.0625707852802052,0.0413751270027917,-0.615006265031516,-0.809118988755197,2.02414747144767,-0.0944908959584544,-0.0360770392139235,0.0035235887455854,5.50340096448774,-0.00356557733726402,-0.00404005341667885,-0.00204615554004272
1.19,2.81942312847391,1.42203441808715,2.344258621863,-0.0869143688150319,0.0340852283469188,0.0160952111263476,-0.583803394224261,-0.888239472402736,2.02566125743077,-0.196927905611029,-0.124705797062658,-0.0297647529453246,5.44429490284757,0.00107947964011822,-5.31732323801029e-05,0.000673237592723396
1.2,2.81651644268713,1.37932610359291,2.35245803945281,-0.138095110104612,-0.0112387442150557,-0.0066374273947805,-0.619420161794105,-0.878083067130704,1.96334202190809,-0.0174664782138495,0.0235499451715373,0.0203021547428589,5.4586913262929,-0.000981494591855477,-0.0020040444488578,-0.000639298176422722
1.21,2.76487367137043,1.34158144252559,2.30665199047253,-0.0979697010029322,0.0169164341709983,-0.0154642517534313,-0.702677032614473,-0.914788503297435,1.97743433801948,-0.126712210483026,-0.0812753769744633,-0.0339806659034841,5.49443450844563,0.000197707973913515,-0.00140933134480047,0.0023572489393273
1.22,2.76520981488173,1.35735721088663,2.35166541705891,-0.113380297007267,0.00372117570400658,-0.0101440594835209,-0.635401010536282,-0.903580882434107,2.02452208073149,-0.0548178677662861,-0.0321749190363922,0.054496448144914,5.41276789820435,-0.00112114895207772,-0.00174571878466608,-0.00208201388369095
1.23,2.78523361567748,1.35592852097706,2.38421891282142,-0.0823129669904786,0.0249739790868691,0.0284724119011237,-0.642982742459916,-0.893421088920162,1.95574246034272,-0.106596634792181,-0.0476033176881764,-0.0384930532215118,5.46132711786909,-0.00128855112101114,-0.00236784048604342,0.000509340976644054
1.24,2.76137451654376,1.33724932915858,2.35204604848932,-0.120428893548307,0.00313516218002859,-0.0250860677675866,-0.657267240410897,-0.954884812253653,1.98514143602258,-0.127089215352149,-0.0819525160579218,0.00367849155055607,5.42776311097625,0.0012212012717189,-0.000720401794462003,0.00102166766008345
1.25,2.76729650658497,1.32476863788482,2.38857046467167,-0.115274869850255,0.00228647475726543,0.004420831835446,-0.648218607070594,-0.913455130198675,1.97988297140246,-0.0139385271015383,-0.00963778592548936,0.0256939656459585,5.40990426942859,-0.00203554140687159,-0.00252499959142036,-0.00140395125987773
1.26,2.81351181387406,1.38124479904091,2.44471274608596,-0.0264584686483852,0.0741248451955789,0.058847204125499,-0.580692382351063,-0.852718076730434,2.00628949627554,-0.110228465463672,-0.0443507359103157,0.0102589401512144,5.43278638037726,-0.00404442666046551,-0.00491318393255226,-0.00315637865486085
1.27,2.76853737114896,1.33188577760348,2.40598285919579,-0.123240815833047,0.00254309489067816,-0.00740865749425998,-0.627552149589971,-1.02281829446484,1.9751499215192,-0.24059702502623,-0.185631936542004,-0.0752320200010623,5.37612925829684,0.00441690966701329,0.00186867084167689,0.00392715695614536
1.28,2.72523936425439,1.24251756085077,2.38870239547737,-0.198030180789284,-0.0802497164601592,-0.0655020206595465,-0.71765069210404,-0.994340286417162,1.90879587626379,0.0787881139687971,0.065487798465451,0.056412186214424,5.43078106756021,0.000132715841680076,-0.00160402481436805,0.000424999628035363
1.29,2.66713979180166,1.22477894374887,2.35107100720874,-0.090298459767229,0.00501554079390296,-0.0261766852568768,-0.791492967568217,-1.01185699019564,2.03067412510839,-0.105670895851601,-0.0935032996567889,-0.0336845094735269,5.39318185408431,-0.000299954704649337,-0.00202355932566335,0.00284743246140251
1.3,2.67626705542338,1.25433332649726,2.4437358756388,-0.129752911584205,-0.0243519693601438,-0.0304483340887274,-0.681467754557501,-1.02521343111277,1.93988372233855,-0.0937447994089897,-0.0781406406955733,0.0481152648102975,5.36740758309435,0.00112635852488128,-0.000407102166864758,-0.000832028893980476
1.31,2.71162774984411,1.24326560088527,2.41962547649234,-0.123077328523739,-0.01559927870171,0.00470068057178107,-0.700033630097047,-1.00093975349137,1.93909840296588,-0.0327208033618342,-0.0180362665140954,-0.0283110458843096,5.38447309309063,-0.000814396419875029,-0.00235298280726184,0.0011290442361335
1.32,2.6894631635481,1.23541056486022,2.42119055843506,-0.109206266775851,-0.00222326486447979,-0.0341530145722485,-0.710084195200656,-1.03758964726825,1.94641352559736,-0.1199021467462,-0.09943192404762,0.00550677616246416,5.38061388564641,0.000853383012217892,-0.00118825503292285,0.00136374409144779
1.33,2.74883333356792,1.28429584544665,2.49730421201709,-0.0831517975911591,0.0255580728499167,0.0377984006738945,-0.595619891232335,-0.95388507062425,1.99269082924122,-0.00107529412637578,-0.00575035749534202,0.061355713111613,5.30998527392824,-0.00384427003166394,-0.00428023093539428,-0.00463545411214352
1.34,2.76139039006754,1.28246860032221,2.50928361471235,-0.0540362320166553,0.0417387354741604,0.0433980108429282,-0.610839345251315,-1.01272320238657,1.89843285821057,-0.209496549464215,-0.143003320635999,-0.0829464222252289,5.38494363673614,0.000252958146097255,-0.00145884270718465,0.00192231931532049
1.35,2.74645245649428,1.24932568099544,2.47873598118652,-0.147313092931029,-0.019746359000942,-0.0246273515859372,-0.611040259925825,-1.05918629202597,1.97194505280488,-0.0515952726203411,-0.0336382913426167,0.0508548896108402,5.28279822214574,0.0007081086507166,-0.00147597561072509,-0.00123920807420941
1.36,2.73773964214855,1.22048522594472,2.51450018821847,-0.0872922259572531,0.0208294795385023,0.0274163882208734,-0.667059444606297,-0.989683807745372,1.89782272979291,-0.0338049068290858,-0.045690693234627,-0.0198329931470608,5.35755782027005,-0.00264537924049369,-0.00349780867099031,-0.000318058819507777
1.37,2.64333488362382,1.17026557551009,2.43506604197282,-0.144208638190256,-0.0474850921554514,-0.0629483298205686,-0.740507581013646,-1.16713775898324,1.89024034329874,-0.223032840047735,-0.174868598069824,-0.0525589434014689,5.36660972363819,0.0058865573157102,0.00179982084074498,0.00546954896607613
1.38,2.71109131525818,1.19833313399931,2.5299545901154,-0.133882019080843,-0.0163068497372142,0.00401975877024189,-0.644553124414113,-0.985364358020207,2.02074861771529,0.193858776759032,0.104475072408394,0.142527099753547,5.21529840042888,-0.00614971681383202,-0.00620092654557793,-0.00688488244635332
1.39,2.702030843576,1.21965209354692,2.55610125698774,0.00800888050312715,0.0626672126068587,0.0628310535710722,-0.677135494452972,-1.04324585726846,1.82648188361571,-0.322128522317966,-0.228318510823549,-0.145625791413775,5.4563472791985,0.000558253482026974,-0.00146404330986601,0.00401461990179721
1.4,2.66722165143134,1.17397804404895,2.47592432801953,-0.224591824537478,-0.0882247247048033,-0.0809118393687217,-0.646371683686741,-1.21476283888247,2.05923145228145,-0.0723839757286105,-0.0519497710629477,0.0699262883473122,5.1837800445443,0.00563215043358723,0.000809960344446818,0.000516298831281748
1.41,2.65250762531984,1.07882758778959,2.55474366565015,-0.146001900799633,-0.0331293014399513,-0.0128518094024616,-0.789356084046224,-1.04857516087731,1.86325469670594,0.127300361837137,-0.000976058942272658,-0.0213503048452404,5.31187698687815,-0.00352964931746313,-0.00347698854954255,0.00162619828045492
1.42,2.63887005233011,1.18155778913927,2.53881412810429,-0.0257982153784472,0.0251352988935057,-0.00375237042229138,-0.684164222593303,-1.08009830137224,1.94326281205544,-0.210106506314898,-0.131448773804477,0.0363204536729045,5.31659405727136,-0.000817291621319549,-0.0024685488264197,-0.00147869522165941
1.43,2.71321347367079,1.20354889023859,2.61369255768762,-0.12228680998548,0.00972559893535077,0.0495223020065753,-0.57047681967565,-1.13340568566066,1.9633956654085,-0.0684558358803112,-0.0644227656718377,0.00193892770749989,5.16720888994001,0.0001278940543031,-0.0024483882593413,-0.00241914589808879
1.44,2.71404468598105,1.1363578545533,2.59119451533112,-0.0997720815659861,0.00350611762843164,0.0060700804432818,-0.644897169483165,-1.08770981001224,1.7868874275441,-0.0586393666857186,-0.0893386222429255,-0.0455108509644376,5.33383658445493,-0.00110913573811849,-0.00201214076239303,0.0018851186771241
1.45,2.69333907602155,1.15918697662265,2.55549808063139,-0.0876556218458545,0.00179399944866299,-0.00320210397294788,-0.632008903172157,-1.1236737074462,1.9599034612586,-0.102030226141179,-0.0646547454793647,0.0532881586819073,5.21709163794407,-0.000582718598830353,-0.00276928984936685,-0.00234590220084553
1.46,2.67224340196562,1.11652584791075,2.61125794205993,-0.123347701127815,-0.0076670361924419,0.0157687912271043,-0.664495189194884,-1.16734892195947,1.8276050924053,-0.096080794790428,-0.113954013854367,-0.0527700432064047,5.26399111585548,0.00126740265517671,-0.00130372869187497,0.00175327514894247
1.47,2.68213200171531,1.12018633359496,2.58981500501824,-0.100398823397032,-0.00633802750183357,-0.00457769220923659,-0.637928436199221,-1.10827615088254,1.90776571697389,-0.0035893466394715,-0.0353085836845727,0.0532573127135844,5.22217975124093,-0.00247433369742595,-0.0034007766173658,-0.00227865002926077
1.48,2.63256042092224,1.07952117581937,2.58811803024497,-0.110038851189971,-0.0228215658892751,-0.00737322390973431,-0.713129538322332,-1.22046184443473,1.81790122710781,-0.194241943603575,-0.160362682033864,-0.0726512589313328,5.27754598617969,0.0034796756540318,-0.00011087556491032,0.00378676340482021
1.49,2.65500716564335,1.08653914523948,2.60765497469468,-0.141717804446333,-0.0289630882058854,-0.016485798417545,-0.649710851985429,-1.14670280054945,1.9272620326992,0.0831130298829586,0.0111862784601466,0.0952753461596246,5.16703640450696,-0.00251830708856777,-0.00395152967135638,-0.00371922983200613
1.5,2.66196570868757,1.09481687956176,2.65109173220303,-0.0354238620896795,0.033117407430191,0.0507341406464472,-0.66740853621072,-1.12821485900443,1.82295556741772,-0.164218455979778,-0.148216284181375,-0.0705515080133439,5.2880946596361,-0.0012142365778743,-0.00286586387748537,0.000991189206823958
1.51,2.63603122108705,1.08034571847665,2.61246287290862,-0.152887114687754,-0.0450015391158244,-0.0349581780342507,-0.631853305062249,-1.27667831007799,1.91521569367032,-0.12579257838743,-0.11585520132707,0.0175755027982067,5.14450777208562,0.00371845337831128,-1.21525133531104e-05,0.000813941105018066
1.52,2.65563205007862,1.02416495343934,2.663216400925,-0.129396266361674,-0.0242106415312379,0.00674852448080186,-0.691739988129682,-1.1421862281101,1.81169743510559,0.0838642111641046,-0.00495985609640348,0.0201684958996906,5.21535331407795,-0.003019751214411,-0.00408025069596764,-0.00126140432034422
1.53,2.65525777649211,1.09878988681035,2.66325135375119,-0.0184874474809254,0.0458029994717095,0.0411198465371765,-0.629041204357929,-1.14477341127484,1.89031832876933,-0.167238111178563,-0.139750025205859,-0.00175612896171851,5.22891898528752,-0.00197566019774409,-0.00383451103181563,-0.00178950411641866
1.54,2.64062064867074,1.05527564237685,2.67468726513843,-0.149935774288147,-0.0384287974159816,-0.00359199931773233,-0.606520019796449,-1.31615032433142,1.87372487489058,-0.15098967437797,-0.156642648352471,-0.03811218160034,5.11584234367907,0.00437399201337089,0.000735478947847446,0.00196952331927381
1.55,2.66677923451595,1.00048653355698,2.69381086588069,-0.128045552365681,-0.0311758927385175,-0.00382295179250256,-0.668268990884577,-1.14863521504308,1.79788272515432,0.119083386810117,0.034558888280362,0.0551639195478007,5.18575603024355,-0.00396378068284795,-0.00490292422450518,-0.0024097293956956
1.56,2.58972044360928,1.01150343143281,2.63490382628242,-0.0593126861221259,0.00480242466488812,0.000619141335866914,-0.722665513367432,-1.26664353649917,1.81789765522283,-0.251909807559784,-0.220218707775632,-0.072135900884005,5.2408615163519,0.00272747202251134,-0.000698965622968831,0.00338907195188046
1.57,2.61938560046067,1.015200498253,2.69945923256489,-0.164212616051449,-0.0529668754479118,-0.0136449323036216,-0.607307555266272,-1.27149844856108,1.90257334506617,0.0540897167222784,-0.0141690204275115,0.0897104532453281,5.06417029522243,-0.000323333973872917,-0.00260611826454675,-0.0036068590921137
1.58,2.67011439728557,1.01358259491889,2.75193528745948,-0.0269224340299498,0.0440586121571524,0.0719278218538994,-0.649245029834792,-1.12822151213955,1.78291120220945,-0.0547644388372547,-0.083580531446383,-0.048156206675244,5.22862827454631,-0.00426320508928947,-0.005688785110954,-0.00104562680956782
1.59,2.59663749920576,1.01102857541182,2.67490235529437,-0.120017639693553,-0.0299697305990616,-0.0306799337983667,-0.621508190268336,-1.37853345943496,1.86893087233802,-0.254242200772401,-0.241852987040835,-0.0323801457343504,5.09989066490893,0.00590810104327575,0.00174655078804111,0.00298358694692194
1.6,2.59992800455542,0.899171196982497,2.71178995638714,-0.207027477922368,-0.104977292115384,-0.040894415538347,-0.708459270152745,-1.2908333482236,1.74039955085788,0.148104581084323,0.0417749801171211,0.0459941222652694,5.17841947035363,-0.000162952848603204,-0.00260298592890664,-0.000254070602685588
1.61,2.56174674059127,0.928308095707092,2.67072878733237,-0.0446208400435216,0.012550850802485,0.00287484709689342,-0.764667772132668,-1.23621146880034,1.91694493259847,-0.0918478775556538,-0.129964550982145,-0.0210104592738956,5.14514369840523,-0.00208956408092348,-0.00418711866696079,0.000866929323774631
1.62,2.56796513756269,0.979547722552972,2.78398271244181,-0.110831627204821,-0.0266655849802498,0.00295152402250947,-0.601175627427929,-1.35561019868202,1.80902729628231,-0.144374836356113,-0.166698025699834,0.0288436012321973,5.06531923153647,0.00254852658914359,-0.000327419794294853,-0.00151138692706083
1.63,2.59612991116745,0.887782382672885,2.71914771869159,-0.159584603221893,-0.0687750741412937,-0.00742891631048853,-0.691479831667809,-1.32701204312446,1.71206136784905,0.0215383562364684,-0.0426166968880963,-0.0447026299339945,5.17314608953124,0.000880381872383693,-0.00204191248183432,0.00245079384171837
1.64,2.57149657952235,0.908453519998561,2.70608111551151,-0.0814296734427738,-0.00835590661221602,-0.0201872229109669,-0.705848165606218,-1.28209037650302,1.87201065530386,-0.035584452201263,-0.0979297542201409,0.0501087805141957,5.09808264936923,-0.00164274884573657,-0.00386518472676777,-0.00142126773227794
1.65,2.53189166868563,0.890620841517493,2.7548565205167,-0.127292647647208,-0.0550873858072779,-0.00743206524598528,-0.679059310498434,-1.41025359408576,1.72715058830227,-0.157308775810716,-0.191677609694424,-0.0526547548325417,5.12927213616297,0.00426908518074455,0.000719966811632809,0.00283005622605937
1.66,2.59204382509445,0.884101392403417,2.75511832771501,-0.131943101153769,-0.0497777047723915,-0.00784490825393186,-0.654012792508091,-1.29375277402045,1.82886144036867,0.117434157978092,0.0276875292001015,0.0759762824729068,5.04774034000788,-0.00303276669013192,-0.00498169483749205,-0.00322176212939987
1.67,2.55439399640261,0.880840148178786,2.76795394571902,-0.0529941906167873,0.0056990965054747,0.0194972036375245,-0.700922141892053,-1.34903447665162,1.71460487885222,-0.204015352939794,-0.223535195260888,-0.0804283133849102,5.17653204154384,0.00174189720266511,-0.00147424946121748,0.00287187155154736
1.68,2.56818044877825,0.88902429719115,2.76696200412908,-0.154821676901241,-0.0667164503354761,-0.0217329023339927,-0.584933665165859,-1.40775213537979,1.85111186663077,0.0103699742123922,-0.0590011606530914,0.0741733324390669,4.98861593066868,0.0010633309262227,-0.00171835572408599,-0.00249851144237404
1.69,2.60631154463281,0.84980616557073,2.82862840081799,-0.0692673691656783,-2.06683507133695e-05,0.0437067119760294,-0.669657752448785,-1.28203556963024,1.7027889593148,-0.0122985263349797,-0.0771391040118421,-0.0410445437851295,5.12352339132225,-0.00261767706173049,-0.004733238494987,-0.000115795811753248
1.7,2.54683639445889,0.87405121083006,2.76436119585164,-0.0984054730877079,-0.0267175255942382,-0.0192439676942843,-0.619895472685465,-1.4404191452077,1.7800374856247,-0.178150912671447,-0.208322959284503,-0.00548441900802534,5.05851210863695,0.00341301824369271,-0.000142815057026866,0.0011513981924454
1.71,2.57545209566492,0.81274900707598,2.81366747185465,-0.155397671656466,-0.0717134746776697,-0.00300975199948301,-0.630686111337501,-1.3926646743481,1.72948104882707,0.0732858935027634,-0.0239695049455886,0.0285667882813054,5.04271920935869,-0.000325524431946259,-0.00276932732098999,-0.00122505118107593
1.72,2.5521758725142,0.809392973579745,2.79183363345007,-0.0663166851685631,-0.00921287775273406,0.00642069889543745,-0.699601050183666,-1.35923682394497,1.74438496899423,-0.0859758229281095,-0.136977022661463,-0.0313343821436791,5.09799836253002,-0.000556357187341239,-0.00338082016837494,0.00116116439206877
1.73,2.51879132292958,0.81654144477132,2.80651183505824,-0.132135171831617,-0.0571065224156917,-0.0220013937334592,-0.623914389341474,-1.48037972950146,1.75685712099944,-0.097970106869339,-0.161219650419209,0.0183743102934844,5.01803968980529,0.00325716594813334,-0.000321080859788968,0.000147614479798122
1.74,2.57813431867152,0.789293945065792,2.8492513002478,-0.107991060187615,-0.0379455940203825,0.0243183503463228,-0.630021249950591,-1.35227841895053,1.72633925191253,0.0831590378502838,-0.0216612898218677,0.0209929081356407,5.0236005015055,-0.00289023557671,-0.00467385253317925,-0.00214526531375683
1.75,2.54376574129447,0.806861927928474,2.82778006204741,-0.0558735713911228,-0.00399143279123901,0.0119525228612265,-0.642421368450599,-1.43292014261871,1.70034336784406,-0.183720724445636,-0.207461516414579,-0.045168972201336,5.08240652891344,0.00174071729628706,-0.00172905009675367,0.00155116358869149
1.76,2.51269280045375,0.743804812605635,2.80409074013386,-0.185859588495628,-0.102405234055936,-0.0446811730983859,-0.630743283168633,-1.54476475876509,1.73294591472483,-0.0187253695532608,-0.10885606200092,0.0147120017299456,5.01712265340479,0.0043126844664513,-7.7585766537011e-05,0.00139771101500239
1.77,2.57243595494881,0.74695732265012,2.87783478620383,-0.0691165401259591,-0.0110373701215817,0.0318593933591996,-0.65096533829238,-1.3063849629231,1.79106588222653,0.1335597757024,-0.00785438809003033,0.054271643722761,4.97401880283951,-0.00594772690879308,-0.00702174922597556,-0.004050786152961
1.78,2.49733043680802,0.776311869512695,2.86541074695654,-0.0551280468099018,-0.0225381153718877,0.00765184086181202,-0.63030786270145,-1.54449348254835,1.62435060127498,-0.32401335118029,-0.317414009752892,-0.10281836445604,5.08131406857029,0.00593646421434971,0.00148265308317209,0.00449064951709475
1.79,2.53860522254698,0.705685536342287,2.83336236924072,-0.212831550028172,-0.124286634487575,-0.0436220753378803,-0.593747711375042,-1.52830488083687,1.76583142917092,0.169198706762678,0.0445503436676331,0.100651304716638,4.9528190201122,0.000819778548523594,-0.00296695537479615,-0.00271682539781674
1.8,2.51958630339803,0.672722538160783,2.8701762249998,-0.038448160261311,0.00437022652901874,0.0276847615257588,-0.736285170058913,-1.37935077138528,1.72372839497453,-0.0466525528488915,-0.157112738945093,-0.0711325379024014,5.05260781519134,-0.00240261245848861,-0.00453265809770189,0.00202371987065302
1.81,2.46806959379383,0.742293005953457,2.88483003409335,-0.118367149749393,-0.0695426794932127,-0.0345781684677815,-0.572784346312651,-1.5958089403536,1.72285687185382,-0.171142696747837,-0.211652169187969,0.0376368077697501,4.93454403750294,0.00507157543037788,0.000995600358506185,-0.000165585418707773
1.82,2.54692636238551,0.654643459889901,2.90166440588405,-0.15374166603292,-0.0771087124252217,0.0152420684441935,-0.638506997509056,-1.4664854249384,1.63536165796484,0.147454523549473,0.00932798274094501,0.00242183180072591,4.99555699979167,-0.00160606035304177,-0.00433458202048994,-0.000852765373347937
1.83,2.52532528181873,0.712539107843893,2.88701100943641,-0.0136926805375967,0.0222567708080136,0.0250021852567394,-0.624852912410987,-1.42687697025849,1.72476325646058,-0.113024379074437,-0.184855509530901,-0.00162777300821973,5.0218320293861,-0.00175634520413309,-0.00428271664464862,-0.00112658111969915
1.84,2.49573943950959,0.689829363206147,2.90971620101776,-0.144323532694796,-0.0832101980264832,-0.00917489861476863,-0.537753170950736,-1.6551565649832,1.70399856580297,-0.142331400364247,-0.207074098465625,-0.029849517060612,4.90094058661216,0.00599886400538517,0.0015562867452846,0.00183551015360543
1.85,2.54754996746903,0.600308855948257,2.92350657444634,-0.143829908570125,-0.0819416489435925,-0.0136700001928432,-0.650700893549269,-1.46198209829609,1.6178242029693,0.181219641804801,0.0307672405570839,0.0436725801987512,4.97991114389939,-0.00277879793896096,-0.00511815088132333,-0.00143449555647088
1.86,2.48018204889765,0.660428067421164,2.88690174419934,-0.0230867820261521,0.00407320124827309,0.018279407634002,-0.65176085252245,-1.50567110437093,1.68327901432425,-0.180148055629672,-0.236976343215899,-0.0341563103036068,5.02090405545427,0.000838704733028888,-0.00256647341116041,0.000705839966839536
1.87,2.4812809025229,0.640447251279075,2.92845296777772,-0.165700677507233,-0.10064149789503,-0.0187711476475761,-0.534934846264383,-1.66268959173836,1.70629299672899,-0.0330578525617478,-0.135229624569281,0.014506451283724,4.87093210500211,0.00434621463612147,0.000234183198723946,0.000182686040361576
1.88,2.50194220756636,0.536040345653673,2.92177049371467,-0.129848952264105,-0.0819217943029028,-0.0220459325289685,-0.702066477788407,-1.51158451618262,1.58123196206631,0.0937655031444063,-0.0495936608995577,-0.0152851196257956,5.0046316548479,-0.000856672461855759,-0.0037094631486174,0.00173441918554288
1.89,2.44977184216107,0.618275840735252,2.90507562451253,-0.0587055481684477,-0.02879806278508,-0.00704442778992917,-0.630170387967242,-1.55417042647536,1.70325038567571,-0.0992547512553811,-0.185892762128007,0.0347117400036977,4.93708311749649,0.000683762896021115,-0.00256973617359637,-0.00135600004057074
1.9,2.50662799050483,0.623044530221967,2.99181976431408,-0.104572684865045,-0.0532011965810785,0.0388993295365121,-0.514087066932136,-1.59776433891762,1.63773521244221,-0.00935105933329485,-0.118680893612088,-0.00536880322967194,4.87027206755093,0.000670833811477596,-0.00219083300298703,-0.00161143579363491
1.91,2.49958598261554,0.539109708795515,2.9289837061693,-0.11389731416776,-0.0716659620574116,-0.0197725879613255,-0.622585656447896,-1.61525676195975,1.53860096958925,-0.048756780724388,-0.140253279028768,-0.0477362255622371,4.99845622205743,0.00249426039549513,-0.00162327841252337,0.00316012044357254
1.92,2.44493396236619,0.51905939040839,2.89132007259948,-0.138375805011826,-0.0913796218105953,-0.0480046022470831,-0.639080113294795,-1.63887106411096,1.66624238074845,0.0160568223899269,-0.124736703729407,0.0461912887969117,4.92326909881511,0.00216847661536079,-0.00169256977036595,5.02325565170202e-05
1.93,2.49444509088005,0.562728763004214,3.0068656439622,-0.0570707625699991,-0.028850279932838,0.0461716707345641,-0.569024497157592,-1.51271681082896,1.65480435652126,0.0538847745583908,-0.0845603156834158,0.0261647080956243,4.87121383662559,-0.00317499565796008,-0.00510195448513523,-0.00344216943821942
1.94,2.50329538931713,0.589990244428503,3.00611066207583,-0.0494733308788929,-0.0227528615188188,0.0358853059850668,-0.50652664903215,-1.64883981860487,1.56685361213709,-0.169875388771887,-0.223514698197775,-0.0546668900358777,4.9125366060254,0.00258036297846363,-0.00123068870499723,0.000857164535577229
