time,x,y,z,roll,pitch,yaw,xdot,ydot,zdot,p,q,r,thrust,roll angle,pitch angle,yaw angle
0,3.01841953230695,4.01841953230695,0.0184195323069548,0.0184195323069548,0.0184195323069548,0.0184195323069548,0.0184195323069548,0.0184195323069548,0.0184195323069548,0.0184195323069548,0.0184195323069548,0.0184195323069548,9.11546034209866,-0.00904175593849125,0.00451078692913629,-0.00188963241251348
0.01,1.8193717654818,2.4193717654818,0.0193717654817975,0.0188485287830687,0.0181879383380787,0.0176739126947777,-0.0628071646204832,0.0992444306389812,4.26262107089366,-0.35842723158557,0.185254895689004,-0.0303567698552712,5.78615295034889,-7.79344176699326e-06,-0.000269412172838504,0.000477871065727313
0.02,1.97312140391794,2.70454697769102,1.73110556954025,-0.144012149357506,0.0766928309879511,-0.0113103104873989,-0.020723422708366,0.0253198589635827,0.934439669122689,-0.00126306011189358,-0.00461092972332189,0.0114793555951955,7.07508504204682,-0.000499925387383462,0.00155276300451671,-1.619938151047e-05
0.03,1.99493942631914,2.67910355023714,0.410543099983976,0.00394060398098002,0.00583775106418189,0.0112261970757105,-0.178896424393498,-0.322975865752034,2.28209766257481,-0.0184426615506767,0.0675105141768239,0.0049164388066069,7.00226224435184,-0.00502615506204939,0.00208864335769766,-0.000805748259519375
0.04,1.90557351859849,2.51051936111794,0.996383480274867,-0.0228266460887079,0.0152271728574801,-0.013101500164434,-0.0513596208404453,-0.027814149907371,2.17887326381407,-0.219397131129525,0.0723818942777946,-0.0284699968892944,6.69288149677407,-0.000226956852195364,0.00236702061014345,0.00191656734586144
0.05,2.01299866176336,2.68848566632352,0.961943721781841,-0.0587292570915275,0.0633090719855823,0.0225788614138736,0.00681234231589101,-0.00340411242052929,1.92702378292191,0.0119211217031178,0.121916143212712,0.0673290817187317,6.86333709369759,-0.00472600958746416,-0.00119718808639933,-0.00427925533320261
0.06,1.9965636756343,2.65840489270832,0.850452304256307,0.00292119869051029,0.0503463723354997,0.0244967999255679,-0.145258109112617,-0.139529563168254,2.09879482312569,-0.199156946587963,-0.0414547391963436,-0.0903262356153358,6.83610731298263,-0.00171577791364193,0.00299733015276821,0.00306531395721437
0.07,1.97392984027746,2.64237835671922,0.98433152917272,-0.0486295402618407,0.0213815310702321,0.00125940403464389,-0.0712511072091331,0.0344454785995826,2.11304667709879,-0.0493956809758759,0.150920747214377,0.0927419074317376,6.73477635903749,-0.00406031328175574,-0.000281242811689979,-0.00449716102134037
0.08,1.96853112327668,2.67797022811583,0.954519219663871,-0.0194273292455197,0.0659715674270093,0.0380171373926796,-0.0664994989579299,-0.108557323792053,2.00484986770815,-0.172806253940559,-0.00314144766699199,-0.0919193474397194,6.81809632409123,-0.00169528357115431,0.00144986161942282,0.00251188524305172
0.09,1.98640361333788,2.63529115914932,0.942555859017296,-0.057532215477157,0.0198621823052727,-0.0192666787102458,-0.136823878796538,-0.046940653302877,2.11994511639061,-0.065170012637785,0.0779594159547719,0.0660496829845101,6.72506712456221,-0.00294688349310106,0.00138050764027999,-0.00225692007847849
0.1,1.90653521835791,2.61023704388454,0.958471754005838,-0.0606605872788341,0.00640323462492508,-0.0012564104569186,-0.130636856376927,-0.186470876428326,2.00404053826711,-0.154476997927982,0.0346303820311669,-0.071655436867256,6.78796957134502,0.000291543729021733,0.00290256681686084,0.00342565496584489
0.11,1.93004558823544,2.57325148807235,0.939351986328159,-0.0808255594659854,0.00427386509361007,-0.0388793380137106,-0.0831074948593877,-0.179514111962735,2.09849455270241,-0.0107966306048849,0.110136000474123,0.0607244718103525,6.71544730382833,-0.00241744387783643,0.00129991113941406,-0.0010560408279066
0.12,1.98845679450689,2.61501911963082,1.02490170818455,0.0117380908006749,0.071050233754654,0.0460025438731495,-0.0240432919546194,-0.155448680198121,2.08124809363137,-0.0928030096163003,0.0768686253298516,-0.00329354570847352,6.73677407888709,-0.0051349601345806,-0.00096291769713203,-0.00206498149240039
0.13,1.9681192984147,2.57902581141951,0.999513729104154,-0.0569668848099134,0.0238842893643814,-0.0163509773273969,-0.200752837254894,-0.065642280868396,2.08689804849166,-0.231769719995633,-0.0397885555198351,-0.0547639779810817,6.69799832594074,0.00124659582312016,0.00368210340303873,0.00333074300725942
0.14,1.92512062433394,2.64692480928843,1.02712386422419,-0.0898054288587455,-0.000574278944886833,-0.0065508450779798,-0.0854264725359953,-0.140195909901987,2.08362615292337,0.0446505293049688,0.160960368484039,0.0788902462218658,6.6675631936604,-0.00408688716017519,2.21778895583307e-05,-0.00344670405416387
0.15,1.94919006949459,2.59238250442626,1.02815861132448,0.00203136606992525,0.0611869521820483,0.0208812712999094,-0.0748537834889053,-0.232675498835038,2.0611505688938,-0.189042890818631,0.00398446677732968,-0.0796269906345545,6.72368178117781,-0.00203437794502484,0.00113610938426946,0.0027382682579807
0.16,1.96034142960554,2.55995057543982,1.03981399539597,-0.0874930006107353,0.00572441607039146,-0.0334124398816784,-0.174401532956672,-0.0821364045626643,2.133053426444,-0.100974097727084,0.0541538051109467,0.0550374887406842,6.61418574132409,-0.000798111546534307,0.0021607474041838,-0.00105593049909619
0.17,1.89231879024716,2.59680717488624,1.04639981856236,-0.0775898117404799,0.0020861103841508,-0.00186023063678033,-0.128216656128311,-0.264458149683085,2.02451908850882,-0.0712941180374284,0.0697695421522912,-0.0443929086975191,6.68080708433332,-0.0011696717028234,0.00191047327565805,0.00216519143895589
0.18,1.91535420109395,2.52356312388523,1.0296200931305,-0.0631243724810153,0.0106808011582342,-0.0411553528769278,-0.116359195886842,-0.261163943639368,2.10757231686574,-0.0841287236923234,0.0649004857165959,0.0252673475037607,6.63234659360323,-0.00143674481879999,0.00169129252235602,0.000722264449174338
0.19,1.96697668682611,2.57211350228832,1.11489271987975,-0.0268056999441802,0.0513724732087126,0.0286257752369988,-0.0633692501539044,-0.169109581651503,2.11158631464127,-0.0613869082059028,0.0908030080894469,0.0306393843080454,6.60761670587906,-0.00450496354665609,-0.000785906904176177,-0.0028436084585961
0.2,1.96110219428389,2.5821095054364,1.10735414694412,-0.037204287560258,0.0422757025573426,0.0085382839369276,-0.154983036781518,-0.154422755708688,2.08519626371385,-0.20300543660038,-0.0206763512995704,-0.0614679506372586,6.62172483014507,-0.000611689918761546,0.00218662350880013,0.00246291785639162
0.21,1.90880453400531,2.57469366261717,1.09335424584138,-0.108613270662741,-0.0160301268452436,-0.0369212921666677,-0.172130183799915,-0.196443873209194,2.10278408546026,-0.0580949118091154,0.0863077615720296,0.0389927812642176,6.5746686297034,-0.0006614774873259,0.00198371373685277,-0.00012079817760501
0.22,1.90373236360137,2.55885018116227,1.11455963159001,-0.0517849883525021,0.0277598208721134,0.00189676657858402,-0.092817298618422,-0.307268162359402,2.08680286690137,-0.0601508256166767,0.0757545109253286,-0.0149192559736579,6.58310558893411,-0.00283943459493386,0.000470354510374946,0.000586584906132272
0.23,1.97080981103763,2.54439168351774,1.16003895938143,-0.0216423093891084,0.0554772017196226,0.00878403284184376,-0.0990032501391533,-0.181002387636159,2.12544573027912,-0.122414426014392,0.044301754457356,0.0258452416419123,6.56363072820306,-0.0034367775751836,-4.05250175089272e-05,-0.00168206132337551
0.24,1.94368606766798,2.57389065448317,1.16317871871274,-0.0647017731978078,0.024902855581478,0.00812621599991147,-0.170888017012532,-0.17232012381907,2.10761005283801,-0.162933120101768,0.00921864357262229,-0.0368796181742519,6.53941562803629,-0.000583394781049516,0.00198796513513505,0.00132284121127845
0.25,1.92730252805423,2.59152398949864,1.17732503210379,-0.0707150481050155,0.022342340817326,-0.00362375601510245,-0.114238919989422,-0.216274853719633,2.11018614674062,-0.0386776768316821,0.098887321354418,0.0357801027410936,6.51967550090166,-0.00332416117375552,-6.14584459511652e-05,-0.00155662051029789
0.26,1.94664073634196,2.56744011929029,1.19394912289313,-0.0237556508814778,0.0556406992629418,0.0197230882559833,-0.117854853735813,-0.234037661572989,2.10525366782451,-0.153446404449694,0.0166837903649622,-0.0271336226970345,6.5408782422865,-0.00258277218782943,0.000383604365214944,0.000311995132163353
0.27,1.95244150357181,2.56685083092116,1.21271381573953,-0.0638022774541803,0.0309633554833383,0.00283540142005025,-0.153890148560529,-0.169195838240283,2.14678906552671,-0.117812095804533,0.0408534336497126,0.0180418442374084,6.47355710693529,-0.00207212420983214,0.000834739351226412,-0.00102951697606018
0.28,1.92808061613787,2.58572466296704,1.22962130252926,-0.0571264751831095,0.0334324543192072,0.0145669687400441,-0.13659211097856,-0.232007549109637,2.08987676867593,-0.104144502618288,0.0513653285842307,-0.0160924231204477,6.50076222458239,-0.00248869088328733,0.000387770292898641,3.47166324018345e-05
0.29,1.89902910320894,2.52148290670583,1.19163177632816,-0.0851826748676046,0.00529254085297753,-0.0320514367129822,-0.198488821067404,-0.288677766424083,2.10159817707235,-0.148846612360297,0.00839691159339612,-0.0211768050753959,6.48695347712979,0.00045906655169741,0.00241001958993948,0.00249171183767912
0.3,1.91309919930646,2.53782748754745,1.24090394761093,-0.071194002446857,0.0203509233138437,0.000321962393721283,-0.116051525528196,-0.274530674120298,2.13777248663464,-0.00296013207365804,0.113770626452464,0.0582995281279344,6.43921566943089,-0.00416359899961812,-0.000701925330360264,-0.00280443736050086
0.31,1.95858039666748,2.55309713356777,1.2846250091762,0.00163686156708592,0.075967838956278,0.0416187266395591,-0.107682222691881,-0.238885878664095,2.11483238021385,-0.181193104521555,0.00521587771590473,-0.0421843678725374,6.49401636634307,-0.00340581090702758,-0.000598326892622488,-4.74338441962606e-06
0.32,1.95085521412749,2.55693136932623,1.27922704643812,-0.0789422283661819,0.0275428415631018,-0.00478394770785156,-0.193176226161919,-0.176762514574033,2.18198179864853,-0.156102207787711,0.00462671247422359,0.0106402024816563,6.38107906073734,-0.000816509656402062,0.00152834532627716,-0.000316354424219742
0.33,1.84903760421445,2.51942311220256,1.25215942450383,-0.128806344677203,-0.0325088646281817,-0.0387007050089157,-0.237812551324986,-0.364001008282049,2.02753197153773,-0.101307357669771,0.0361522830385615,-0.0451582835565798,6.47404655576042,0.00152950158081684,0.00286410496920064,0.00395659714618781
0.34,1.88246447803412,2.48958643428031,1.25466237508226,-0.0666404546983364,0.0195860512965158,-0.0212527540503197,-0.109123745988241,-0.377170386475678,2.19237262438499,0.0274940187428046,0.122921734949633,0.0791331065055299,6.36722276262533,-0.00479177148510654,-0.0011741543630379,-0.00276350571228729
0.35,1.93055311504172,2.47436860196573,1.33469742123958,-0.0159613313882278,0.0525511447525768,0.0225466872756997,-0.163825901137923,-0.30658876355462,2.07585186719848,-0.232485074186221,-0.0346352019439176,-0.064045803107208,6.45382054170771,-0.00104539707163477,0.00112135269182517,0.00193243024406873
0.36,1.91876761563371,2.51852444488825,1.30580389385376,-0.109406330183256,0.0038622252453571,-0.0187229891808109,-0.183486294342188,-0.242518621264653,2.18808764221608,-0.0700604121724646,0.0676069791483397,0.0455335552793664,6.3263127713968,-0.00138485023358189,0.000769520331111142,-0.00129991237555358
0.37,1.89020356241726,2.52636306782387,1.34086560886159,-0.0611997077623876,0.0289157544414187,0.00859445321201338,-0.162339467718287,-0.364109422716853,2.07222986610971,-0.0977785825701276,0.0367104449795383,-0.0359527574533943,6.40160040415115,-0.00234214904812571,0.000308550527790729,0.00126600527554553
0.38,1.91178698342474,2.4830611140907,1.33228606305048,-0.0630571576466321,0.0272991890700879,-0.0150770207421422,-0.171404978534671,-0.314716768413025,2.15857241905078,-0.128134136980979,0.0291926295312502,0.0264892968196711,6.34517825565007,-0.00176669992925846,0.000550994804512391,-0.000573331231155309
0.39,1.93917402784112,2.53741881816383,1.40231572561681,-0.0454078952056371,0.054214033004586,0.0402103733515919,-0.122006361341866,-0.26755489595369,2.14428449085701,-0.0811064265015413,0.061745189090423,0.0130100085926787,6.33294376013513,-0.00424241377149486,-0.00149254554382231,-0.0025453533128003
0.4,1.9388829023939,2.53529167303558,1.39491619244282,-0.0413200023425,0.0532586140450928,0.0184925341268781,-0.172113501014461,-0.283711686578722,2.13380604965138,-0.19443141503783,-0.0283697662374927,-0.0411297933755722,6.34446851380822,-0.0016211543217188,0.000708707862036186,0.00104137369321796
0.41,1.90619270044612,2.517402982123,1.39331759593982,-0.098951048282403,0.00656202719621041,-0.0111394224835109,-0.19725378558269,-0.30288816781005,2.14884827123594,-0.0984590109219204,0.0496788932151741,0.0255178640296624,6.28717511859321,-0.00128698229067773,0.000738997911880508,-0.000712589285202281
0.42,1.87136266756629,2.48445587272026,1.38812983931421,-0.083947101662007,0.0150751819625858,-0.0069359527361689,-0.197169129257011,-0.396094328001734,2.0920627028233,-0.104387064979426,0.0296827277978002,-0.0304035112175012,6.32500583220768,-0.00124771964321026,0.000671480335221579,0.00174211959124745
0.43,1.89278591031371,2.46242524140467,1.40079570858036,-0.0705977015747644,0.0237123092761625,-0.0136110031532512,-0.178893917321166,-0.368330569022152,2.15389082988721,-0.0893276722058308,0.0424046056783935,0.0352265108859282,6.28089978231339,-0.00247169371144279,7.46946358929635e-07,-0.00105078331129981
0.44,1.90150242232347,2.47556125686895,1.44009623393766,-0.060933596525355,0.0326438068597125,0.0160763884025451,-0.180928000358022,-0.354769070951699,2.12422835529622,-0.136959490465174,0.0181744307789035,-0.0204582881976822,6.28624040581217,-0.00193014131196827,0.000153842174514376,0.000180729014117467
0.45,1.88385528371182,2.46456489347407,1.42560149544355,-0.0942590750739008,0.0102760174676149,-0.0190386754317656,-0.212089347690685,-0.37793340767713,2.12969788506588,-0.126467086049238,0.0149714727982874,-0.00559971539997513,6.26202041469504,-0.000545958056543298,0.00107713351708161,0.00114007114764987
0.46,1.87602219404043,2.45999793678426,1.4439827178977,-0.0866291671361254,0.0130154315227803,-0.00811312150829059,-0.19171381432659,-0.403938011178508,2.12884659155012,-0.0674940617271782,0.053563094738659,0.0183609030740203,6.25039094549185,-0.00232081967069014,-4.06183149011587e-05,-0.000509540402682278
0.47,1.89930501032734,2.46091293417099,1.47565792524159,-0.049139819271041,0.0429447742154492,0.0142807430202176,-0.170477842929374,-0.382506655312808,2.14117180867294,-0.128469109699592,0.0217831856810925,-0.00464117988374704,6.25016052091108,-0.00276465471258442,-0.000592403344518229,-0.000476202706300431
0.48,1.9292029948383,2.49073503808528,1.51355015436098,-0.0527196637130128,0.0523644247668518,0.0257827925360113,-0.15780098914798,-0.326224696188404,2.1690775552018,-0.12908777295695,0.018615496043496,0.0140348703610821,6.21168406487516,-0.00309905508697404,-0.000910006124930551,-0.00190351103820717
0.49,1.84521767249644,2.42661728935704,1.45655089774968,-0.129635084573957,-0.0249774907999218,-0.0412247674297217,-0.295289332385848,-0.461221113274199,2.07516441060113,-0.206967361068748,-0.056753377542029,-0.0797965267718917,6.24691932439125,0.00359539343683814,0.0035968415302107,0.00572008940387482
0.5,1.82496994307554,2.40656275522257,1.46099378178912,-0.134597470238578,-0.0326409919176304,-0.0501197379879121,-0.204415499594201,-0.488510682012648,2.16808032661202,0.0841039216926121,0.143837946021098,0.103402836509982,6.16919987648223,-0.00350012056834927,-0.000788555009153599,-0.00253701012898104
0.51,1.90767902626403,2.43275994632315,1.55991428789514,0.0238300805426215,0.0908177777034054,0.0607466459611393,-0.130415364410669,-0.423771260438804,2.14554276569526,-0.171174877505836,0.00744022067150783,-0.0361945551082967,6.25907370494048,-0.0049696494662571,-0.00292472145926184,-0.00112877355033272
0.52,1.92068647688242,2.43983334340964,1.55307010187014,-0.0912701857131759,0.0294142791803303,-0.00779044452502212,-0.231632293761738,-0.350237295639252,2.23049963935659,-0.236402887145773,-0.0846211451513367,-0.0151473281392328,6.09480116627299,0.0011791729567006,0.00236241515727895,0.00106755862416235
0.53,1.85679610390426,2.45956701655248,1.56583152796202,-0.134354232343271,-0.0252154206064329,-0.00959429530549546,-0.217597907094525,-0.44136693058188,2.04969059590834,-0.00197055449071085,0.104874884998945,0.0177354692269151,6.19320213455487,-0.00211265309697505,-0.000102081040368702,-0.000406213003863162
0.54,1.87955238471985,2.43037795899222,1.53685568748036,-0.0276598452737531,0.0643591066690105,0.0140352227351676,-0.16591675724923,-0.469516362989631,2.19195665330724,-0.12504678588594,0.0199795852460593,-0.00243046954725045,6.16527472485448,-0.00390087696803278,-0.00207734551401434,-0.000539974351631862
0.55,1.87176693365509,2.38323706676669,1.58074130585651,-0.104156470002436,0.00435309838896394,-0.021705108877419,-0.263374693561529,-0.456063492187807,2.13004070078335,-0.220055904908448,-0.0780614699997279,-0.0273674251750916,6.12204125205919,0.00202092318887522,0.00284532485426746,0.00230949540591942
0.56,1.82852394301399,2.39505459748654,1.55726763568062,-0.143808773038521,-0.0369164058460804,-0.0283320488190572,-0.235822958627057,-0.503803384858394,2.10293275988022,0.018092761322688,0.112988963910711,0.0323668232893882,6.13755709027797,-0.00186481900403147,-0.000164476382248612,-0.000207163117589494
0.57,1.8691888675849,2.39696704341575,1.59390145141666,-0.0233074901083599,0.0659874080235518,0.01835568200916,-0.171272242128969,-0.499994390224854,2.17681088060117,-0.118590528683171,0.016385737101758,0.000556849510727117,6.13377282580573,-0.00424239012094742,-0.00233383778352512,-0.000875907261898763
0.58,1.91856143533699,2.41592612249235,1.6621985228541,-0.0560746868808824,0.0505080920597859,0.025809773463338,-0.184389559049594,-0.406544774582994,2.177616760081,-0.1961721317262,-0.0492129162698149,0.00525267300832138,6.07546750125509,-0.00155880122865427,0.000229975304220826,-0.00147558358498604
0.59,1.88847785421461,2.43993496981467,1.64772112903695,-0.102906054895572,0.00946970385140133,0.0157837594346417,-0.204553315190603,-0.447451922452917,2.11425225264515,-0.100559889976447,0.036946434096927,-0.0199234090781584,6.08879785783238,-0.00166242547091441,-0.000176973231409184,0.000176683650482506
0.6,1.85502226411156,2.39392130589905,1.61687553520532,-0.0892021346076898,0.0203118834019817,-0.0180683581917618,-0.230422643007658,-0.518055848601914,2.12380335732737,-0.12514100925329,0.00278926029292899,-0.00481256350001446,6.09300954117789,-0.00120621133729897,-0.00015698259391842,0.0010730156953612
0.61,1.87757313417891,2.39226499359253,1.66470027525077,-0.0733333230578672,0.0330143769587664,0.0138701639799131,-0.194151818538191,-0.476985598034482,2.15944200112001,-0.08545440312959,0.0246497956481393,0.036330577585488,6.05307174626632,-0.00325895383513715,-0.00122252696915594,-0.00237932970456074
0.62,1.8633489802147,2.38004159108731,1.66881449318242,-0.0790737721735669,0.0199761602391048,0.00863156298760474,-0.235687586152143,-0.513240082880446,2.10798328106123,-0.187711650028166,-0.0355713940661814,-0.054922367580125,6.07633164347393,-0.000260626267574358,0.000727067793275779,0.00218232440356524
0.63,1.83708801998131,2.35607672193511,1.64990948553163,-0.130303527259914,-0.0134099675180125,-0.0355177402896456,-0.249364052382137,-0.540848863241362,2.13462304481149,-0.0748203225387705,0.0364338962928425,0.0341320476950701,6.0305404991165,-0.000563598618878158,0.000211798980142365,5.13033014687571e-05
0.64,1.8378468196746,2.34885168966415,1.67784476044911,-0.0803941348434519,0.0213963553969121,0.00532461718749321,-0.230646135511608,-0.559336961953003,2.12270841764523,-0.0825609913177804,0.0168956804876277,-0.00627831357872317,6.04512517870936,-0.00264943700911149,-0.000890972676051252,4.43019011057019e-05
0.65,1.84125269586623,2.33041035475241,1.69080707055385,-0.0873161547682513,0.0106299203674775,-0.0149871801159985,-0.246640489250953,-0.558544214863947,2.12677298967105,-0.170002767913833,-0.0273049493738744,-0.00908519672254355,6.02673649652929,-0.000198838624933487,0.000653656442560005,0.00113190072690032
0.66,1.84043601464901,2.34054360605706,1.70545270185302,-0.115594420451381,0.000235025385282247,-0.00765498755320516,-0.232639097162027,-0.555187104711506,2.12766737147657,-0.0650181265813814,0.0389103244435902,0.0204339637291538,5.99830332318161,-0.00165724833478953,-0.000556772530270079,-0.000613110593492989
0.67,1.86049213291672,2.3539114523664,1.73331444705688,-0.0592096641144913,0.0416076783649408,0.0181003859922224,-0.205918194163457,-0.547154567834697,2.13227546933345,-0.112552495469645,0.00328506332884596,-0.00424988595185792,6.01760819675652,-0.00322519967435401,-0.0015577503848518,-0.000640360464528499
0.68,1.83459771930624,2.31575914903602,1.72208907660503,-0.109942022990566,-0.00334127918168483,-0.0231543959460378,-0.270313839242481,-0.594820873853018,2.12155837105739,-0.202455522559753,-0.0604091264706083,-0.03070000946097,5.98379431214175,0.00166597404066716,0.00179599596654756,0.00254348637777233
0.69,1.83836498237911,2.33085780664922,1.7508232461323,-0.119987172924482,-0.00302495221532404,-0.0053838741333434,-0.216881650471236,-0.56883848123103,2.1328099699878,0.0174890210882916,0.0925554844462509,0.0592989546689927,5.95439889515895,-0.00364652450590687,-0.0019759085743565,-0.00255341485856731
0.7,1.87404211320466,2.34835643554487,1.78830326494887,-0.0162066178816074,0.0729406794199357,0.0438771670518929,-0.191940175714575,-0.554746631849474,2.13086516167368,-0.187368058582097,-0.0422826568353912,-0.0363342369571821,6.02432977925127,-0.00346316477258043,-0.00212300229801524,-0.000299012813931532
0.71,1.8605151839598,2.32761957507426,1.78364784662442,-0.119482151084266,0.00179084757308753,-0.0143478217282854,-0.24513278375191,-0.576650755502749,2.18889869832153,-0.195430036439824,-0.0620936555649586,-0.00442290482832586,5.88460057382429,0.00136421471403585,0.0016663283099027,0.000884311964920986
0.72,1.84810208648501,2.33595703577159,1.81791214321516,-0.112897386422113,0.00337166079349466,0.011600227719625,-0.214867096357665,-0.574288913563684,2.07280125236625,0.00895695894514691,0.0905201442396798,0.029447949516586,5.9547736332768,-0.00399150613947742,-0.00235387442409407,-0.00193792037534538
0.73,1.84499772831686,2.30967714757642,1.78326061858745,-0.0449578230021036,0.0502759544078992,0.00937689184512884,-0.238714220314637,-0.618336131909832,2.13620884664246,-0.221244607805258,-0.0769356304636312,-0.0423581467291079,5.97240824874619,-0.0011694138958591,-0.000488225313729564,0.00159523868802131
0.74,1.87921480278692,2.33529886120311,1.85949819514228,-0.099987870447567,0.0227976213130136,0.0189400319378943,-0.183374568304036,-0.550327440124009,2.19106255844299,-0.0747992546834976,0.0292400802674039,0.0651678799701275,5.84723364535071,-0.00296045145868611,-0.00160126769764535,-0.00397260907857247
0.75,1.8706001446142,2.3361529744353,1.86397895646044,-0.0612149631300351,0.0436274492731286,0.0421888363406997,-0.215553483308608,-0.589032753124808,2.06068387000832,-0.166064205707483,-0.0348213155617401,-0.0703266198960874,5.9660460528135,-0.00216726146861667,-0.00118521289765075,0.00136168088669204
0.76,1.80227597963728,2.25758567491988,1.78118601787951,-0.151940035468507,-0.0333094047332851,-0.0635700422633521,-0.310814909400017,-0.692151082998948,2.13582621266924,-0.178494547854352,-0.0560900525391145,-0.000896172291219764,5.881210132168,0.00309340575355588,0.00208069343693208,0.00304974033156098
0.77,1.80631616728457,2.26042728584855,1.85400906084115,-0.12244689542701,-0.00742984417284315,0.000289222905862168,-0.245748972665228,-0.648424865337203,2.12539357089069,0.0651466864183614,0.0946842149566836,0.0645895116060312,5.85997998436399,-0.00474031315726485,-0.00265698557625697,-0.00305768361181933
0.78,1.791754532655,2.22433711583959,1.83849619668928,-0.0588052735195798,0.0177656208729198,-0.00901811802848876,-0.302788713383512,-0.716656025041213,2.06127315403531,-0.282606994631972,-0.117703274814245,-0.0939712936680781,5.94838579124389,0.00149589383568411,0.00125793567794111,0.00489821178642776
0.79,1.82900465606274,2.26054843121784,1.8752354487507,-0.146358040433593,-0.0147298289467103,-0.0193892439060831,-0.216632707774899,-0.636503500282306,2.19367596188128,0.0128119266115358,0.0849903574709003,0.119517734167659,5.78006553778566,-0.00266954280430111,-0.00196533736413145,-0.00473610712630504
0.8,1.84179120731546,2.27395571428128,1.91601982976959,-0.0384280330129004,0.0550143579947544,0.0550049760180511,-0.236145261663766,-0.654437837253139,2.05073336676124,-0.166840887794737,-0.0567021973353977,-0.0945116800682885,5.93965676272469,-0.00298095017098806,-0.00177610594223128,0.00193226239662198
0.81,1.8402941989011,2.26268595155618,1.89416392055731,-0.109897590704098,0.00521173298850466,-0.0278042947691247,-0.233108712241258,-0.669259858670689,2.19995290941418,-0.174756422855931,-0.041310608653215,0.0503864668195663,5.77198524739402,0.000217687493629647,0.000298368740413711,-0.00106055067692963
0.82,1.84147279964249,2.26523220935493,1.955346895358,-0.108255344065049,0.0148780962780542,0.0357974790173535,-0.225678553712896,-0.65548223515478,2.0502897565852,-0.040677010774894,0.0346993210526734,-0.00924051616341451,5.8499332844789,-0.00316889721112289,-0.00216714581669543,-0.00123450552194109
0.83,1.862995844204,2.28035112128772,1.93482007717316,-0.0386635682439035,0.0622237044501328,0.028088597818787,-0.199423755704114,-0.64673403553576,2.15150084839186,-0.164965761548942,-0.0442485344908457,0.000774666420897269,5.85029623630208,-0.00344621988032263,-0.00241925567364872,-0.00128872034693005
0.84,1.82674155222369,2.23458307076319,1.94843038968095,-0.128483983976251,-0.0092701535590755,-0.00811381845476166,-0.266533278146038,-0.724798991246826,2.12198377344903,-0.210450759778212,-0.0871920498823691,-0.0334929910904832,5.76976915934865,0.00219309256099991,0.00172206719929635,0.00197879921382211
0.85,1.80417803887704,2.21198432567298,1.94427976274021,-0.144159307417916,-0.0244069646978624,-0.0164063145181887,-0.267316543014232,-0.714851269725928,2.06421407782473,0.020057915293943,0.0774399657857985,0.0386532141513466,5.80793879631135,-0.00277668193813799,-0.00197387819149762,-0.00104442077146062
0.86,1.8211056597709,2.22161826985172,1.95876669661928,-0.0371615600621192,0.0565975514666895,0.0267327041606745,-0.243090497835927,-0.709060552117162,2.13346689823478,-0.169780815074979,-0.0558017804439548,-0.0132836063023339,5.82970436815406,-0.0030854508156939,-0.00241255333528721,-0.000553294161662218
0.87,1.83607000235306,2.22515703508824,2.0077128338115,-0.108120489887274,0.0104670772145954,0.0103802501257115,-0.225780662898887,-0.717488044242132,2.14799588706496,-0.176854543107184,-0.0672515482585229,0.00262944922161287,5.71846724363923,7.5987109901538e-05,0.000351791499271787,-0.000595249034354482
0.88,1.79271582527386,2.17974467543364,1.97217450473422,-0.151556881498444,-0.0343368197355608,-0.0205373315261883,-0.299058479862945,-0.774271968473979,2.0101013547174,-0.0825076983489422,0.00593193770382243,-0.0315390732335855,5.81173039572849,0.000339345009037599,-5.18369776922634e-05,0.00246743339914884
0.89,1.7799423175105,2.16426816029063,1.95070840822524,-0.103615884636219,0.00522241493305,-0.0232351002877777,-0.2847955506107,-0.778286850714785,2.1462882165254,-0.0625762744244809,5.55858889588314e-06,0.0426583276705713,5.74196465058331,-0.00246891102410896,-0.00185787396822832,-0.00089060082269081
0.9,1.79747042227877,2.16687621389075,2.03331063914114,-0.0841514476092382,0.0141955251554855,0.0169086357063632,-0.260585142678631,-0.767366662279058,2.06794932527651,-0.16761897618213,-0.062968183254363,-0.0190489837774086,5.76264235560408,-0.00088176578318613,-0.000498280672605662,0.000136941375912808
0.91,1.74862485075749,2.11561260893944,1.96012640269968,-0.175678368593553,-0.0591865137483849,-0.0552420426251116,-0.340054871693509,-0.86436726824364,2.04857441652116,-0.144641573566863,-0.047420644705589,-0.0373668075750219,5.7628795257189,0.0035788560104583,0.00163128815662567,0.00438746939086751
0.92,1.79634472836277,2.15603439953064,2.0308597856397,-0.0979866352487929,0.0147381868688187,0.00604424978547941,-0.234351377979367,-0.749350128766786,2.17344826464237,0.0949057382239712,0.0916015272102378,0.11090036713883,5.67198368987181,-0.00689006875987066,-0.00491822039995514,-0.00546689025595988
0.93,1.78742306719123,2.13627820771412,2.06451236027842,-0.0399065507828679,0.0269673650004827,0.0250937575599423,-0.288456381675718,-0.834941382483329,1.99940352456802,-0.366272390774305,-0.196490276118083,-0.132685077800064,5.81360004851573,0.00247142658509705,0.00177189326527768,0.00515809172516475
0.94,1.80986667599989,2.15477795718066,2.04008757373072,-0.187374079491652,-0.0479049996834808,-0.0331065994036417,-0.221828713352489,-0.79514915497284,2.18567673041923,0.0424328099618371,0.107128404665995,0.126499464845764,5.60154816630375,-0.00159215659593022,-0.00212201949877816,-0.00441468530282874
0.95,1.78975831903465,2.12407626228291,2.07610998369999,-0.0595987037608843,0.0404958747771797,0.0368723081129352,-0.299219292255929,-0.815711716848895,2.0032119058693,-0.149868132864118,-0.0866493461251471,-0.10651009052573,5.7907567172316,-0.00230390639737639,-0.00174798540023189,0.00336779778199554
0.96,1.79405849424072,2.13428429280235,2.07071613828265,-0.11385907658163,-0.00953646086586803,-0.0324721660402556,-0.233690296484026,-0.832271531027801,2.16723714164756,-0.155679936216448,-0.0455554454082575,0.0807609162746564,5.61289536456231,1.72094198091742e-06,-0.000107644558753984,-0.00226321396348499
0.97,1.81557665633783,2.13373543434251,2.13290711974098,-0.1117087412449,0.0102327052331049,0.0467900265443239,-0.240493569762948,-0.804462366744505,2.00778281421443,-0.0571990815170536,0.0113714274929195,-0.0355183209855381,5.70189874330459,-0.00257127890556679,-0.00251426421272442,-0.000492078929290228
0.98,1.79183556553207,2.11505649642811,2.06821498259051,-0.0928294455125168,0.0139519773300285,-0.0186764747674694,-0.267663001597023,-0.859324492427683,2.08360183290629,-0.178205149639587,-0.0929116328739537,-0.0139578529067471,5.68611205018192,-0.000208177032269615,-0.000329369365047725,0.00158437462265707
0.99,1.79631234752736,2.10629520473425,2.12712361425026,-0.127672299015331,-0.0148914709740494,0.00321969439198659,-0.242132886542956,-0.849985920220328,2.08319246344971,-0.0717922884283224,0.00243980802421928,0.0417172893984043,5.62238145117736,-0.00140558687327267,-0.00133671756722206,-0.00210253593427204
1,1.78840850954971,2.09019025098548,2.12265784221375,-0.0981689200319871,0.0105230864050736,0.0136714768742376,-0.274614553898003,-0.86583163139999,2.0268798739759,-0.131348364034163,-0.0496032754336276,-0.047280366474389,5.684070658475,-0.00111739249404421,-0.00145830232928876,0.00163334923473195
1.01,1.79082450330973,2.09262621185858,2.1292916744608,-0.110830942113378,0.00209056626840288,-0.0103078529469411,-0.244019671146682,-0.871615170681687,2.09546589552783,-0.109775030642289,-0.040904424895574,0.0426023615093074,5.61362657400958,-0.00122140425505794,-0.00121812537956742,-0.00149259436858938
1.02,1.7641162084186,2.05079824361342,2.13405470498483,-0.133298909027498,-0.0256661824472942,-0.00469190063528002,-0.298185317537915,-0.92466797922587,2.00563078746507,-0.139769458723975,-0.0616243722124601,-0.0497757846172598,5.65407678721619,0.00101525744893904,0.000203626536202501,0.00259602761688066
1.03,1.75177113657479,2.03462567488985,2.11994059429538,-0.13950486915097,-0.0285640416663352,-0.0349146866147715,-0.295847682998397,-0.923015248751821,2.07147270083276,-0.0447561142773597,0.00307358366586088,0.0427784356566219,5.60680079958313,-0.00113927260102835,-0.00150315672597702,-0.000353685910136789
1.04,1.796291893597,2.07357747579681,2.20049260286422,-0.0604992218496725,0.0386919067826475,0.043126650882672,-0.227851461571019,-0.85765050521544,2.07079115219829,-0.0975623799073832,-0.0330735976136166,0.014348238946675,5.62536969307197,-0.00388189530111646,-0.00347647079406859,-0.00262065662334596
1.05,1.77492814693118,2.0463197865092,2.17540212919269,-0.121008042325645,-0.0144927858156339,-0.00767831371582749,-0.266114445409432,-0.968133268680182,2.04042763568734,-0.241440515938076,-0.141655808696127,-0.0660931477863228,5.59047780280222,0.0029745434275223,0.00165459438366747,0.00352026608224715
1.06,1.77726369105822,2.02405146162861,2.18208820509597,-0.163479422157831,-0.0444498481460195,-0.024216089251595,-0.262152230990841,-0.921057012022675,2.03636864806834,0.0471968740402472,0.0751431019694697,0.0775014484687662,5.57414519554723,-0.00250246335614148,-0.00259612656953105,-0.00250284423656499
1.07,1.73919354150514,1.99343878967948,2.16448043048558,-0.0817530781753268,0.0100346104263541,0.00169888650264204,-0.327252029481562,-0.977821486165989,2.01947149211814,-0.201924540694062,-0.123508236830244,-0.0786323907015633,5.63733700996595,0.000345977044916878,-0.000545711980720405,0.00369032341282338
1.08,1.74085395921422,1.99143659775828,2.20001831992296,-0.161567348829183,-0.0487877227346551,-0.0417212507480639,-0.266809557140341,-0.99130276797718,2.07347512207826,-0.0701685022400824,-0.0201130085053386,0.07130161247237,5.51805790594407,0.000582576062067387,-0.000225767078448158,-0.00138951131414
1.09,1.75050820245619,1.9756115984243,2.21325847684222,-0.115798260523696,-0.0121003668438587,0.0136660067104942,-0.302379026766853,-0.966742678011329,1.98957237215214,-0.0629506458371272,-0.0214758585303042,-0.041778777879661,5.5976688379099,-0.00173899960068828,-0.00202352856854428,0.00136758468359914
1.1,1.74802636444459,1.98585263711578,2.21439157042398,-0.104594513361355,-0.00416791865583909,-0.0226662894254998,-0.268608095502473,-0.995452084195074,2.05503913567172,-0.149773782925675,-0.0800584093138568,0.0247100530328859,5.54563233792132,-0.000130893101720747,-0.000848462235998622,-5.85742106543996e-05
1.11,1.7830873590101,1.99760642441436,2.26877033929063,-0.115755577225226,-0.00444951415392308,0.0263656896469371,-0.223649222687656,-0.96578210226747,2.02617382042134,-0.064673839625223,-0.0181710613874094,0.0141282730980016,5.52567960997603,-0.0019844708174633,-0.00212012988465612,-0.00187235393908045
1.12,1.7964347798383,2.00158092729372,2.26833953773118,-0.0821721318503023,0.0200903271823067,0.0232755629987759,-0.22629994337647,-0.969004938825526,2.01494580709312,-0.140633442244946,-0.0670497856191711,-0.0244251478437418,5.55756295942819,-0.00165931530391292,-0.00208362944985225,0.000122261948412137
1.13,1.79809595013736,1.99802154984482,2.28164878828518,-0.110340459338214,0.00376802932279584,0.0101180333978388,-0.206395840611597,-0.994333250364245,2.04895899618567,-0.125427792110352,-0.0620204167183171,0.0206568522359154,5.49288469710915,-0.000770397991414443,-0.00137070868206894,-0.00141130901332066
1.14,1.78202580103217,1.96210156514165,2.28368963796109,-0.123568285735751,-0.0136465972488367,0.00971073575410657,-0.247624293746695,-1.01483621410728,1.97613554261735,-0.105407668262729,-0.0527963295035104,-0.0279776776990603,5.53180965448752,-0.000431523056740081,-0.00109585404051347,0.000897237452866225
1.15,1.77371022534985,1.9555151915957,2.27809936063201,-0.110247189707845,-0.00415658218727381,-0.00312978992292141,-0.246584526779051,-1.0129580241537,2.03212872957779,-0.0870798564550951,-0.0354697268409189,0.0263155851150496,5.49880390857794,-0.00157152317945616,-0.00216293809261262,-0.00105163799266652
1.16,1.7399339510765,1.91609223943049,2.28305101847673,-0.132317018456294,-0.02664116246553,-0.0105951731565435,-0.287753159243467,-1.07935779932042,1.97160779664906,-0.157811245140971,-0.103580393318574,-0.0395981991104538,5.51601139574355,0.00167667127511004,0.000237269005010142,0.00239806336573015
1.17,1.73676187997519,1.90025981222297,2.2810934802119,-0.150383543190938,-0.0441426234268845,-0.0266530782187586,-0.279878940894541,-1.06176770768381,2.01490300948585,-0.0181694222450005,0.00162478876916048,0.0431213666682635,5.47337317143372,-0.0011171498721174,-0.00173119394127823,-0.000760375289650592
1.18,1.77383757133018,1.93526212876617,2.34568275198284,-0.061292939521181,0.0316001082332952,0.0411999928582963,-0.233689417691658,-1.00312281250117,2.02001165746553,-0.102855875556895,-0.0507317102688431,0.00371093807391464,5.50076289958642,-0.00345066350918771,-0.00379054473829389,-0.00201958105181484
1.19,1.77997942615533,1.94001364392383,2.35478154024252,-0.103404056589925,0.00317864227209091,0.0165130097691205,-0.199977467142763,-1.08460330595131,2.02000775493882,-0.203932591139555,-0.136891214949132,-0.029203096762472,5.43631978347833,0.00112805769103394,0.000123532901153171,0.000647247231321208
1.2,1.78036192161562,1.89697518466472,2.34608788420059,-0.153932050100131,-0.0412995297024264,-0.0059927500743234,-0.233809708236372,-1.0746838752203,1.95309514243911,-0.0273238466218195,0.00869231593379656,0.0197209402023518,5.46241658144105,-0.00087128427734121,-0.001775764701102,-0.000629392075595313
1.21,1.73166490885125,1.85747276034123,2.30521174511829,-0.115266447517921,-0.0142049323433363,-0.0158051781847408,-0.311097242757673,-1.11521395760834,1.97901869933563,-0.133789836791508,-0.0941095198486362,-0.0337554336868337,5.48561504115123,0.000352502600169421,-0.00113315847909388,0.00237475675850654
1.22,1.7368420672155,1.86921452416952,2.36452191227865,-0.129304196944112,-0.0268040202640252,-0.00986210121866767,-0.241690956622335,-1.10299507293481,2.0132459573606,-0.0603707353445049,-0.0429193059936369,0.0548547665675353,5.4058886544766,-0.00109449553729451,-0.00154909521205815,-0.00209803351344679
1.23,1.75981580788476,1.8679662135077,2.3855619599014,-0.0981229973690188,-0.00455757102167,0.0286786393374463,-0.248266683060618,-1.09440808864971,1.94591821673299,-0.116717535093007,-0.0616408632270528,-0.0388235677384711,5.46148060326203,-0.00113201025870966,-0.00208728806859944,0.00053259538008794
1.24,1.73896474746022,1.84707426535068,2.35651400884947,-0.137631231960592,-0.0280474654141685,-0.025002073381224,-0.257567455916763,-1.16007422095485,1.98172386771033,-0.132580711019927,-0.0922540481160836,0.00416168996934188,5.41710360572726,0.00135981059348375,-0.000453187772021848,0.0010054843814683
1.25,1.74899859191873,1.83245911218937,2.39073460080209,-0.130907612894739,-0.0273214469574306,0.0047989432153379,-0.247148861314568,-1.11617453095623,1.96636655557042,-0.0197443724708159,-0.020587589064914,0.025341930692329,5.41060013962086,-0.00197456621527873,-0.00228221489308509,-0.00139212929284874
1.26,1.79840526340066,1.88776962074473,2.44829687441393,-0.0423604152934749,0.0442347784117046,0.058683148733378,-0.177057026278822,-1.05948099024853,2.00221910589519,-0.118934640044507,-0.056224589942741,0.0105305282781226,5.42862825672235,-0.0038884328370661,-0.0045847383640013,-0.00313555055813517
1.27,1.75713978723459,1.83558939321379,2.41318419769159,-0.140261104571183,-0.0278224091829553,-0.006921380495047,-0.219834143019185,-1.23301409786474,1.96732883677813,-0.245602823645095,-0.194020004687082,-0.0747951920659574,5.36567849167041,0.00457035165515357,0.00211651743408785,0.00389397876891174
1.28,1.71823529571898,1.74483104302032,2.37809897336537,-0.213171936846001,-0.109502843490198,-0.0649211423506067,-0.307843998014686,-1.2018496339838,1.89465257165063,0.073265203288958,0.0542956815254463,0.0556711832550327,5.43579671074119,0.00023603724127159,-0.00132045521269139,0.000437881846054671
1.29,1.66320960098324,1.72540102094063,2.35475607725326,-0.106391999542674,-0.0251168316428153,-0.0270065665200642,-0.372423335051952,-1.22536609290062,2.02902284412975,-0.112410791440346,-0.103557977742189,-0.0333736648255099,5.38001182330567,-7.84316845047557e-05,-0.00165125183589973,0.00287677329117134
1.3,1.68013392286697,1.74759450352359,2.46733907261769,-0.145822066577813,-0.0543077098560372,-0.0302217202604015,-0.265445588104276,-1.23633546535048,1.92120533796811,-0.0962009588137361,-0.0843089011244377,0.0487297278884655,5.35446920620462,0.00120969320429128,-0.000153427111705528,-0.000864262283244099
1.31,1.71491338530766,1.74054603078189,2.41865468953157,-0.137941959151595,-0.0437812812127583,0.0050739845478849,-0.281521559093073,-1.21291139468387,1.92010739159478,-0.0402243124191963,-0.0289562103283557,-0.0289917539417541,5.38767573162515,-0.000648501162777417,-0.00201295637624982,0.00115150259320027
1.32,1.69681639336439,1.72990131810291,2.42659049260444,-0.125686404687367,-0.0326211879134814,-0.0345111997407373,-0.286538007522584,-1.25539225984739,1.9418111645862,-0.124500274376964,-0.106579497739264,0.00599264238742014,5.36600806078373,0.00107129505595326,-0.000826069048039587,0.00136354196660075
1.33,1.76045426267482,1.77564998472566,2.50690300226992,-0.0987161590501296,-0.00323645739788103,0.0381867383477835,-0.172468578823929,-1.16806572533292,1.97113379802113,-0.00316841858544883,-0.0121354938069958,0.0613478488887906,5.30949423226678,-0.00378626303651604,-0.00397773502079757,-0.00464042910604678
1.34,1.77552566691946,1.77414716279004,2.50921502340554,-0.0689038250882336,0.013325156072737,0.0434012231759458,-0.18597668966295,-1.23199335921042,1.89060471609085,-0.217754756844873,-0.151672997164863,-0.0830291171087288,5.37772484156122,0.00048440283257887,-0.00108477911141732,0.00193887289742922
1.35,1.76379092676617,1.73841062932152,2.47868711951116,-0.163841238814975,-0.0495768521056135,-0.0240873505510449,-0.180534547474026,-1.28140117338178,1.95798665468691,-0.0535672418368644,-0.0390191081676212,0.0511742823748731,5.27844454266456,0.000882005288900694,-0.00112781490310202,-0.00127304244374484
1.36,1.75986515150093,1.70740974650508,2.50742072363856,-0.102152320323605,-0.00726044174167013,0.0275986803734451,-0.236323659943398,-1.20850827347058,1.88581858278458,-0.0373064726111247,-0.0523006579238884,-0.0205393932210554,5.35755171266837,-0.00251002175498374,-0.00313253518914335,-0.000285304282059562
1.37,1.66907147736804,1.65482437194666,2.4435863744553,-0.159255737975695,-0.0763273629501922,-0.0632490245688173,-0.303164139927082,-1.39275622923693,1.8825067060774,-0.228475109141329,-0.18042019209782,-0.0518565193144217,5.34922861655653,0.00615010201875999,0.00214756464691335,0.0054556605473977
1.38,1.74106726390302,1.68087314328435,2.53050777273617,-0.149588105916415,-0.0448457012047007,0.00470832084550709,-0.205462381044691,-1.20643142403393,1.99294314438029,0.193682025901487,0.0983180126692487,0.142203846733034,5.22296041380831,-0.00605710891318983,-0.00578683169599084,-0.00689682459027031
1.39,1.73648990518088,1.70027322641341,2.56126263891433,-0.0067669284773664,0.0343834718767864,0.0619452058876804,-0.238787120124581,-1.26886850178291,1.82411274746485,-0.328157723767625,-0.232346208481629,-0.145823266645626,5.43668796094465,0.000808705838701709,-0.00105089146386523,0.00407576539975415
1.4,1.70392815995974,1.65220931745677,2.48694210619699,-0.239865640613203,-0.116681545567908,-0.079896706290519,-0.197693865412416,-1.44695925902111,2.03426626777717,-0.0733582484965194,-0.0551736229233439,0.0711754703713036,5.18068681678883,0.00582174388038233,0.00113725120916441,0.000414511723543741
1.41,1.69553407483158,1.55474609549685,2.53521467233023,-0.160676438136899,-0.0604316802794054,-0.0123196892050774,-0.342222571451086,-1.27363340160744,1.84806315476441,0.12485477357203,-0.00774506111494858,-0.0235041960398306,5.31952175542495,-0.00332243438245841,-0.00300719711647134,0.00170362273430582
1.42,1.68650165460463,1.65254313321298,2.55822856122725,-0.0405006889613853,-0.00391578749022431,-0.00544356555027918,-0.233067026713069,-1.31205877099834,1.93762755119022,-0.212175534155371,-0.13240967095268,0.0379962568026756,5.28689684235607,-0.000608800249840983,-0.00202440842352108,-0.00147282603723256
1.43,1.76329279418082,1.67458684806888,2.62602936830878,-0.137202780770872,-0.0168237507649505,0.0510024323002156,-0.119756167982666,-1.3648715176886,1.92379908211279,-0.0699935493279587,-0.0664775600785637,0.00205311439460615,5.17256261533403,0.000301621443952137,-0.00209224666923909,-0.00248891235200192
1.44,1.76585256301673,1.60832397550413,2.57341468779512,-0.114247139482455,-0.0236511014769174,0.00623514969967549,-0.193352910912687,-1.32157390680985,1.77996687426246,-0.0617786488772709,-0.0942971065445564,-0.0469872545042458,5.32933312320771,-0.000846531483251244,-0.0015303988875838,0.00195077529370188
1.45,1.7489815851988,1.62765877896988,2.56024910431935,-0.10253955419761,-0.026691167587652,-0.00381399149259609,-0.173421550520483,-1.35933163031635,1.94303861928651,-0.101761064538943,-0.0644275675131687,0.0546784541962205,5.20541761421505,-0.000394918705845326,-0.0023244804145276,-0.00237866994670558
1.46,1.73320558551779,1.58319283636573,2.61078185374675,-0.137490974406514,-0.0337049488426942,0.0167337565672551,-0.207311846547946,-1.40161894136534,1.80408581365633,-0.0982499859100284,-0.115343773880271,-0.0534612831382943,5.26191448855661,0.00149124927590527,-0.000918923596195505,0.00174374926085646
1.47,1.74531042882522,1.5860956745538,2.58576958403421,-0.114840692213647,-0.0334469139583467,-0.00473706568528112,-0.174796781739756,-1.34629772115159,1.89125415829973,-0.0046871958998129,-0.0385111808111432,0.0530482048599198,5.21535019959066,-0.00224306219949197,-0.00287580399129419,-0.00225885193221181
1.48,1.70141698488315,1.54166263820928,2.59084419992934,-0.124799529562169,-0.0502591529444735,-0.00760092153050879,-0.248474861148738,-1.45864673522774,1.79770901203435,-0.194495942288263,-0.158237813402773,-0.0722231076426873,5.26745260540582,0.0037383834137653,0.000302670320713242,0.00378049492003489
1.49,1.72697975899863,1.54769133388547,2.60680149653136,-0.155282935581682,-0.0547054725048772,-0.0156758835464378,-0.182139976443683,-1.38561604390543,1.90217489142522,0.0837146755175638,0.0093011451144219,0.0951296156653496,5.16606073326272,-0.00234930326996508,-0.00348882516015787,-0.00374880409868836
1.5,1.73824749580621,1.55374717912292,2.65111998746322,-0.0497363599025652,0.00628722636223457,0.0501889008555346,-0.197789231265368,-1.36882826027071,1.80495686143531,-0.166631875437241,-0.148280060175689,-0.0711590597018932,5.27493143909764,-0.000924592685810441,-0.00231426007328779,0.00104722284748846
1.51,1.71656120177226,1.53625319891173,2.61794999342056,-0.167249228855344,-0.0717027352835329,-0.0346818383191637,-0.158073593202804,-1.52183010274404,1.89111173619143,-0.123863720683213,-0.111906448146472,0.0187457144918848,5.13662317335966,0.00395506763562393,0.000377304683109093,0.000749727468963108
1.52,1.7397669702924,1.47891244505193,2.65040808379249,-0.1426932059901,-0.0488567507490153,0.00765856637303968,-0.218172040588732,-1.38256624387374,1.78600986902772,0.0841315005546037,-0.00735387068771685,0.0188028671683751,5.22014596952756,-0.00280857760477463,-0.00355223657371348,-0.00123928806243919
1.53,1.74351292578679,1.5511640811101,2.66814291227974,-0.0324373629882191,0.0185512392563818,0.0400109010815409,-0.149822881779429,-1.39163042784699,1.87639047649726,-0.167946884071445,-0.136570527203409,-0.0012729247549139,5.20538146300495,-0.00170439616407298,-0.00324937880523708,-0.00175981300793887
1.54,1.73370917095082,1.50452139658303,2.68027919744628,-0.164117936467789,-0.0635063916251366,-0.002778363814608,-0.126572683375344,-1.56457637827683,1.83962163204996,-0.149169928920514,-0.15106061450286,-0.0374956882908558,5.11444319756574,0.00463768185936229,0.00110203350924995,0.00190641770971916
1.55,1.76247270668693,1.44930151041085,2.67343969985577,-0.141014687453488,-0.0553672262315769,-0.00311087681900595,-0.186561327058585,-1.39447845123289,1.77652910230116,0.12061288024903,0.03194389533525,0.0538155641664824,5.1900281256359,-0.00374472375884159,-0.00430488473102113,-0.00237991287578379
1.56,1.69034473110643,1.45715991151065,2.64051125961185,-0.0730371551698602,-0.0223680272908433,-0.000609174705221878,-0.234990678876315,-1.51753693951651,1.80198291993824,-0.251841611459882,-0.213854022560039,-0.0714872216274501,5.21569165816311,0.00306234814305939,-0.000156907208052218,0.00341805997767307
1.57,1.72483133110516,1.4581950338596,2.70454704710347,-0.177577552082263,-0.0769878296818541,-0.0124479176321435,-0.120288474441194,-1.52156495360501,1.86190505422325,0.0587662244016509,-0.00969721678540543,0.0903054260951113,5.06832830779818,-0.000140659883175565,-0.00217194801038949,-0.00368910353555932
1.58,1.7775513187251,1.45680151684079,2.73712724438216,-0.0394666521601217,0.0198376473687603,0.071883876490393,-0.159998118008704,-1.37830795713202,1.76354645035266,-0.05602439241091,-0.0830359825752671,-0.0498969425870947,5.22034994579287,-0.00398053818483995,-0.00502740659164087,-0.000963441940303603
1.59,1.70989839830114,1.44959672094335,2.68349288333534,-0.134023064241206,-0.0562142795682598,-0.0313400846368217,-0.126459700416408,-1.63622553063783,1.84959464525411,-0.251764752079833,-0.23207090196039,-0.0306499488782237,5.07852724698184,0.00625560354515137,0.00219215358892732,0.0029375166812355
1.6,1.71704621328179,1.33643546663145,2.69770295576349,-0.219803533873812,-0.127248505187452,-0.0392332995382994,-0.216044675451278,-1.54020954621432,1.69913917073695,0.153931761955081,0.0429349993356837,0.0450056689448052,5.19598194999172,2.21190732509984e-05,-0.0020940468034933,-0.000282910201051564
1.61,1.68148618281453,1.36559837877603,2.66414022077066,-0.0563793620582473,-0.0131121977736385,0.00170618931800759,-0.260727208005557,-1.49369021427449,1.90176105999102,-0.0926760534169494,-0.12598747390401,-0.0216123374369423,5.12275700095364,-0.00175052562500648,-0.00347074736999528,0.000949865925139677
1.62,1.69793060045255,1.40773177008529,2.8027653426538,-0.124809734475544,-0.0513534707045169,0.00285575618213415,-0.102632982746918,-1.61384994696103,1.77098271273633,-0.139113018496199,-0.154257836588324,0.0305857590908882,5.0510704665211,0.00283368303890504,9.02285222343883e-05,-0.00158683880801528
1.63,1.72391812623977,1.31978592112234,2.70229105848852,-0.17147752820173,-0.0897035953068051,-0.00616415604695896,-0.191540818828996,-1.58188475413843,1.676108543271,0.0250462559080095,-0.0417759696914953,-0.0463042160131565,5.18294932514524,0.00113462481728858,-0.0014862400002253,0.00246929744712469
1.64,1.70363116365927,1.33896089340738,2.7004195740058,-0.0934616530126981,-0.0343165817558212,-0.021108725635657,-0.195791442711365,-1.54369070959345,1.85093907964999,-0.0336597434122623,-0.0913065680892747,0.0504937849992553,5.07938743585401,-0.00131443479310718,-0.00314084004970664,-0.0013957464025093
1.65,1.67243500311769,1.31488599774174,2.76367119080468,-0.140719604320618,-0.0782483545343983,-0.00733080563473471,-0.174506964811185,-1.67014300252868,1.68884957877362,-0.15193472493101,-0.17844072752526,-0.0521227856315767,5.12051190220888,0.0045795751773319,0.00110483691616722,0.00280374042449561
1.66,1.73189181320773,1.31015665395097,2.74289601337786,-0.143203034401524,-0.0706264593752101,-0.00705333047581551,-0.144285717027934,-1.55320344849216,1.79291221601371,0.122210449739387,0.0280216010068647,0.075412159974354,5.0517695428663,-0.00281664763307803,-0.00430602541358867,-0.00323269640148099
1.67,1.70064031351225,1.30379022682951,2.76667512755769,-0.0653812062431161,-0.0198870933683051,0.0185903165114862,-0.187076864845917,-1.613200125626,1.68987797115042,-0.20280642908106,-0.21182135987832,-0.0806578786779842,5.15234137944649,0.0021370697268586,-0.000816961397937603,0.00292892853224843
1.68,1.71927636151434,1.3084835792135,2.76928921282216,-0.167412630337634,-0.0883142778459786,-0.0210858889236288,-0.0722667478203702,-1.67303375794368,1.80796180057423,0.018756388764778,-0.0476047504059144,0.0753664840693512,4.9895966673011,0.00130643993076638,-0.00126777071096695,-0.00258242034437861
1.69,1.75888138087225,1.26909278819366,2.81021577026752,-0.0800303035071219,-0.0210257675599181,0.0441800529712922,-0.153823328286149,-1.5444473992263,1.67247056189662,-0.00998392277910559,-0.0734962926950992,-0.0428317908208394,5.11925160640708,-0.00232686833962977,-0.00401261311120183,-5.37929737981148e-05
1.7,1.70596836587197,1.28976697620427,2.76778791399877,-0.110761089114792,-0.051252924101373,-0.0201224761003257,-0.0986877014556054,-1.71109524314963,1.75462776200581,-0.174002629237788,-0.193929122920699,-0.00418569847818503,5.03500487972476,0.00380420471789098,0.000444033054939115,0.00113634220715603
1.71,1.73825645080516,1.22629790017282,2.80428324209841,-0.167384837292512,-0.0915977472790743,-0.00173987446899134,-0.113297474121671,-1.65711433381959,1.68113816684395,0.0820761081761409,-0.014782165424401,0.028237862699605,5.05372878534564,-9.42521826331644e-05,-0.0022446654483988,-0.00126683238031581
1.72,1.71713780494711,1.22300153585886,2.77832122906547,-0.076489788572248,-0.0311506540673037,0.00594190557262449,-0.17353604174417,-1.62853610334593,1.72022764707405,-0.083777386477993,-0.129789876940455,-0.0322300812942627,5.08056896242585,-0.000209146979815478,-0.00263384728087208,0.00122907819491963
1.73,1.69200779691242,1.22438934202255,2.81269487019262,-0.144553909035924,-0.0799915794935371,-0.0221579889613199,-0.0977789618721862,-1.75287064681457,1.71679391270492,-0.0910345834584065,-0.145128178452463,0.0197929253977786,5.0067940904585,0.00362091398609498,0.000220957204951468,9.33709676247333e-05
1.74,1.75280588917278,1.19696179322343,2.83398094780124,-0.118867867442556,-0.0568900702943631,0.0253427726939423,-0.105420643469715,-1.61937570464798,1.68400561869285,0.0910748356825625,-0.0133919811664429,0.0198331043596558,5.027490598772,-0.00266273969681009,-0.00405116127224807,-0.00213804668814839
1.75,1.72246985871249,1.21306222977956,2.82242044410505,-0.0662740095248374,-0.0261161242780346,0.0109756100492002,-0.110282071930349,-1.70723058006206,1.67363958394786,-0.181327688344738,-0.19577938462985,-0.045029168841415,5.05808782530591,0.00213761961583096,-0.00100983959166726,0.00159612586429248
1.76,1.69737032441797,1.14625527401291,2.80113881225169,-0.19801392521456,-0.123318278486665,-0.0438686375119524,-0.0988346118410053,-1.82007396411964,1.68627098730571,-0.00914262215680106,-0.0932602282080593,0.0156451976822551,5.02183187289564,0.00466048184910247,0.000445140544068323,0.00132190690341407
1.77,1.75938506919882,1.14843727628836,2.85782441510436,-0.0787645425299021,-0.0300353635814739,0.0324885016894857,-0.116799761272221,-1.57691555177946,1.75497265567894,0.141127042544341,0.000492285447001022,0.0526492934047146,4.96925790405241,-0.0057388376779447,-0.0062683706395111,-0.00400379122380033
1.78,1.69179974224774,1.17319675259233,2.87072473252448,-0.0658526579665671,-0.0442938027641722,0.0060431224424087,-0.0930228126861842,-1.82338005001703,1.59446897372583,-0.321939376424072,-0.300057308691805,-0.101835800728214,5.0509575254577,0.0064241464646097,0.00208879580834752,0.00452921413737883
1.79,1.73496841156329,1.10196181787925,2.82186330409707,-0.224658937051003,-0.142970555290639,-0.04188781131564,-0.0564923297271319,-1.80540850108478,1.7094596966648,0.183285557948918,0.0562155169111759,0.101456306283758,4.97353273543293,0.00106651616250272,-0.00234418541968534,-0.00283168923565469
1.8,1.71912621470305,1.06803089071911,2.84823400809213,-0.0467151412134972,-0.0158099399690741,0.0273760008104118,-0.19315247132262,-1.65516207249387,1.69590134957847,-0.0427455833466995,-0.144104936151087,-0.0735866108792487,5.03292176253643,-0.00208283929675352,-0.00375915151135155,0.00216292743866987
1.81,1.67757134607982,1.13013464367314,2.89694350673802,-0.129401562444423,-0.0896999449808691,-0.0357267072231266,-0.0293956408247484,-1.8798290969761,1.68220034188099,-0.164363798722183,-0.192506459807019,0.0405692988653325,4.91513526699697,0.00552408863094345,0.00155249641556451,-0.000241958147986186
1.82,1.75572466717899,1.04384305030906,2.88034395950254,-0.164569971212031,-0.0939662307191475,0.0172714288458165,-0.0971193637425339,-1.74121796508676,1.57894618325962,0.160249047528105,0.0199141326120463,0.000797823821658388,5.01322695393376,-0.00137339067935395,-0.00364189197855441,-0.000868400612514289
1.83,1.73832777295638,1.10173876828453,2.87478454758966,-0.0215970860130338,0.00159684071763553,0.0236251782707912,-0.0749733888614963,-1.70927343757029,1.69893188957643,-0.109380205281654,-0.168493748699705,-0.00198101640409038,4.98890216947603,-0.00141888876630048,-0.00347268482455218,-0.00103488663677256
1.84,1.71640582835511,1.0730757379493,2.91327682890897,-0.155952983337142,-0.101403863998519,-0.0090435337325082,0.0104612378046723,-1.94235132480277,1.65390393647334,-0.13420604918736,-0.185848380749515,-0.0279217226149884,4.89742994209889,0.00647869152411532,0.00205720681761093,0.00174654088911857
1.85,1.76877227068457,0.982838387431119,2.89336496976287,-0.153460104442901,-0.098081428430963,-0.0121144694009353,-0.101660783284968,-1.74015604434264,1.57149882506719,0.195622258334228,0.0400685105997378,0.0417830448657155,4.99235878241264,-0.00257720117129318,-0.00434457608744563,-0.00141527639775971
1.86,1.70761057078735,1.04182295579888,2.8817464073844,-0.030610125910017,-0.0166481899021999,0.0165481732853919,-0.0957164892633079,-1.79095435336074,1.65060187822118,-0.177244711441143,-0.216749699294461,-0.0337698347847923,4.98616307479707,0.00123526585917921,-0.00178647596337945,0.000783886097366284
1.87,1.71492114561904,1.01734344445659,2.92799569350654,-0.177164667696414,-0.117160593691966,-0.0178788954530939,0.0179527045687274,-1.95249371760255,1.65046429871678,-0.021873884229631,-0.114473601296945,0.0161518327517529,4.8758480449267,0.00478912870921001,0.000757304832202335,7.01385294077384e-05
1.88,1.73562138191449,0.91198901656943,2.89155265514151,-0.138318678144802,-0.0977947261710368,-0.0209887555377898,-0.145519068287307,-1.79269205685928,1.53713510134608,0.10691867008638,-0.0385135693609655,-0.0176791207638277,5.01030144291406,-0.000610407674037485,-0.00291495476161921,0.00180393866126479
1.89,1.69166670791582,0.99196585761729,2.90343787057484,-0.0660859875875911,-0.048676966188957,-0.0085847537330208,-0.0686695571463343,-1.84293716163064,1.66326140097786,-0.0942433014719282,-0.164039453847378,0.036165102812943,4.90861496963476,0.00108236993452784,-0.00180044130746706,-0.00133903732963824
1.9,1.75290572864717,0.993484545517715,2.98637224361509,-0.115581899316648,-0.0683842194911004,0.0398165695929033,0.0417762206121869,-1.88764624517994,1.57909855497008,0.00204744577802943,-0.097509486459636,-0.00502306566090654,4.87085948234132,0.00107747057273532,-0.00160990717102327,-0.001664941435229
1.91,1.74569777029352,0.909088791196305,2.90366342013791,-0.121891338466715,-0.0872316978333839,-0.0196088042227238,-0.0596733858826609,-1.90259153789628,1.49868620596013,-0.0367683631015095,-0.126060331680937,-0.0488817166240512,4.99523503915389,0.00280859779573244,-0.000856954415470443,0.00321517234217368
1.92,1.69852906531235,0.887256292717918,2.88114214896425,-0.145860798637445,-0.109762718916116,-0.0482043283656906,-0.0725308013611444,-1.93026858452963,1.61899907177861,0.0244281264199551,-0.103199405687402,0.0473467484812752,4.91563389839614,0.00257844903661879,-0.000949120723656921,1.38483910949988e-05
1.93,1.75315873963327,0.927106919118189,2.99525746343881,-0.0666397891580277,-0.0437655122809855,0.0466069680521609,-0.00718710244785425,-1.80189643801771,1.59989085360492,0.066063040850837,-0.0634606590465567,0.025370416014989,4.86245668993014,-0.00284738363207083,-0.00441345224753391,-0.00341673444585958
1.94,1.76446727345585,0.952338977475492,2.9942946236357,-0.0571762905026608,-0.037923199413299,0.0350120192135821,0.0613305436175863,-1.9410715045371,1.52463000028361,-0.160978084129104,-0.20421076714404,-0.0541509413226611,4.89395860545139,0.00295284587623485,-0.000484298939904545,0.000885620309213481
