time,x,y,z,roll,pitch,yaw,xdot,ydot,zdot,p,q,r,thrust,roll angle,pitch angle,yaw angle
0,1.01841953230695,0.0184195323069548,0.0184195323069548,0.0184195323069548,0.0184195323069548,0.0184195323069548,0.0184195323069548,0.0184195323069548,0.0184195323069548,0.0184195323069548,0.0184195323069548,0.0184195323069548,8.79946687297872,-0.00148075691534565,0.000616108055117121,-0.00174412473930548
0.01,0.619371765481798,0.0193717654817975,0.0193717654817975,0.0193235869681178,0.0191475755136844,0.0191080413084945,-0.0569093533242783,0.0935423463551598,3.94357309743278,-0.0505374959699403,0.0339921686224337,-0.0272569589228137,5.88363745127505,-0.000300584736854395,-0.000381599645457108,0.000386125970053701
0.02,0.643421078583408,0.0382498552196546,1.60386768130513,-0.0190388968948383,0.0153753711642589,-0.00973975562305361,-0.0236036704261159,0.0275342942445735,1.02980411761975,-0.0114045075348561,-0.0130448095061179,0.00906008117880861,7.18920619659026,0.000886755642447565,0.000985514796401114,3.26345653519732e-05
0.03,0.663181435753336,0.0187651788720314,0.449833454932397,0.00178267771582926,0.00171684108025374,0.0102892030888388,-0.032333486495927,-0.029504433221503,2.36220208544292,0.0409887649787712,0.043903050044456,0.00596781504616536,6.90218229630234,-0.00116368057743958,0.000151258128343896,-0.000768932922661068
0.04,0.637303365089095,-0.0266829601566507,0.976741709519158,0.00314641892262817,0.00480686203367225,-0.0111725432808954,-0.0333155510235174,-0.0153947630559189,2.07764081164986,-0.0587244363632706,-0.0047073841724873,-0.027685835173469,6.76120751037813,0.00126418427866218,0.00118540618732701,0.00183932769608893
0.05,0.689207694373089,0.0314136749027469,0.919943089925002,0.0084138959665299,0.0306487288924963,0.021140845767511,0.0358857820995939,0.0622922120603081,1.99312593239066,0.0775890738527306,0.0734075047679096,0.0655754111791906,6.87246112715792,-0.00287699651249727,-0.00187261485196327,-0.00409769979433156
0.06,0.677708887220755,0.0235089493389929,0.867230226400208,0.033007036435931,0.0300464390922665,0.0271047171143201,-0.070343083739802,0.0212198722777171,2.09940172790248,-0.117725636263997,-0.0694643217362788,-0.0864768802337247,6.82277789086401,0.000915712078032579,0.00133313003007887,0.00281326728104643
0.07,0.675007990098389,0.0471021333360535,0.957134666775213,-0.0131511826960462,0.00658240448823522,-0.000363850237101726,-0.0173463630631451,0.124137085680473,2.09768426742703,0.0634466170118646,0.0820491381052783,0.0874060757536965,6.75882844484715,-0.00196614245527563,-0.00119948459739013,-0.0041175033445967
0.08,0.660260528154104,0.0532279021756771,0.939877295008784,0.0308500086539011,0.0374583378988019,0.0396034269463698,-0.0212865552758867,-0.00801793018188601,2.02573299873436,-0.0788549336485967,-0.0400719395653878,-0.0839273551424622,6.83225482372063,1.49648121355276e-05,0.000293344800471355,0.00210136276950601
0.09,0.674776483348747,0.0160537306135337,0.93317777982278,-0.0155805200838286,0.00131413584233505,-0.0171997030316786,-0.066143717665466,0.0917539824447012,2.13082614093799,0.0119263960846835,0.0268256212757333,0.0573494682297958,6.74563853913339,-0.000478909815011327,0.000218049966398453,-0.00190146231326796
0.1,0.606234032026741,0.00669470238472825,0.946092340617917,-0.0235895809643872,-0.0157999286712426,-0.00442539517895356,-0.0714037192800206,-0.0636272381788123,2.02273876091767,-0.0443409756933118,-0.0140852254543761,-0.0641302046577664,6.82902384061687,0.00207885924936014,0.00182199542152323,0.00324897246558654
0.11,0.624586443027258,-0.0357575832736348,0.926723593504552,-0.0310868526022323,-0.0191410897132269,-0.0388404272101134,-0.0149008808893243,-0.0589698411057532,2.13849769465875,0.0710573873026966,0.0611006645471506,0.0569827243688086,6.74908065246003,-0.000401907063994539,0.000335145560082097,-0.000858806610097131
0.12,0.686489401646604,0.00540332348539331,1.02165369357369,0.0516964363247731,0.048804824110636,0.0462085175719309,0.0502990222588495,-0.0128897672590354,2.109014493346,0.000805307262487079,0.0354099335444861,0.000889701120299659,6.71044684383949,-0.00297511137979675,-0.00211094614787948,-0.00221730948180144
0.13,0.66919751976342,-0.0199520743766137,0.986511772009004,-0.0121511636893123,0.00329078598206531,-0.0123315549250618,-0.130436967134848,0.0699317886707976,2.0634688211355,-0.132607484646742,-0.0907675810104648,-0.0579949914408666,6.75994839064129,0.00300671879587347,0.00254358592336011,0.00333426353928079
0.14,0.625210423163777,0.0435704574310035,1.00841343089696,-0.0424785327474295,-0.0256600739569282,-0.0122311409906563,-0.0136897173362216,0.00436842967811041,2.14342420549311,0.127804804658228,0.110108086350807,0.0789774472673566,6.68397590768126,-0.00194096467443386,-0.000773873696279874,-0.00315563887289321
0.15,0.650117863074007,-0.00543148969221336,1.03226811168747,0.0441522565154556,0.0375898674205408,0.0241037219320305,0.0059390851557003,-0.0785467580232843,2.07445358697677,-0.088068695830849,-0.031892451297102,-0.073442248645143,6.72560754771363,-0.000301794610312416,-0.000142676569739563,0.00233864144296451
0.16,0.664701099055883,-0.0323353163187768,1.01949840894946,-0.0387342918994588,-0.0140786750133093,-0.0321748969241279,-0.0942687612578882,0.0718160215624386,2.13844714629012,-0.017255898324004,-0.00472245210825534,0.0465886708820538,6.67323436783507,0.00122257382758712,0.00126436074582183,-0.000682014178175863
0.17,0.597417304711663,0.00306044333810342,1.03914512585595,-0.0341153046485217,-0.0257260702236443,-0.00678014745879851,-0.0484997345156909,-0.10193850593083,2.08193261619061,0.0263333803778573,0.0285873553046159,-0.0364537874110911,6.70801833651591,0.000623135725552633,0.000991777673545051,0.00204825967572109
0.18,0.620261381776205,-0.0638756754680113,1.02709607005552,-0.0142411210841777,-0.0114282127262005,-0.0388909561739403,-0.0225582758353415,-0.0970253029535879,2.13658056649336,0.00372114464101114,0.0198596877267952,0.0228289217782102,6.66701230276298,0.000326689928450738,0.000635386773223879,0.000758156403634161
0.19,0.67763535773835,-0.0147347338990894,1.1037693258772,0.0192160843165641,0.0281813630114955,0.0277590799724035,0.0255214786979484,0.003973326143246,2.14627981765542,0.027073727913833,0.0423629117421123,0.0314243848811196,6.60736592611693,-0.00251504106781751,-0.0016744847646399,-0.00279437314508534
0.2,0.670596643523882,-0.000460062719743687,1.10192812540025,0.0095653198285403,0.0173739034774551,0.0114492249722,-0.0672738069278173,0.0219475853261362,2.08844129838364,-0.104881438350247,-0.0632780308652755,-0.060396257265736,6.65461080405419,0.00102191790347061,0.00113734637675366,0.00231875539019176
0.21,0.618768077800502,-0.00644029002387653,1.07962329401197,-0.0579324122245552,-0.0396254166501062,-0.0391043826468608,-0.0779417498759745,-0.0129279148253151,2.13979657062786,0.0252845591748282,0.0351321394759926,0.0359889991086752,6.62884800361445,0.00121166479648737,0.0011491062491875,0.000149703228557135
0.22,0.616652991678449,-0.0184825333115571,1.11293181207938,-0.00588032192454339,0.00144539451236964,2.7160583918065e-05,0.00672416745068383,-0.11814887288902,2.14043289760401,0.0350157954010624,0.0346986166990168,-0.00914743557866365,6.5957223147864,-0.00112375558380839,-0.000445197517651991,0.000432011079453287
0.23,0.685158647612854,-0.0275399248827451,1.15330006844583,0.0292566262354113,0.0322132134795455,0.0124950336859658,0.00233573166464286,0.00896209951839082,2.14086640370379,-0.0336546381386638,-0.00119172516123266,0.0226120213841875,6.57772634827582,-0.00173360793539278,-0.00100325027212601,-0.00165667589173472
0.24,0.66028504425815,0.00132696427081347,1.15142220340311,-0.0156355013190555,9.15321224806618e-05,0.00784032114561612,-0.0719111781295197,0.0301363783088757,2.12826955996621,-0.0734798823969329,-0.0377224273555516,-0.0363030312413132,6.57760081592943,0.00116544366676724,0.00109872755052682,0.00134853383368964
0.25,0.643638326285052,0.0243271719246074,1.1720090831304,-0.0211423551383075,-0.00394242901133821,-0.00477073272278336,-0.0108250922012465,-0.012602920123388,2.15104425797398,0.0526406058669094,0.0532806768438869,0.0363742169643369,6.54116341267476,-0.001614291360419,-0.000862187274055149,-0.00149478614416587
0.26,0.665023483863856,0.0027608262192688,1.18967523516352,0.0274635683212061,0.0303260498717726,0.0218962002207943,-0.00923263045327662,-0.0251261297258961,2.12953593163926,-0.0622799043604771,-0.0242668419059465,-0.0257815125995607,6.55735616689706,-0.00101856182112028,-0.000574186841188777,0.000188693927235984
0.27,0.673437295572411,0.00547469090658121,1.20043556623105,-0.0124199842798543,0.00664372931346516,0.00378747593334004,-0.0452498351488911,0.0493698462933889,2.16999698099394,-0.0324536846016702,-0.00805732931696284,0.0154783272682257,6.50537463844629,-0.000306278403891753,1.84302303751158e-05,-0.000911303284327222
0.28,0.649955142974896,0.0281997764397909,1.22514325917765,-0.00731213322718027,0.00609883356519661,0.0137859451069821,-0.0265693956337959,-0.0114220937912608,2.12566730368378,-0.00940809148078995,0.00871017986007504,-0.0135400811493241,6.5223685461985,-0.000933435827787725,-0.000418350079999431,-1.0147070259413e-05
0.29,0.621928035701764,-0.0329827531576633,1.18547647749512,-0.031206803355799,-0.0201097708665111,-0.0309436748588212,-0.0813511323744226,-0.0611801196001382,2.13069540896934,-0.0626182688356244,-0.0355161480033895,-0.0220705691908828,6.54155552400319,0.00195127060844435,0.00156408914956792,0.00250985618948005
0.3,0.63929009566874,-0.013346660673836,1.2329147971614,-0.0201024268600643,-0.00579884931373004,-0.00180329475956394,0.00483849335313963,-0.0403846322723097,2.19656846836643,0.0814666353648057,0.0686230408325222,0.0587476752375343,6.45146054238001,-0.002416022404674,-0.00141617259762813,-0.00269196809812394
0.31,0.686410090251152,0.0067290399212025,1.28496330976924,0.0527652158888846,0.0496273437504333,0.0446956757201595,0.0125334147530186,-0.00322908490443191,2.13189065334339,-0.084979301660022,-0.0332771035397301,-0.0397436357024285,6.50047514423009,-0.0020010872498237,-0.00151988889065341,-0.000219031046812236
0.32,0.679356691126176,0.0120187302431562,1.26523443952153,-0.0229083110224849,0.00280339170144522,-0.00268106272866805,-0.0708670253769428,0.0690173001410416,2.19987101609285,-0.0741364110711557,-0.0451061330278259,0.00615364399637917,6.42646094804333,0.000811728781535357,0.000780643935463697,-0.000163556204871526
0.33,0.57950628026848,-0.0214037314812439,1.25034993415331,-0.0776714935175209,-0.0615605406096613,-0.0424149901772711,-0.113409172797788,-0.112256227564323,2.08137481715052,-0.00948629535262444,-0.00582702134202966,-0.0418567940814198,6.53787751753003,0.00297591962248312,0.00219447894780972,0.00399699816165326
0.34,0.614091979714263,-0.0460234771089205,1.25239242316584,-0.0112812478417401,-0.00690679142045788,-0.0222076600371534,0.0300538905331044,-0.124880206966929,2.26270468917647,0.112290993640454,0.0824900903170066,0.0800711005492935,6.3739076883365,-0.00331220733072048,-0.00191671413218303,-0.00273415719593323
0.35,0.667202399231526,-0.0578394114934713,1.33326420091125,0.0375062548996234,0.0271048477893803,0.0256287738089325,-0.031274707419844,-0.0461776080203593,2.09232211659612,-0.144689575497803,-0.0751128373517137,-0.0633519833921735,6.47972494067436,0.000320662045726088,0.000271793850217649,0.00179233246323578
0.36,0.654836535176853,-0.0115108940384695,1.29339428188561,-0.0547741064234494,-0.0227416608653795,-0.0194892178535447,-0.0503037799351204,0.0277980736010323,2.22824946213565,0.0123821383270703,0.0193571066394435,0.0426403323503668,6.37035495826751,0.000232350454620359,0.000158414762928107,-0.00109645417178679
0.37,0.627393312507258,0.000576712327329185,1.34760979340169,-0.00777840476119101,-0.000279128388568649,0.00747375101422004,-0.0241661057511426,-0.0949925451878602,2.12291401530761,-0.00321897733075718,-0.000241133379940332,-0.0315686359031713,6.41963024612599,-0.001105455142116,-0.000417332113118098,0.00114169121367082
0.38,0.651256343466282,-0.0387626099701866,1.32468262475517,-0.00446768513591481,0.00177052530675739,-0.0128040696761354,-0.0281289662762995,-0.0358524485929617,2.18819952006242,-0.049408353523405,-0.0144941818809111,0.0239409381158966,6.38330054448449,-0.000366980505034802,-0.000164732115862504,-0.000526958401131339
0.39,0.681790517864993,0.0186932054402679,1.39586721828229,0.00752013615214486,0.0261301621009192,0.039870942698534,0.0200605220007606,0.0174575732608639,2.19217355294173,0.00568616653243807,0.0201267215345161,0.0140623782672424,6.33744505802626,-0.00271813846191884,-0.00213344633282758,-0.00254025396451032
0.4,0.681867534847773,0.0209545956914683,1.39631685362324,0.0153146339802291,0.0255517351369565,0.0214926197616196,-0.0273753058696902,0.00379708535850219,2.1501628875926,-0.102403817198992,-0.0679293559787092,-0.0409520414505897,6.37486349484298,-0.000452259192086678,-3.33349647488149e-05,0.00092782398409206
0.41,0.65150099533532,0.00515263814037802,1.38300633740293,-0.039816303727924,-0.0206796133660394,-0.0113348241244882,-0.0491347379479867,-0.00510946894681372,2.19327612030231,-0.0208609602244833,0.00461083564842637,0.0231993998366538,6.32507818764746,0.000149592849306017,0.000155843516796785,-0.000562205605601774
0.42,0.61877987264401,-0.0221695005881904,1.39075028813878,-0.0299334546537333,-0.0143090967141184,-0.00814993865522623,-0.0449249118144471,-0.0931138432229473,2.14107381113059,-0.0147117672835419,-0.00804663809270556,-0.0271458536937919,6.35933428169882,2.64870927865321e-07,4.2397750039611e-05,0.0016698037054732
0.43,0.641753559283664,-0.0387990906212441,1.39594590194876,-0.011363133895368,-0.00327661448101161,-0.0123711112451664,-0.0214791130992445,-0.0620938743813195,2.20145588149433,-0.00734150409654785,0.00137053880028469,0.0337813438729968,6.30850485881937,-0.00125007799333787,-0.000632399396517852,-0.00101243080476134
0.44,0.653606031416887,-0.0235122722079868,1.43784708743815,-0.00413685419993474,0.00436806461465631,0.0163049393286754,-0.0234904117900931,-0.040479330514504,2.16603825518889,-0.0547751502046635,-0.0215717215014352,-0.019565166535805,6.31072741533065,-0.000625303429040767,-0.000459137880714369,0.000157787293594408
0.45,0.637015515551476,-0.0298351183981154,1.42400065680516,-0.0370132547254297,-0.0180069894990439,-0.0185292030661699,-0.0517165540672388,-0.0576227891130334,2.17084481054933,-0.041126503154088,-0.0257524949389217,-0.00600317409450274,6.30427532192064,0.000653997276346464,0.000501952217884027,0.00116005896978451
0.46,0.63127536344444,-0.0307268997306977,1.44362978129764,-0.0275457173447047,-0.0157575085652677,-0.00890552272288811,-0.0266468127115463,-0.0797226868061547,2.18541330066038,0.0143067039333131,0.0145931118293861,0.0188734350619324,6.27609480159609,-0.00113298675169369,-0.000596162570033179,-0.000471515948572396
0.47,0.656967378252418,-0.0253425152364954,1.47545656192891,0.00903908382726448,0.0146570402907313,0.0153812299344052,-0.00334521913474767,-0.0510269911640364,2.18147412832138,-0.0463569595772679,-0.0159979762097807,-0.00375040947524897,6.27107659560968,-0.0015764008041177,-0.00120620949903845,-0.000542965640513868
0.48,0.688577175183612,0.00880940301073421,1.50877188693185,0.00604633864423178,0.024211495417838,0.0276767673243668,0.010419782363697,0.0104543514388689,2.20689721042418,-0.0466329439073919,-0.0221082313768707,0.0126979000591463,6.22977831453828,-0.00187859043382409,-0.0014706555649117,-0.00189954811702736
0.49,0.606675125570381,-0.0520490034887974,1.45810745023018,-0.0702159594633248,-0.0544131596287204,-0.0412838032865113,-0.124228802312594,-0.116286968518642,2.11522996698439,-0.122910142063075,-0.0959063408772917,-0.0796253906272143,6.31436890898375,0.00461747158443683,0.00310998060997084,0.00573420251060133
0.5,0.588560566916257,-0.0672236606394841,1.46041467441601,-0.0741316951819821,-0.0618007156725659,-0.0535620739792632,-0.0226589864667576,-0.139000147990266,2.25208464587642,0.159423923103695,0.105847272657243,0.103823770151682,6.1947910022107,-0.00225001562671717,-0.00123042444602367,-0.00237724590325808
0.51,0.674616413267746,-0.0345682068333427,1.5658649618855,0.0813545416798616,0.0623416129133867,0.0627992110244593,0.0493879700667871,-0.0703013133514835,2.18471993331,-0.0838267450168901,-0.0244675533797436,-0.0327200065422259,6.2543901951305,-0.00399133263808021,-0.00361350769174637,-0.0013777362292582
0.52,0.687771341636226,-0.0233814834480808,1.54123224827671,-0.028485738488502,0.00250596418978303,-0.00347712380785925,-0.0502342806318172,0.0140516433761327,2.25420276155858,-0.161049343901802,-0.130538878409645,-0.0203428834030713,6.1439741442712,0.0023573007400832,0.00189746610105247,0.00113376206496848
0.53,0.62706212662504,-0.00181475571672346,1.57406283469993,-0.0757785211742652,-0.0577973096422245,-0.013605375412451,-0.036704578279926,-0.0781342333349829,2.11638578228075,0.0817056455458419,0.0690255675217877,0.0192337022136189,6.21762297630585,-0.0010285042234624,-0.000459719915759669,-0.000265473533071022
0.54,0.650849536484759,-0.0266500900287556,1.54104798640529,0.034689968646771,0.0356731971748281,0.0154187878832041,0.0246623392273325,-0.0949649775733297,2.23400723757862,-0.0439970954916773,-0.0115052347332128,0.000621822004821233,6.18264175622736,-0.00303484198566482,-0.00271908952997949,-0.000736916970846225
0.55,0.646318847675646,-0.0656320145640679,1.57100034123956,-0.0423559692086115,-0.0228655394307093,-0.0187775326616334,-0.073736695034995,-0.0738789407569375,2.17520406913658,-0.147729101466622,-0.121834162952294,-0.0314516973178104,6.1701544497187,0.00314273817291449,0.00244329066513341,0.00238336435649757
0.56,0.605611895684401,-0.0524012373419628,1.56571167725425,-0.0850291267639404,-0.0693627997886986,-0.0324117112325069,-0.0428042665171974,-0.119186380496439,2.1721878604071,0.100501381091161,0.0786098765658597,0.0340340276509797,6.16843383288035,-0.000848707372413111,-0.000492490631855908,-7.61848323644038e-05
0.57,0.647693657546592,-0.0451411734065217,1.59943736040222,0.0399356210626509,0.0372432425391683,0.0196384571417024,0.028486819751717,-0.109066961972225,2.22805314858871,-0.0389188928613786,-0.0141049878143395,0.00340460810772875,6.14255455382345,-0.00345448641803252,-0.00294633509365498,-0.00106381547696171
0.58,0.699462124001912,-0.019706228651604,1.65494328408658,0.00659377848689767,0.0229657304252939,0.0296244125223238,0.0137529090969878,-0.00867735580285456,2.21371880128813,-0.125603227835126,-0.0918192534076325,0.00135663387995658,6.09946060539747,-0.000430301464249583,-0.000169962778968538,-0.00145351567662386
0.59,0.672206788668908,0.00523361382004349,1.65444625920599,-0.0435099794031925,-0.0230383184752975,0.0147324132026479,-0.00586143078449686,-0.0457627512075858,2.16315349540911,-0.0157941149753227,0.00264897568774968,-0.0193731233232627,6.10915239529823,-0.000768899890006606,-0.00051749203541158,0.000221971360743392
0.6,0.640148962143952,-0.0360662996682811,1.622541857789,-0.023593744878367,-0.00906635703828348,-0.0174834688662659,-0.0250823696557086,-0.108758769161458,2.16814751821757,-0.0498575599060363,-0.0303469662861443,-0.00377801284523574,6.12927277092604,-0.000459668428819122,-0.000611731230051452,0.00100783174318375
0.61,0.665543657789375,-0.0312317392390322,1.66114762045574,-0.0110703820492964,0.00393309819115285,0.0149936477924095,0.0136900544075826,-0.0602933770189685,2.21867490054528,-0.0154911093108316,-0.0124008935935696,0.0350323582155732,6.06652532221994,-0.00221399362995815,-0.00159438789738436,-0.00235733677202153
0.62,0.653999307466515,-0.0383447182528655,1.67403515853077,-0.0185736849823829,-0.0109001558509179,0.00942332240363632,-0.0264670846774013,-0.0919017408682186,2.14838526117188,-0.104944833004737,-0.0688467601329686,-0.0543761652700248,6.10645976640687,0.000476687899828923,0.000355611876512178,0.00213169912024602
0.63,0.629587428927501,-0.0588048428414543,1.65053723960526,-0.0641493987394728,-0.0429211325798581,-0.0356855402521851,-0.0351704175403179,-0.111968798946863,2.19342389694472,-0.00520284692097823,0.00077568921005601,0.0331525486483109,6.06715469529113,0.000265028665501472,-0.000108220258223821,0.000117434890356763
0.64,0.633190039701961,-0.0607419190172066,1.68611862402424,-0.0190930012866631,-0.00932960137967762,0.00481929372306552,-0.0131026390996734,-0.124438328563463,2.18292024457786,-0.00790445634712391,-0.0146376928077211,-0.00480287436381494,6.06103405844543,-0.00181684540060336,-0.00125449735553153,5.30276999336436e-06
0.65,0.638397108955665,-0.0716208973854351,1.68995189883764,-0.0235531738087577,-0.0187138668765838,-0.0135179486940812,-0.0268446654538457,-0.117480447326101,2.17259655045013,-0.0953284105116773,-0.0617068443939896,-0.00982413351313527,6.06174530100379,0.000500888132132942,0.000313729229463412,0.00110666988449697
0.66,0.640518896584454,-0.0591795186295951,1.70852496883832,-0.0513522476087962,-0.0303865195790844,-0.00806188276417677,-0.00986636412817143,-0.108608450063819,2.19234452353016,0.00456043579755822,0.00540099220259769,0.019981091501967,6.01995432853755,-0.000830991785077138,-0.000845084947087234,-0.000563211257304097
0.67,0.662768584136985,-0.040888873716262,1.74364480190423,0.00337878936717712,0.0110738560160275,0.0186804528107257,0.0190940729762015,-0.0948280703796963,2.18001913404133,-0.0371396945385396,-0.0275848899239306,-0.00312196833473893,6.03116811656196,-0.00253305295397537,-0.00191949541191093,-0.000719827823983841
0.68,0.638916194593351,-0.072472189171002,1.72017154627486,-0.0445407775283857,-0.0329903998338509,-0.0214364073083022,-0.0414754583474359,-0.134316988273005,2.16948622708852,-0.132555008351457,-0.0952423557735874,-0.0323026921471606,6.0254526423341,0.00234773936890008,0.0015367947782478,0.00254611277241631
0.69,0.646217434569118,-0.0541646912985177,1.75842285129801,-0.0563124996457863,-0.0343898068673065,-0.00675286642305254,0.0149316585017696,-0.104487782681716,2.20329444579687,0.0869617449961856,0.0615472006393672,0.059435847920334,5.96390145556331,-0.00285417947803483,-0.00223886713649467,-0.00248684411130203
0.7,0.683486455776174,-0.0304913149030514,1.79737660790109,0.0475686827262445,0.0427634414042926,0.0456307500349028,0.0410969388303756,-0.08438633615775,2.16786887747371,-0.112105896598681,-0.0714208492498389,-0.0348674400853693,6.03809330907427,-0.00292926645392508,-0.00251542017672948,-0.000469050585679488
0.71,0.671830311932254,-0.0453812278259334,1.77740544719803,-0.0528319755162687,-0.027681337314438,-0.0116276387960347,-0.00699334940028151,-0.0951462764735553,2.24198685892203,-0.131239992178864,-0.0992876918051422,-0.00795244291372233,5.91559207346785,0.00212746373999692,0.00146657903560462,0.000930459029779271
0.72,0.663878517812584,-0.0335402047322322,1.83556193154175,-0.0502509788247134,-0.0296041569324464,0.00970849035334994,0.0229995203155049,-0.0949156775266089,2.13190946446307,0.0828583745653529,0.0621626287767892,0.0304849819548731,5.96144261699281,-0.00335425597619688,-0.00257526940867313,-0.00189136203913323
0.73,0.661196684558397,-0.0540667372312295,1.78587553234554,0.0219169881775322,0.020564675388745,0.0113254973824937,0.00442456257142509,-0.126512764671471,2.17542897892588,-0.151894069116424,-0.105675075927201,-0.0413339016984398,6.00289006119603,-0.000744038310724896,-0.000825512420828075,0.00144016220088739
0.74,0.698630822981247,-0.0216422099219016,1.85558853571578,-0.0344431503854822,-0.00696012241553162,0.020971046616035,0.0623158433592842,-0.0529355868687689,2.25765080993947,-0.0141378450581954,-0.00582827048127259,0.0619459034994569,5.84907343703678,-0.00212618594782158,-0.00181013317150177,-0.0039118932751556
0.75,0.693538464642618,-0.0178373439843936,1.88408132477093,0.00101233494326291,0.0109350446425584,0.0424192781247841,0.0302175355972113,-0.0908906108163638,2.09404748174539,-0.0876079209247565,-0.0625973425331091,-0.0690073893696781,5.98190755303593,-0.00176526129236455,-0.00140189486364554,0.00127855508676781
0.76,0.626456557778438,-0.0908362802777776,1.77757941146888,-0.081875347811057,-0.0629087149339405,-0.0621655000297931,-0.0572988080907509,-0.17842404951642,2.19244917286945,-0.118884657491006,-0.0880772825473443,-0.00259840674912479,5.92878091123797,0.00360632148315157,0.0019450567933381,0.00306706471926697
0.77,0.635101613139486,-0.0812105112076095,1.86640347980321,-0.0595859720919768,-0.0391726291784514,-0.00133674708876087,0.0103612609433167,-0.133695763870733,2.20393991712776,0.130080662654646,0.0683016671238819,0.0649988871766514,5.85809783464196,-0.00406600593314835,-0.00287769098874839,-0.00300078225333799
0.78,0.621421272837386,-0.108963642337778,1.84492219881649,0.00637127401439525,-0.0121395993824772,-0.0078755646180496,-0.045840040614088,-0.193431306561377,2.0981189982608,-0.210350203182985,-0.146387123540287,-0.0927292915757823,5.98677844810402,0.00169236250324051,0.00107216421407024,0.00477246231584812
0.79,0.660809393757343,-0.0688902740173701,1.87050463207182,-0.0775482623177879,-0.0449159701280662,-0.0182680003515474,0.045779404741763,-0.105561396715261,2.27289592810512,0.0647181538220563,0.0540199990769276,0.116920772823888,5.78752785610008,-0.00194803956221243,-0.00211127953042185,-0.00466501748260417
0.8,0.678055964709328,-0.0519461182793616,1.94332128551386,0.0220881978143235,0.0229315480046403,0.0548178498233058,0.0244329705675235,-0.123417611195499,2.09017309434666,-0.0914083010596064,-0.0815396941249641,-0.0929885920443467,5.94540351914728,-0.00266148126894111,-0.00199743356458815,0.00183955606389851
0.81,0.676563783906145,-0.0553544296267694,1.88581190761583,-0.0390719909875705,-0.0239446344706557,-0.0250883588054006,0.0357685614970862,-0.124766601469815,2.24846272067665,-0.117399163906802,-0.0740575792681472,0.0484698237970312,5.80292985362078,0.000622977552915958,0.000183459180861167,-0.00110243150686781
0.82,0.683986188256348,-0.0494912809596022,1.97082944029688,-0.0445417730627614,-0.0182126832740481,0.0356536317623572,0.041369492665405,-0.114990468222786,2.11743907761263,0.0216006622902295,0.00975215650514872,-0.0101232835317644,5.84803000264939,-0.00263561882385109,-0.00231409900067927,-0.00119405839929597
0.83,0.705698909822767,-0.0298774478041209,1.94523540869134,0.0274959221896472,0.0322149037967218,0.0293966448352465,0.0721048368518,-0.0928466536171728,2.18646473883907,-0.0979504849192065,-0.0715793782176995,0.00163119026062607,5.86619379059067,-0.00320628716612543,-0.00263986718636781,-0.00142446642675834
0.84,0.672977057034347,-0.0670887754999537,1.94673228569319,-0.0599934330374116,-0.0403639873779066,-0.00559527303154046,0.00977518334647004,-0.163644875893032,2.18485424487928,-0.155083069305263,-0.117863615881917,-0.0363579405944141,5.79098564005643,0.00262638676653306,0.00168943424091671,0.00199145787831821
0.85,0.654688953634716,-0.0862430252879288,1.96561910168195,-0.0798550034936962,-0.0569483672190354,-0.017792234085122,0.00940435700333958,-0.151086913983307,2.12453896870594,0.0828197270016032,0.0538031271669171,0.0389245522798025,5.81799977411193,-0.00239147277316117,-0.00207711130143855,-0.000996092015560843
0.86,0.671899075831413,-0.0687928964598501,1.96449525578953,0.0302443211445478,0.0264221288864686,0.0275994336512719,0.0374539658888086,-0.134435241591965,2.18381841557547,-0.107951631617064,-0.0806190811207981,-0.0122839372373992,5.84388446082169,-0.00294661948764792,-0.0026171751697418,-0.000682543865300366
0.87,0.689449276167608,-0.0568660929175078,2.00729160205649,-0.0406006839908569,-0.0200656889015647,0.013205512144944,0.059391559496532,-0.13813106242401,2.20997222724045,-0.125188492317291,-0.0975902314972739,-0.000112547227626915,5.72831066238349,0.000540285554886353,0.000302959989371192,-0.000610382133341542
0.88,0.651596260395107,-0.101049373723131,1.99581475548955,-0.0878127776813149,-0.0673390058744186,-0.021373139605466,-0.0137001997928089,-0.192478830617892,2.06426113484989,-0.017731576702954,-0.0179457050002444,-0.0318797880778596,5.83135625359165,0.00056709191960734,-4.83265279383755e-05,0.00251837210210406
0.89,0.63977486265974,-0.109791489182417,1.95818807315755,-0.0341250069936775,-0.0251299778225501,-0.0235219668236481,0.00679840921915764,-0.181891660508409,2.21123550306466,-0.00743958020775126,-0.0226381273730209,0.0437149680051677,5.75541805067811,-0.00234681303516872,-0.00199484261282221,-0.000945865305369135
0.9,0.659895083355705,-0.0959351724992792,2.03884089375931,-0.0184241542329279,-0.0162472549123334,0.018449156336759,0.0314584146648799,-0.171774520402293,2.12663408949785,-0.11596284747395,-0.0894107025319211,-0.020239504552244,5.77430393459207,-0.000539894680582584,-0.000566811494591875,9.86148002750706e-05
0.91,0.614654082856005,-0.145988286511066,1.97217540025374,-0.11088412248711,-0.0909424214383739,-0.055265859605581,-0.0426001104575244,-0.257985836297339,2.11206477313665,-0.0847694705187775,-0.0728360209694443,-0.0381987142118868,5.79342268473599,0.00375806703891671,0.00172725229496743,0.00442504977258959
0.92,0.665941138911642,-0.0995091335871371,2.04856715199614,-0.0293869853056984,-0.0166483410791455,0.00536444089352126,0.0660974901890515,-0.136074329234178,2.24886937815801,0.148343081195448,0.0726640309552233,0.111674949090938,5.6571553627897,-0.00676802138290609,-0.00511579467692051,-0.00549417366948703
0.93,0.657873547796759,-0.107097368964476,2.07134116309452,0.0259557930509944,-0.00291924667853304,0.026770083215482,0.0118721160837441,-0.221966392651285,2.034009611242,-0.313947412160629,-0.223874598653761,-0.133296992962729,5.84575664911098,0.00259629680545315,0.00179372032336468,0.00507272056631693
0.94,0.684389876884164,-0.0898043842858177,2.04309224052258,-0.120944017753599,-0.079621289853063,-0.0317844063344584,0.0861379442731767,-0.167912099671094,2.27046747252148,0.093171501515231,0.0829003240294817,0.124684252955126,5.59849894571274,-0.0012820737814362,-0.00208382351968524,-0.00439539066057443
0.95,0.669184969199265,-0.113227490947517,2.1149392660145,0.00562816264952463,0.00820684231141582,0.0358678028751848,0.0043926866317211,-0.186720449617768,2.04648979663965,-0.089307754347208,-0.104901530397104,-0.106177362782079,5.79663018168159,-0.00245787565392743,-0.00183091359409838,0.00335674905905302
0.96,0.671153661342621,-0.0906085988813254,2.06119409201579,-0.0436636054962637,-0.0378594540643896,-0.0301727683072103,0.0800783552535403,-0.192642801371602,2.22540681397802,-0.11573248773079,-0.0733899344205706,0.0805155464638667,5.634260028548,0.000246459806053016,-8.29820807047265e-05,-0.00237693545946217
0.97,0.701379323721308,-0.0906222445064174,2.15377097005382,-0.0500480195512185,-0.0234430907085476,0.0475474756068405,0.0709495688446098,-0.170111949817021,2.07716440640482,0.000421876494391307,-0.00842285644008248,-0.0380043231170402,5.69211342194479,-0.0024531884477444,-0.00249146068952939,-0.000433693589688526
0.98,0.677700203944364,-0.105111835633666,2.08569326341264,-0.0233815125975771,-0.0159530154114132,-0.0185339601554809,0.0491900999292215,-0.207926135554136,2.12556488834729,-0.126912569637627,-0.114942436711546,-0.0127932242926164,5.70842543360125,-0.00036202244460589,-0.000317099056247269,0.00149463612691629
0.99,0.686375378412189,-0.103643658688328,2.13259141623265,-0.0604589217733008,-0.0458963873199232,0.00524531978532012,0.0778547692545152,-0.197125831193755,2.15745848095401,-0.0311424254606892,-0.0196382007012835,0.0397661642119986,5.62121112296279,-0.00118178317468923,-0.00131138496450092,-0.00212261036713042
1,0.682034336661006,-0.115969946964375,2.14557831570424,-0.0351758095418277,-0.0211055136063939,0.0134533506963499,0.046157595718739,-0.206676466717593,2.07716117283158,-0.0750884006042203,-0.069988561195214,-0.0477962037695147,5.69266145835175,-0.00119274191935181,-0.00140777398949727,0.00163861757039853
1.01,0.685608942494984,-0.105643910801453,2.13733228356899,-0.0409352727603464,-0.0282815471862627,-0.00903597145677304,0.0821673788157921,-0.202539704794142,2.15763317556473,-0.066274502363374,-0.0620997794180346,0.0426423903439122,5.62186050969839,-0.00130251308342179,-0.00118796373138023,-0.00157878828375408
1.02,0.663907616871379,-0.14087098632773,2.15236660340048,-0.0685742872926836,-0.0572346432166078,-0.00378046924496001,0.0296676136820478,-0.253985057181505,2.06900977023638,-0.0958728339308288,-0.0819319376346654,-0.0516892081720644,5.66154467413956,0.00109414754864166,0.000312590031138123,0.00262690343727175
1.03,0.653959696598653,-0.151756509919873,2.1360196075225,-0.073979549013163,-0.0592302276586758,-0.0352433212226866,0.0359494497270891,-0.239847131191264,2.13506056135461,0.00478434379988402,-0.015739194253044,0.0433479474163764,5.61451945799482,-0.00127493727935987,-0.00143465498821668,-0.000383035426419243
1.04,0.700851150923832,-0.103218173192308,2.21434445492131,0.0072167745048247,0.00777017480819886,0.0441561106298435,0.1044432054429,-0.172195518647355,2.13166917032138,-0.0558037556083516,-0.0513747685355465,0.0136243260388306,5.62452455353827,-0.00400777349712684,-0.00351966019431711,-0.00268240615900057
1.05,0.681997621904156,-0.124429867348728,2.18729166707149,-0.0560746629637256,-0.045038130160288,-0.0061998697152603,0.0734181966343383,-0.27725878106718,2.10019115236315,-0.199651415632399,-0.165234010268145,-0.0675046671569405,5.60137374682049,0.00298287739999272,0.00186219765035868,0.00349751410081745
1.06,0.690746664744859,-0.144184196261567,2.20674584895387,-0.0978668345543847,-0.0766247854885995,-0.0237085748307423,0.0773219030676469,-0.223220504854815,2.10382311971415,0.0937451485132334,0.0598745333731706,0.0769265772060247,5.56912181879995,-0.00266756763145233,-0.00251561851215974,-0.00251320217318865
1.07,0.653600928873104,-0.165248339818927,2.18365913644422,-0.0145836213598057,-0.0201795762216829,0.00107971602417113,0.0140979877486028,-0.269457098546789,2.07441951112345,-0.161321510663435,-0.14101126183489,-0.0789875413875613,5.6514492787999,7.11177852037042e-05,-0.000455547359556425,0.00370084886674854
1.08,0.656607007589406,-0.156410071092071,2.20566566121331,-0.0959670817225506,-0.0784316881671733,-0.0400407212139467,0.0815547259201045,-0.278574199115656,2.14856743726001,-0.0350990179397154,-0.0402506658678411,0.0714364276192608,5.52110344316606,0.000600707427486893,-7.05187032395844e-05,-0.00148898445723582
1.09,0.673123555094715,-0.170698403359234,2.24352255357959,-0.0527794663614723,-0.0443375063166453,0.0137783226079779,0.0444131726871997,-0.249621982200835,2.05234881824201,-0.0150380079277924,-0.0362116455828695,-0.0440186071953507,5.59309959654011,-0.00206361132449492,-0.00190826590146705,0.00144189431181565
1.1,0.670147897487811,-0.14994308370415,2.22470792125942,-0.0357233671694746,-0.0332532209338749,-0.0225945738839458,0.0836640406931241,-0.268728884875657,2.11167435725409,-0.116723870263255,-0.0982332740635057,0.0261617751820445,5.55947620370103,-0.000370851419624938,-0.000735390757279558,-0.000159021166479433
1.11,0.710673831933313,-0.133172247531851,2.28592524647147,-0.052871402457853,-0.0356879120151864,0.0284843196205293,0.130910401299824,-0.240561326188709,2.09920512178268,-0.0276138918356152,-0.0352822215370196,0.0118690377830806,5.51426283713469,-0.00206503995406792,-0.00199898712577057,-0.00189288711489995
1.12,0.727580434212998,-0.125601833150134,2.29410667910537,-0.0174343974175231,-0.0107359035083598,0.0234201228590279,0.130366923169346,-0.234174266034839,2.06326695560198,-0.0974133918615095,-0.0837202120043907,-0.0250092614162222,5.56141485520714,-0.00205657670655542,-0.00194768403652188,0.000104892294085012
1.13,0.732028766899841,-0.120411424472001,2.29568026782998,-0.0426994107438763,-0.0265794661232536,0.0119117514429698,0.155311201268235,-0.253763883374581,2.11408321798541,-0.0953201813828252,-0.0789286602404988,0.0201466358881953,5.49139685301862,-0.00097886768291058,-0.00123316189636088,-0.00150002892187606
1.14,0.720933919326559,-0.150938838228775,2.31059311238713,-0.0611807594706557,-0.0446732205899011,0.0107788906783838,0.115024165440745,-0.271448428892973,2.03620579697429,-0.0675180881681047,-0.0688412807705889,-0.0300194586314859,5.52803956687641,-0.000657260133636899,-0.000899807232844649,0.000918901360487798
1.15,0.71477430693675,-0.150640692836801,2.29752834018219,-0.0442897810332526,-0.0344795367364288,-0.00287162407228236,0.119360917016964,-0.256602799146295,2.09112721056617,-0.0503809254970866,-0.049878571055934,0.0266132754509155,5.5005640896757,-0.00200202959806325,-0.00202016846227791,-0.00110693656681597
1.16,0.68400026979545,-0.179805579581724,2.3016419155479,-0.0668737867766546,-0.0569368205788461,-0.00944631933923025,0.0813404349283242,-0.32011383116013,2.03884218201772,-0.129174165393044,-0.119234014510025,-0.0409389909352279,5.51737977725345,0.00141353912585359,0.000471909572357477,0.00238678195844369
1.17,0.684600214941017,-0.190659147785034,2.30497426860568,-0.0876636893375036,-0.074379554244683,-0.025966376827069,0.0921291799354149,-0.293720521454388,2.08135526823596,0.0166677714557928,-0.0114292380390064,0.0427176104788397,5.46863610290381,-0.00144279149254578,-0.00155147414670021,-0.000792037812147041
1.18,0.72420652822836,-0.146646546416834,2.3662223553012,0.00373448169449217,0.00145395730014182,0.0414584426052316,0.138504140152984,-0.229057360078237,2.07962025734427,-0.0700581835650158,-0.0642249141154324,0.00285186705963235,5.49936081938075,-0.00395197059622126,-0.00370554783839638,-0.00203994362088842
1.19,0.73218440865629,-0.133470075245244,2.37029905361065,-0.038857874161937,-0.0267241215323313,0.0181552265913179,0.180344154838292,-0.308377966539031,2.08505939637466,-0.178649141535592,-0.154849660898998,-0.0298212786812147,5.43380813882507,0.000862471784839229,0.00039764420738573,0.00056973750907955
1.2,0.740294470680209,-0.175014764267634,2.37923494256516,-0.0920412095023952,-0.0728138205043818,-0.00426538704763551,0.146187851416528,-0.293965152499741,2.01610012475111,0.00722062163995723,-0.00258869075201139,0.0178873365140724,5.45120464996084,-0.00127986279499986,-0.00153872511943664,-0.000640740466727833
1.21,0.693313913138506,-0.206140847600042,2.33064812597898,-0.0496759147121453,-0.0436965680581155,-0.0165220905487244,0.0706705611861578,-0.319711082561207,2.03815424112107,-0.105092096824643,-0.105779335477809,-0.0342110977203113,5.48957513544653,-0.000220582318819461,-0.000913473979931209,0.00240521657654401
1.22,0.699628538743531,-0.181448724846631,2.37988551341161,-0.065677986614773,-0.0557985242798212,-0.00836327548023964,0.144974598836107,-0.305902979754563,2.08447501338726,-0.038694835906327,-0.0560814257614219,0.0553101246483045,5.399308675738,-0.00140469852152624,-0.00135921702452834,-0.0022139309176412
1.23,0.72817040238201,-0.179309554808049,2.41319412172343,-0.0375759731275279,-0.0352348625762423,0.0296544771578192,0.139046307372403,-0.293534144429767,2.00681050339203,-0.0840242052431302,-0.0744973458249399,-0.0414955004869677,5.45501583912048,-0.00166641644918813,-0.00182864274664364,0.000581225972423987
1.24,0.709584727641846,-0.192919792549804,2.37860925385888,-0.0720441783369093,-0.0575950981210873,-0.0246293801437686,0.135516936948255,-0.34858083401176,2.04512987737611,-0.10985832652366,-0.103807927539022,0.00497706335233608,5.41649801836421,0.000827954443211081,-0.000167475842675142,0.000930497462680037
1.25,0.724833504895985,-0.20027536561489,2.42012341576158,-0.0693738060869332,-0.0569903801140904,0.00657755932812466,0.145918204177173,-0.303040822247248,2.03454910219603,0.00329060816176786,-0.0303811169863123,0.0235341965713435,5.39719751882834,-0.00239391943894881,-0.00209592696582528,-0.00141347024034109
1.26,0.775854708407428,-0.137138575512677,2.47083541407489,0.0193238625870105,0.0150164017108219,0.0586807193126864,0.218234884301537,-0.239038949490131,2.0553435984323,-0.0914658843025554,-0.0691271216299769,0.00984151329301791,5.42904571503206,-0.00451835398355494,-0.00442296080291944,-0.00315595611076213
1.27,0.738177858526655,-0.181522085032582,2.43376180425824,-0.0765789638442815,-0.0581637374812029,-0.00517422847307828,0.185139127199355,-0.406354573205901,2.04060076250696,-0.226980330442118,-0.208389701981725,-0.0754696908790352,5.35671162807124,0.00409277010048095,0.00257492388943266,0.0038277590887153
1.28,0.707251187689613,-0.268264885424439,2.42104801953843,-0.152349947090231,-0.139670488776524,-0.0627316628119444,0.0930955286162177,-0.369836284545728,1.95941532722102,0.0975006145804111,0.0500185331891586,0.05404139468143,5.42133881662102,-0.000291575455455908,-0.00104254671740426,0.000404872020279768
1.29,0.65133610407711,-0.276339749963865,2.3775921910534,-0.0437821745622364,-0.0529656769806319,-0.0289921707518696,0.0333885500259066,-0.373034522470574,2.09969467783192,-0.0898704868831848,-0.11258688354347,-0.0343430172078839,5.37640596719336,-0.000864644951650731,-0.00138286738273602,0.00299474183100526
1.3,0.668529377986445,-0.23587330039828,2.48048320202498,-0.0835017592360652,-0.0826865068120387,-0.0288293971193427,0.143301699748566,-0.391720694929177,1.99139895947156,-0.0848144042376958,-0.0947716779649896,0.0509998997861778,5.35131963417622,0.000754888562011135,0.000159153351978427,-0.00105264571910365
1.31,0.711348880006915,-0.248092185047755,2.45282021040694,-0.0804154865407622,-0.0738517964191792,0.00703242561855748,0.128922918400753,-0.361985146712847,1.99214327232942,-0.015127037657623,-0.0366085534865597,-0.0332443706031485,5.37000571501659,-0.00130493036594108,-0.00169642940369575,0.00124309093339294
1.32,0.695327494729668,-0.248779575937563,2.45482467794171,-0.0621032432198845,-0.0606823905045808,-0.0357478713649164,0.127526630348588,-0.392489374602442,2.00167012962139,-0.108490303568459,-0.114747662292514,0.00766911791161493,5.36450932666567,0.00030723776099322,-0.000497466550472574,0.0013262965655606
1.33,0.762928699108203,-0.193960135027501,2.53185600462588,-0.0388722054189526,-0.032021028321682,0.0407706802611075,0.243310971190956,-0.308485871691779,2.04112193080765,0.00873528744989968,-0.0193602242437994,0.0603036257942048,5.29474995103527,-0.00430917411157168,-0.00381532303934291,-0.00474057179862896
1.34,0.782119925751187,-0.191486455143217,2.5401488372055,-0.0108882715171313,-0.0156890917175304,0.0434211625079345,0.234493953177936,-0.367965204784908,1.94864609602648,-0.196250765583851,-0.164421782159024,-0.0854331205398564,5.37269389525525,-0.000260985118721603,-0.000657299707240419,0.00202169876242715
1.35,0.775628739362089,-0.221432551128395,2.51005733721594,-0.101049365198538,-0.0791172190066068,-0.0220737113561826,0.245464910956304,-0.406235412011037,2.02639477407321,-0.0419124723793859,-0.0436739105612731,0.0526679727436194,5.26213027094075,0.000178146310770614,-0.000776753676771514,-0.00144940985132916
1.36,0.776883731719053,-0.243937540890867,2.54900704667368,-0.0439668809608874,-0.0355142432523145,0.0287841359384822,0.184274722107345,-0.331757841886693,1.94586669966007,-0.0237440395579974,-0.0576823791922762,-0.0245721760069015,5.34390319520132,-0.00319004521457693,-0.00290598236611612,-0.000173490963799547
1.37,0.684690675091647,-0.284972040013251,2.4642393612296,-0.0999215422945599,-0.103745477529286,-0.0641382276026605,0.128549105599199,-0.502745364456979,1.94889074839495,-0.214767931819998,-0.191291543698348,-0.0497751714407445,5.34679174900969,0.00540860673873617,0.00274948487175912,0.00539329597954148
1.38,0.764841960761937,-0.252851956600625,2.56500599882427,-0.0898419761856852,-0.0741897525175443,0.0084848582721069,0.223777828112196,-0.311094801529764,2.06920905324329,0.205116290031947,0.101090894984257,0.140605308374667,5.19502348155101,-0.00685165531429762,-0.00572324845854626,-0.0070131948314957
1.39,0.759987397373404,-0.222087567490463,2.59209432628535,0.051254540924659,0.0079393562031934,0.0593753282753168,0.189884466912863,-0.375365051631258,1.87447069440363,-0.318652268112181,-0.247827073005665,-0.148609876851285,5.44767621117332,-3.58556205214568e-06,-0.000581324618877742,0.00429085365987397
1.4,0.730797595031699,-0.265752031567343,2.50870931961311,-0.181005824653541,-0.146703006516203,-0.076508546944819,0.248772781258115,-0.536032261169773,2.12177401728102,-0.0659076523139532,-0.058710440909107,0.0754449744408094,5.15256016566949,0.00515383147945435,0.00174342605544101,5.19600994193216e-05
1.41,0.734035975566159,-0.35628072641726,2.60040225970786,-0.10394511356269,-0.0888329279210413,-0.0099512407061372,0.0887167792251791,-0.360373572233003,1.91567551535146,0.138557631666344,-0.00260480808044536,-0.0315120113708262,5.28279932759323,-0.00428310391858676,-0.00287044782180266,0.00196297212597968
1.42,0.715546675090812,-0.237937619583987,2.56823402943208,0.0191241861477222,-0.0269953769435509,-0.00921307262674069,0.206373439623803,-0.390312720052164,1.98357654125594,-0.211267526296115,-0.146249943648417,0.0431703534844647,5.31281647240388,-0.00146696663870451,-0.00163108904497446,-0.00156281029024827
1.43,0.801646538390796,-0.214997038607199,2.64527437734584,-0.0828751516209206,-0.0486867619522011,0.0558949113898857,0.330197954251235,-0.448783995193423,2.02262632530825,-0.0643219848558545,-0.0702995445549045,-0.000190255107271595,5.13595922516465,-0.000401288860719341,-0.00161553945113307,-0.00262543359645172
1.44,0.813763809406489,-0.282911974242955,2.64088317742794,-0.0577387915598512,-0.0510769261171558,0.00636558715740797,0.247939272598159,-0.398574011150321,1.8243530552851,-0.0509888359446179,-0.0942035275583435,-0.0502155804244824,5.31178076467738,-0.00183884898446553,-0.00123268659937409,0.00208591654368848
1.45,0.795332763651512,-0.250665042409157,2.58217822916968,-0.0437264071500015,-0.0518358308738102,-0.00370015598529048,0.278119226256243,-0.424571813309455,2.00448375727691,-0.103176019870883,-0.0716140000012325,0.0572258830774378,5.20421827082783,-0.00124337629431029,-0.0019239019896459,-0.00251587325974636
1.46,0.786470934191298,-0.286436473585419,2.64629424908222,-0.0841161400942466,-0.0632144950378511,0.018931313342375,0.24627861654362,-0.470625719163451,1.88181391218341,-0.0936343876637437,-0.117713392537097,-0.0567200981019833,5.23432369598568,0.000698595327793438,-0.000409405340969306,0.00178670734373513
1.47,0.802308490756517,-0.279899792061095,2.63133009506365,-0.0583311753697326,-0.0596048702064247,-0.00427708696053267,0.277702145425544,-0.399939669332937,1.9459524180085,0.00128195293442857,-0.0372593054448383,0.053626587754043,5.20228638278717,-0.00329666675969825,-0.00262344545301988,-0.00231681209844606
1.48,0.760345809586067,-0.310084745704878,2.62018780297822,-0.0683448963130844,-0.076503329139144,-0.00702074415004129,0.209739784697618,-0.511788876642469,1.8673747314761,-0.199113005533528,-0.165749055976309,-0.0737955175551429,5.25384253570506,0.00290357095601654,0.000907665252081671,0.00382287645606921
1.49,0.791095199038429,-0.299721482781574,2.64721611486381,-0.102294627693041,-0.0826998520836933,-0.0133946152008271,0.278389555389907,-0.431130913468699,1.96886391918033,0.0873367963120037,0.014166177285821,0.0956748821244362,5.14101510132621,-0.00327375121244932,-0.00318182654101064,-0.00388748612800001
1.5,0.805746453930511,-0.284255210623521,2.69075131743208,0.00560504874944101,-0.0191775817190306,0.0495958639264309,0.260173680045373,-0.408974423541843,1.86622779039858,-0.166651253838329,-0.153017425064402,-0.0744591592579309,5.26918080649003,-0.00202333239335835,-0.00193462484866677,0.0012206553692009
1.51,0.785471053184591,-0.291098292724366,2.64795462951866,-0.112495752872083,-0.0983642101970386,-0.033261365656126,0.313991889786828,-0.557176121670828,1.96340054919789,-0.131760376070383,-0.115333935766335,0.0220742410322029,5.11332084320768,0.0031498407746671,0.00101036263526417,0.000523861969511263
1.52,0.819221079563543,-0.345890639822177,2.70645648851617,-0.0916825913868347,-0.0765804407953317,0.010964234587838,0.244692979635442,-0.414003701159204,1.85062505733229,0.0882121220760936,-0.000193635014769392,0.0136429864420945,5.18819814650332,-0.00387341711719066,-0.00326569349055375,-0.00115442113489312
1.53,0.819452688463844,-0.260001437874166,2.69823707398232,0.023348963083916,-0.00464187402669491,0.0372829260693062,0.317833153010393,-0.411884905532058,1.92912104742242,-0.175188472077058,-0.14232710576307,0.000148610749463061,5.21611694859475,-0.00283231345806496,-0.0028843471916256,-0.00170354954926799
1.54,0.815492319059971,-0.297802213429281,2.71166437579219,-0.11274677529242,-0.0917009892936891,0.000296228139693459,0.353924646104845,-0.58772168334985,1.9286364126037,-0.159026370732028,-0.154181994920169,-0.036677114700154,5.07535658094165,0.00384282224434395,0.00182754583293302,0.00172250207956983
1.55,0.854373953642313,-0.352589360605399,2.74026000519282,-0.0904085188720589,-0.0822416984296059,-8.50804772977512e-05,0.281649443939645,-0.407630017348425,1.82630689997202,0.12375047143917,0.0428129014941153,0.0495365296015384,5.16300425943654,-0.00494229537186947,-0.00408269393322255,-0.00232058664846005
1.56,0.777725758379538,-0.328332051306424,2.66766558537902,-0.0178107526834607,-0.0447657303535947,-0.00377433806706935,0.241466351806671,-0.521526951097757,1.86408134796788,-0.265525590982628,-0.221406129693962,-0.0706251495328246,5.21563494947556,0.00196746688779151,0.000446794606520435,0.00352780953529944
1.57,0.818689247869887,-0.319543478659066,2.74128882044183,-0.128424478651271,-0.104858626651414,-0.00787143581383447,0.365226262319738,-0.52793055077783,1.93948415064344,0.049172955694566,-0.00396445374851158,0.092244286778378,5.03180388680587,-0.00103611473507322,-0.00166502577023235,-0.00399707333270298
1.58,0.879708168067291,-0.318927877091665,2.79498732034389,0.0103780842574469,-0.00529727562289108,0.0720578382473183,0.314123363392304,-0.375910959399946,1.81903379606058,-0.0581942920659929,-0.0790258028568678,-0.0568196714356758,5.20796446038233,-0.00528332054771412,-0.00476508724110411,-0.000641157527768631
1.59,0.808047107041723,-0.309850768630952,2.71213669112893,-0.0806670386789267,-0.07938407172847,-0.0330886337507747,0.366448845011262,-0.626994207919871,1.91573636799124,-0.271351614281225,-0.238034293077063,-0.0242002730459447,5.061790474096,0.00529655092661395,0.00296149848534014,0.002717972265807
1.6,0.828973960496235,-0.42093839201588,2.75551010884405,-0.17366550121226,-0.155025632978239,-0.0318749190953591,0.270694630655026,-0.532875348951974,1.76961448974073,0.14927551307908,0.0554409012085497,0.0399370343070673,5.14764642277084,-0.00102822228692173,-0.00158799512686923,-0.000388572579625966
1.61,0.792136943309453,-0.382341592436961,2.70756173469487,-0.00433648924268551,-0.0349390787046139,-0.00203253838880883,0.224534749195204,-0.461199371083259,1.96262278113854,-0.10254333172502,-0.12186093915419,-0.0242754199726231,5.11455012430333,-0.00318877228440269,-0.00312709823419101,0.00126288291843535
1.62,0.806593657961112,-0.317883816319646,2.82815520180241,-0.074803013401022,-0.0750373606240194,0.00367534229133292,0.394123646948177,-0.596343894023499,1.83978743664102,-0.165295336995072,-0.156432889127876,0.0368343572869064,5.03339734713546,0.00197255321975257,0.000716715250044491,-0.0019176860991061
1.63,0.846286355666893,-0.41454434596789,2.76240385275101,-0.128502701138483,-0.116698082368658,-0.000929459886235197,0.303072957780839,-0.558693239620682,1.74467863700491,0.0225298389134061,-0.0331853821790025,-0.0537442546094889,5.13791289791579,-3.25082429203216e-05,-0.000875237049609365,0.00257729713760233
1.64,0.826893534362969,-0.383959766184284,2.74727590132923,-0.0403367079617656,-0.0560996401338452,-0.0239167771182909,0.297755445022892,-0.497738190609361,1.90431649944456,-0.0499471794038517,-0.0828242087179193,0.052367840806172,5.06845930636547,-0.0027677127865256,-0.00281094501892296,-0.00133946699585325
1.65,0.796378333030575,-0.389771745286706,2.7975563942657,-0.093932925477819,-0.101451045772827,-0.00549687180263279,0.32751900873234,-0.63946353801764,1.76184151727025,-0.179899576728886,-0.180173062663447,-0.0513342341753484,5.09002491565797,0.00375075335438534,0.00184555914337339,0.00268439947096627
1.66,0.865004767660427,-0.398371499589803,2.79757268637623,-0.100510641073551,-0.0963362081266384,-0.00352105198435713,0.357050060726729,-0.507282381161249,1.84972347434266,0.11917314037976,0.0416663745878498,0.0724494772418637,5.02137082615657,-0.00418402518434805,-0.00390104695463995,-0.00325216726435707
1.67,0.835205331151581,-0.389731239786611,2.80948120263478,-0.013545974642872,-0.0414167752759761,0.0157502253315689,0.313158591893539,-0.560978148023882,1.75269354228241,-0.228350799285328,-0.210077083601443,-0.0815003859794684,5.14029087854336,0.000798014471212032,-0.000269077581524978,0.00311723175401541
1.68,0.856450100156073,-0.37541135611375,2.81276523957139,-0.123819206730631,-0.11194098479709,-0.0173801401905151,0.440438378470968,-0.625644171359348,1.87402611586564,-0.00577163100898032,-0.0413133932046249,0.0789391658752973,4.95378882406659,0.000363828628935424,-0.000637532199273901,-0.00292207049421535
1.69,0.906330245816699,-0.413961015780093,2.87016820572329,-0.0371035934586598,-0.0454253032709122,0.0458506254352259,0.350066516178282,-0.485970723459729,1.73206951171526,-0.019171524626126,-0.0629092535689923,-0.0504608330371709,5.0920108021548,-0.00378912874825596,-0.00357966860416091,0.000243550748001481
1.7,0.850414412356904,-0.376419672133293,2.80660790305602,-0.0611967596586735,-0.0715440701625805,-0.0226842608783158,0.414928664127607,-0.645553695520512,1.80803899349933,-0.205161457935044,-0.190920265849311,0.00169756942157752,5.02120874143936,0.002587108224728,0.00108513271618561,0.000988949340848074
1.71,0.892306744956356,-0.435245506861975,2.85660394867967,-0.127085865136964,-0.115832057015151,0.00450050845141305,0.402471789974205,-0.597666843303347,1.75119501152706,0.0614473949007184,-0.00433557512121613,0.0246726074049165,5.00766331766688,-0.00118093510925965,-0.001637838828176,-0.00138718045496864
1.72,0.874742814255896,-0.432874504476981,2.83239304165529,-0.0320135448218796,-0.0529631922528173,0.00384698400001054,0.337948152392024,-0.549001676529396,1.77248058306862,-0.100581519171734,-0.119445898844767,-0.0352247982670249,5.06267252173844,-0.0017390566196519,-0.0021430962852401,0.00148787300136979
1.73,0.848965982065736,-0.41354300574027,2.85100176400746,-0.0984561400843813,-0.100642463572062,-0.0213734985452738,0.423193398631799,-0.676661834783278,1.77852564540057,-0.126204535055584,-0.139238102701566,0.02485939567887,4.97739994850918,0.00248897316037047,0.000880366780083613,-0.000175864538352073
1.74,0.919528942440734,-0.440122787697167,2.89238586274558,-0.0806365736626822,-0.0801957515071381,0.0299640184549376,0.413915207916853,-0.542487024274376,1.74320456515624,0.0719539485140828,-0.00111599524049333,0.0136764675485068,4.99242194506634,-0.00392700720769599,-0.00354282950537954,-0.00205273322130867
1.75,0.890209317021826,-0.413483833399247,2.86804590720608,-0.021711578894997,-0.0466136649654252,0.00732884754490046,0.410513747320156,-0.616619758005132,1.72574604680263,-0.206944523421302,-0.188720343773947,-0.0436705027689881,5.04632999371786,0.000660325901684066,-0.000403406829215621,0.00172387373128778
1.76,0.869820809961003,-0.469183513194429,2.8497569797267,-0.155835076720787,-0.14498250116492,-0.0393790346551504,0.430563556294669,-0.73217057806843,1.75303508832395,-0.0431181763944778,-0.0827941383773199,0.0179187940156772,4.96838645934321,0.00353086120102543,0.00121184469447811,0.00100720485814222
1.77,0.939636293105936,-0.463649147574659,2.9214250809124,-0.0403377447645388,-0.051555221246001,0.0350036334478835,0.404669880275748,-0.477395688653532,1.80469983878484,0.120142317546469,0.0179659922253754,0.0455236371943024,4.94587210210083,-0.00722260989710573,-0.00597202707322681,-0.00375859228854827
1.78,0.867969255872128,-0.41955566230763,2.90438609684311,-0.0227889505222292,-0.0627919187772282,0.00100589166032831,0.437294106255359,-0.72392398926997,1.65089629661791,-0.35806741401271,-0.300678608517224,-0.0970967195758473,5.0392588021123,0.00513411338337474,0.00294151179881774,0.00455886852010846
1.79,0.922266337587495,-0.490522835469074,2.87994873290776,-0.186820375921163,-0.166620007003593,-0.0331551018840108,0.480139124237745,-0.704041552430516,1.77177644419047,0.156539911759799,0.0752979217983468,0.101611857322843,4.91331631529069,-0.00024685555112217,-0.00165763723891213,-0.00324541438955733
1.8,0.912455746147343,-0.517451965907879,2.91426361501884,-0.00619649713638037,-0.0354240805643842,0.0254005308152315,0.332207751004316,-0.539409797031678,1.75356638420113,-0.0728078375391497,-0.129040702556965,-0.0828234828130596,5.00447701706064,-0.00364313498908544,-0.00333413199964838,0.00272506515014667
1.81,0.863760347420577,-0.43269566646683,2.93040579411814,-0.0897581216732553,-0.106999034213086,-0.0380918591391488,0.510920234839689,-0.768577471883282,1.72657457550325,-0.205240982277844,-0.186944202138656,0.0520371606420715,4.89746446747793,0.0043401837792348,0.00232931905272894,-0.000664713675266625
1.82,0.95764048703628,-0.523817712050476,2.94109671361168,-0.130417277274971,-0.116946866513145,0.0260815292539835,0.442169555373852,-0.627728202482781,1.6476551974043,0.135583526301581,0.0376494025236035,-0.00864020681079653,4.95472176392059,-0.00280828870021337,-0.00299745068034556,-0.000827405711785841
1.83,0.941360327410211,-0.454621310139958,2.93208595996461,0.0194970611842925,-0.015896777869961,0.0176720226332038,0.458304410542164,-0.579730532745985,1.73868564421174,-0.146194481183152,-0.154780292327183,-0.00159427589252257,4.98782222892979,-0.00302130864621773,-0.0030402656938389,-0.000727848599201133
1.84,0.919227784029065,-0.467844407301088,2.95320113255327,-0.12005603959221,-0.120533879252505,-0.00680618043173759,0.559624344348638,-0.822284589348095,1.72201813774235,-0.178057013083954,-0.179705266513611,-0.0218671933435332,4.84826499188984,0.0053667491154405,0.00298437546148291,0.0013613640806154
1.85,0.984959890083048,-0.560034188997949,2.96895341599077,-0.120390522982679,-0.119793032073195,-0.00539067142699219,0.438470392533858,-0.608829787620449,1.61614176831117,0.171753534970033,0.065136789472068,0.0331313659687603,4.94315599160657,-0.00416061126245373,-0.0038508205070197,-0.00131072282699351
1.86,0.920533741113201,-0.484218823264024,2.92639885437992,0.00991047948509716,-0.0317620660858274,0.0103250174972888,0.444903063172435,-0.649497856799135,1.69877117491065,-0.221753422741782,-0.208182232090862,-0.0320440693903444,4.98111369795717,-0.000311482019374261,-0.00121149059807001,0.00103170240744575
1.87,0.931245060712328,-0.497597049028992,2.9743458464087,-0.144748097364976,-0.137520885866128,-0.0134618318438063,0.574592038466244,-0.820835601553028,1.71308015774809,-0.0647225777028678,-0.102429267086564,0.0209270776584686,4.81971660594583,0.00362417851478033,0.00168870536482719,-0.000357947746777112
1.88,0.965319216705539,-0.604209535578749,2.96632843647227,-0.105725817376205,-0.117720929415272,-0.0164767645246096,0.397904174269545,-0.645472046827213,1.5850437140405,0.0786869325962366,-0.0118666515180312,-0.0272368172548508,4.9556014441115,-0.0022495100506337,-0.00242093694416783,0.00205418092136472
1.89,0.915335901174285,-0.504243667291527,2.94660258261144,-0.0276902368100759,-0.0618039123727069,-0.0131186908604969,0.478989438243655,-0.688674237716061,1.70035135697224,-0.142846145764671,-0.154134607271396,0.0409838745112044,4.90204773630265,-0.000431811052647265,-0.00123721601496897,-0.00132878318340935
1.9,0.982951970329369,-0.495329744040822,3.03272154711563,-0.0859893227510388,-0.0890210463210125,0.0439345268425279,0.60293479838127,-0.746351374557452,1.64246816668681,-0.0414949574883122,-0.0853628069249956,-0.00529073169835268,4.82596627974633,-0.000172187764018018,-0.000744355305726729,-0.00183280494925254
1.91,0.987489182913654,-0.580083204238143,2.97444383112507,-0.0900756298949061,-0.106266096283088,-0.018537385451433,0.491213833237147,-0.745480716357035,1.53863666954275,-0.0705789516296995,-0.101021338613403,-0.0529277771185271,4.94769524643927,0.0012047954885369,-0.000245185689626445,0.00336549062323426
