time,x,y,z,roll,pitch,yaw,xdot,ydot,zdot,p,q,r,thrust,roll angle,pitch angle,yaw angle
0,5.01841953230695,1.01841953230695,0.0184195323069548,0.0184195323069548,0.0184195323069548,0.0184195323069548,0.0184195323069548,0.0184195323069548,0.0184195323069548,0.0184195323069548,0.0184195323069548,0.0184195323069548,9.09660643992333,-0.0034676597508045,0.00847132467939388,-0.00172302525185135
0.01,3.0193717654818,0.619371765481798,0.0193717654817975,0.0183659635390641,0.018895556937268,0.0178983169979996,-0.0624549432302494,0.0989039965745536,4.24358492793348,-0.131432482947264,0.339102421071417,-0.0268068066103486,5.7456522122339,-0.000123336316930549,-0.000459418326991831,0.000460135490256949
0.02,3.30514636867976,0.706500940419768,1.72942934293686,-0.0518897084271841,0.139196061917799,-0.00995760143939595,-0.0207344739492079,0.0240620309264064,0.893374813746552,-0.00275626069613834,-0.0124405535290425,0.0109680937484629,7.10805492599631,0.000458202824222787,0.00232539566309124,-3.89733230488449e-05
0.03,3.32535363007063,0.682753010432129,0.400063667060207,0.00461030483550908,0.00374889228526323,0.0110397881341992,-0.328489821609072,-0.104847086923219,2.30845225252356,0.0228053783655952,0.0989700834571203,0.004462587975064,6.98592955581125,-0.00217911875895612,0.00413032875311676,-0.000734381633876457
0.04,3.1740837694717,0.606247234113814,1.00321745123774,-0.00478102438459001,0.0289752099884469,-0.0133113360502939,-0.0554548540557022,-0.0135239826283303,2.1622573697104,-0.100777998268365,0.153345924782176,-0.0269457137716066,6.6936055604022,0.00105781717083908,0.00305571092148213,0.00192380978576507
0.05,3.34233517405685,0.697677747493772,0.955791172515613,-0.00886044978391715,0.0970119649352203,0.0232249101842156,-0.0270843893149942,0.0437300697564479,1.92744217716913,0.0679991468145582,0.15102429346316,0.0674919522343713,6.84612860346615,-0.00352754774802867,-8.88139723794496e-05,-0.00427829884414012
0.06,3.31353162943998,0.6813920616182,0.85116428442426,0.0274629926249859,0.0642906090363929,0.024802429304667,-0.226357463860657,-0.022724055874726,2.08372386575736,-0.14659745391234,0.00521884403177224,-0.0903284319036447,6.79945463375129,0.000452049237877707,0.00428721521035612,0.0031071292136107
0.07,3.27069456575053,0.694472361886654,0.98235167764017,-0.0238852464895578,0.0406926606918523,0.00102205753489706,-0.113069848820719,0.103604628932112,2.07810393479819,0.044268839502662,0.20336917709703,0.0937232817067102,6.75004583491937,-0.00267222097685961,0.000800822593565635,-0.00446630328375753
0.08,3.28129121013205,0.710629885594182,0.950133227080546,0.020799154649421,0.0900852524053491,0.038713451900774,-0.120497721272031,-0.0369156996574141,2.01831256079298,-0.111962100398318,0.0446018697068803,-0.0913319890710777,6.77396094152602,-0.000254159110532572,0.00238385087993791,0.00249682868586738
0.09,3.29470478492153,0.669206652781775,0.945373575232966,-0.0287270799581652,0.0405540047556678,-0.0190009456662294,-0.203089461813522,0.0574088395147087,2.0792772132622,0.000610153092027395,0.117014730204167,0.0658163406531585,6.75074397396451,-0.00116266436684797,0.00259922549677462,-0.00220599362924489
0.1,3.20833632002587,0.658246063300022,0.951569769666602,-0.0306508566410357,0.0256927127534568,-0.00139530045259327,-0.192070592925228,-0.0987517876608812,2.02694920610212,-0.0756243219154728,0.0873289133312303,-0.0705393422430228,6.79897557848047,0.00169505921009886,0.00374837071717897,0.00342003718574908
0.11,3.23490723439791,0.614552910977486,0.944080986488192,-0.0441696541011618,0.0278600978960441,-0.0386143137074545,-0.145596621631813,-0.0849605644868512,2.10583426641469,0.0547451891319563,0.146480021222519,0.060684108506514,6.74405777734397,-0.000976855457141072,0.00242961175191611,-0.0010362608655681
0.12,3.29276298831072,0.659387927391206,1.02044269204194,0.042613468246683,0.0895685112036897,0.0459562588726601,-0.0924144019820817,-0.047403967900275,2.10367330427355,-0.0267814110175353,0.127208022592225,-0.00288770868466896,6.67222877383452,-0.00353413241139303,0.000272916846966181,-0.00203147963470224
0.13,3.26955253137654,0.630142699211268,0.997992831405994,-0.0249561229191381,0.0475674392445496,-0.0159190608750796,-0.263091151462674,0.0335448001351529,2.02708270629237,-0.1577360274208,0.0135895836242565,-0.0540061162250753,6.73541558124738,0.00273887794613024,0.00430066369821345,0.0033253784159444
0.14,3.22726430946505,0.694294378448096,1.01802520332321,-0.054031939500849,0.0243151680060975,-0.00673548844479938,-0.161102786313786,-0.0340409089294738,2.11857387340959,0.115158726723936,0.190534748426172,0.0789330808814282,6.68060764823034,-0.00272759199958554,0.00127512575691611,-0.00340306455995872
0.15,3.24700221063527,0.642947790954142,1.03916361585565,0.0359854427260402,0.0778791676762187,0.0208009227001912,-0.154034510580067,-0.116368182693764,2.06742335811476,-0.12436619456663,0.0602450082967985,-0.0787336558421096,6.67986352023733,-0.000540505451930576,0.0020963685475776,0.0027427616297866
0.16,3.25645562092693,0.615856839394432,1.02976727989086,-0.0543740485122671,0.0319394283330075,-0.0329250149746188,-0.241892136392834,0.0348429140900528,2.09255719769947,-0.028625200627924,0.0969315845521601,0.0552659081813127,6.66986772168975,0.000668349082556376,0.00295667559375083,-0.00104494569235539
0.17,3.19192703505945,0.652815068707741,1.04118378809963,-0.0417437930235253,0.024510692642647,-0.00194856679564307,-0.213207181889086,-0.1472498055342,2.07482515772408,-0.00112065042371154,0.108898096135489,-0.0440813207622595,6.68315363767067,0.000146923882982614,0.00292122840017617,0.0021891753986896
0.18,3.20847984856484,0.580796021222828,1.03914995520297,-0.0271248766174149,0.0309725488345513,-0.0412764945278925,-0.199600316928642,-0.132091057687668,2.10520142938829,-0.0183103022394924,0.110695974887986,0.0258349025703014,6.65769381621857,-4.55425925887251e-05,0.00262882496829544,0.000736515685339841
0.19,3.26056597949819,0.634275923740931,1.10326095261167,0.00741291646166935,0.0752058465642106,0.0289501489965285,-0.142334469015267,-0.0381059711958228,2.13366506936981,0.00694208024730799,0.135835702702002,0.0309991183305506,6.5772056866853,-0.00310609877306113,0.000216120603699397,-0.00283050008427497
0.2,3.25602455452666,0.645626266108877,1.10892607432706,-0.00156313785275097,0.0660092350441436,0.00894620389890391,-0.242726544594303,-0.0243919133735361,2.05756193536121,-0.133640908712348,0.026989808213936,-0.0611453485758693,6.62292881612454,0.000745323714772276,0.00294283248812525,0.00247444393190649
0.21,3.1988112838926,0.638104676408613,1.08881663205473,-0.0717423966437781,0.00840426706450601,-0.0370916203811345,-0.264207188267302,-0.058659882219868,2.10522040241562,0.0112033320280003,0.123269246948524,0.039403518431461,6.62488600152272,0.000665583209448948,0.0029040270166936,-9.5500819662203e-05
0.22,3.19196585225741,0.62599559070395,1.11870339624765,-0.015020216597338,0.0489594524610484,0.00201426100096425,-0.185542629636245,-0.165596055090041,2.12883084059803,0.00733349126227364,0.121177834788191,-0.0143252596872627,6.56596446249794,-0.00155591065885275,0.00142213412520999,0.000587446062115168
0.23,3.25874963625279,0.615382532493912,1.15836149842784,0.0151435384052416,0.0798168623708324,0.00909673244474192,-0.189791087034566,-0.0349347793992927,2.10748079043791,-0.0556812721287687,0.0904384154821516,0.0259148070475542,6.55213052879037,-0.00212599562541854,0.00080978835574784,-0.00165784592769613
0.24,3.23188777577453,0.6459034010135,1.15357192466012,-0.0280281232037798,0.0501314620834981,0.00828168610737363,-0.26923051073465,-0.0227869432920102,2.10016218700619,-0.0949783465080765,0.0523922024466003,-0.036260360521196,6.55345628853489,0.000751467461160276,0.00274558154336756,0.00133121753982969
0.25,3.21121929524309,0.665555393746601,1.18254953308141,-0.0328841807605445,0.0462017312688375,-0.00338048673312633,-0.216914985828527,-0.0641281027203438,2.12250826480778,0.0313909989478397,0.137848521707281,0.0360910806583125,6.52156424020866,-0.00211448280504584,0.000900236754799133,-0.00154192340819385
0.26,3.22904385519529,0.643484315280859,1.19485776050159,0.0149907508083056,0.0785602795085888,0.0200206839668117,-0.219853968286252,-0.0759850458159696,2.10462457264565,-0.0886521252296691,0.0650561480301525,-0.0267782313963156,6.52065743491809,-0.00133803083909058,0.00117362664643254,0.000317664315945103
0.27,3.23474224604613,0.646185900261394,1.2063375614209,-0.0264480711987589,0.0574785322616816,0.00309069204129072,-0.257750035326581,-0.00613012138080596,2.13005586869309,-0.0504259698402058,0.0818578380622154,0.0182953562373949,6.48820266707376,-0.000762815855808921,0.00161446933216697,-0.00100942489528755
0.28,3.20833756378999,0.667596535675664,1.23013401630267,-0.0185417565792671,0.0576001599443438,0.0148246304286265,-0.247398562283209,-0.0683244700854406,2.10345254112961,-0.0341657478355019,0.0930869740798529,-0.0155569150297653,6.49190653854123,-0.00133944661594542,0.00123133797617413,3.66720673187345e-05
0.29,3.17639627801103,0.604691815135423,1.19441343578927,-0.0449813821491541,0.0297743989724246,-0.0318223078748334,-0.309905075282443,-0.117178521326779,2.09245044304306,-0.0842582165072299,0.0519082058282425,-0.0210220228717523,6.52372517687159,0.00165652014631668,0.00307909236336678,0.00250887006332826
0.3,3.18989369172174,0.624696133644418,1.23524552309976,-0.0327790135277801,0.0458210539393791,0.000420644705622874,-0.228882571123436,-0.0978625045176634,2.16982615178472,0.063862794091832,0.151193490229104,0.058808306233285,6.43658980663645,-0.00296898272777163,0.000217004873709117,-0.00279718961809774
0.31,3.23452184268108,0.643651025260028,1.28620030765361,0.0410185290365051,0.0995940923132079,0.0420475327260456,-0.22331476405547,-0.0617446871452612,2.11010923534177,-0.114853682905111,0.0539805866405139,-0.0419972670488469,6.45527059280232,-0.00227641634993148,0.000156444610439366,-8.92757434353979e-06
0.32,3.22479665835086,0.648213505767733,1.27142436641686,-0.0389152094908332,0.0554226284968739,-0.00449927037326119,-0.310318323370506,0.00582339913660429,2.15068406684968,-0.0906967051261291,0.0454178689147136,0.0107113159468686,6.41188979118008,0.000438761446133874,0.00218401576278794,-0.000291902266083157
0.33,3.11998505278562,0.614045699598589,1.25479303665937,-0.0889881167014994,-0.00716067401229931,-0.0388323081879365,-0.363248977407557,-0.177707844783254,2.05647861892395,-0.0307875731952784,0.0740974531444966,-0.0444629937665367,6.51813201973044,0.00257916421106688,0.00355324285577341,0.00396043954028511
0.34,3.15127389149031,0.586520713968713,1.26036818363178,-0.0241768851374963,0.0437518134228676,-0.0211283684303119,-0.233601177559912,-0.183619322054157,2.22678371253392,0.0905291361185186,0.161662530258798,0.0793353434468338,6.36443364557909,-0.00373938809347731,-0.000270800410254082,-0.00275091139904438
0.35,3.19880397899596,0.577347278098168,1.32390392443482,0.0234196186045405,0.0777563713875422,0.0225022165599907,-0.28711636258419,-0.108898931134548,2.07225533429723,-0.170133140525369,0.0147381800273037,-0.0637377090769464,6.44393774366419,0.000112504827548688,0.0016545886008432,0.00194562940052374
0.36,3.18727584659444,0.621941211878994,1.29857318309168,-0.0694322686734686,0.0328808059462507,-0.018660806332937,-0.314315118813953,-0.0418325668477766,2.18402424555839,-0.00142395348519221,0.100676628591965,0.0460320684122432,6.3624088687111,-0.000264751769593833,0.00151303236293593,-0.00128968485071878
0.37,3.15404161599818,0.631658860355683,1.3487047734236,-0.0186395240571424,0.0522648215776617,0.00895244569868982,-0.296908655734181,-0.162794918020388,2.10305856471559,-0.0314519367868646,0.0800346061668923,-0.0356334177030634,6.38827006448919,-0.00139142316755087,0.00104065435850532,0.00126119221848356
0.38,3.17424410869444,0.591140641306986,1.33020851247394,-0.0207064492705273,0.0545867809212219,-0.0149501581552051,-0.304153941969872,-0.102842194609725,2.14583109914322,-0.0673459015977474,0.070809246055643,0.0265140268043828,6.36653198913952,-0.000668267144157435,0.00114215356649628,-0.00055080745847754
0.39,3.20181464945505,0.649458301409876,1.39359041485351,-0.00509752228105068,0.0813583383980247,0.0404733856176621,-0.260177974777436,-0.0544502191137705,2.1662066754932,-0.0148777593738238,0.0995986075031041,0.0136231741886054,6.30851296954124,-0.0031785316174043,-0.00070295553294953,-0.00256069482104094
0.4,3.19836927017876,0.649185485982089,1.40097359011981,0.00161953378372537,0.078978521350115,0.0192606916749773,-0.312551724640113,-0.0688207246209177,2.11367149565692,-0.128874603637544,0.0169652855839338,-0.0413528307289147,6.34292853196707,-0.000652694651363098,0.00128130598181858,0.00103786603441057
0.41,3.16334149743739,0.632878571095275,1.38960550028345,-0.0558010274730912,0.0354318689698038,-0.0112853416847559,-0.34102762780402,-0.0799133766481482,2.15151229443044,-0.0356631501999074,0.0859370998030776,0.0256444697450051,6.3125336728013,-0.000234730754835862,0.00135547110423555,-0.000678420538249364
0.42,3.12659141097224,0.604513536801286,1.39370219617401,-0.0416702054183406,0.0408065258686111,-0.00674267970401098,-0.345379601410125,-0.169631648815118,2.11358201190426,-0.0384978076553681,0.0689169749378549,-0.029546073543422,6.33242859673636,-0.000318694352923836,0.00131432037177569,0.0017169285654823
0.43,3.14612622913441,0.585954181022577,1.39715466800922,-0.0265405803071466,0.0506339993958146,-0.0131387184662083,-0.327572731549725,-0.136330330706584,2.1598807279321,-0.0274803968273191,0.0819391461989976,0.034830446560234,6.29539600421845,-0.00153198738424573,0.000614765605700746,-0.00103110542367558
0.44,3.15398224454733,0.602062578784029,1.43343361508492,-0.0182708477706408,0.0601338741597386,0.016032737011716,-0.332370702837576,-0.118669831428039,2.13931115000751,-0.0750458574093121,0.0580997939263863,-0.0199137278165523,6.28532158591009,-0.00094041059301098,0.00072925460425191,0.000179232990832224
0.45,3.1342432520036,0.593836236962235,1.42679869847729,-0.051068491314837,0.0379497852166047,-0.0186689092631572,-0.367804134539864,-0.137920738320211,2.13136110848874,-0.061435719531283,0.0524855121755921,-0.00546768909943732,6.28768149841736,0.000362614151261254,0.00164543258242497,0.00114140806288947
0.46,3.12367079967345,0.591763905883436,1.44327018239884,-0.04185436086471,0.040067477369094,-0.00797477263538703,-0.349669143881614,-0.15974077183302,2.15270497158613,-0.00559194743223069,0.0913927422605185,0.0185470981962375,6.2594161002165,-0.00144265631290387,0.000571197471709797,-0.000502498060894619
0.47,3.14556159145116,0.596455479186193,1.47417550863314,-0.00527115552745146,0.070359169717654,0.0145124466536956,-0.330066080756551,-0.132757175635018,2.14927310717775,-0.0677513189608962,0.0620258774769117,-0.00437865199019261,6.24573745657548,-0.00185060105659904,-3.76562442734295e-05,-0.000485825668097587
0.48,3.17394003307047,0.629619959982812,1.50736564265495,-0.00891295590361584,0.0809043588417653,0.0262084214389466,-0.320391193357511,-0.0735671408892446,2.16946356335478,-0.0663865416426422,0.0565663898507505,0.0139741314377991,6.20711623457521,-0.00218738155608689,-0.00032056170263151,-0.0019079320021132
0.49,3.08708481914675,0.567743599635318,1.45926952743577,-0.0846996791805191,0.00296520938991184,-0.0411069152296898,-0.462809472053674,-0.203242050966353,2.07662714487461,-0.143823029893441,-0.0174777938273714,-0.0797160024848791,6.29849771976049,0.00442822636127493,0.00398990717516579,0.00573608414858253
0.5,3.06398146341559,0.550898664619695,1.46487690284117,-0.0890857275721784,-0.00406865599701318,-0.0502807753729117,-0.374011681804581,-0.224700572871765,2.21365642561317,0.145266862991404,0.174350353813585,0.103979556925441,6.19310434579041,-0.00267732381351827,-8.64629932613742e-05,-0.00253543274839222
0.51,3.14551982062943,0.583199823641006,1.55527187170314,0.0686374941677658,0.116331130899857,0.0609792112140179,-0.300056618580937,-0.156646937825017,2.16195036193375,-0.112130642553696,0.0536720808033602,-0.0361421118283172,6.21275226458925,-0.00418514256828824,-0.00239167455221036,-0.00117127197705802
0.52,3.15718097956277,0.593659568451608,1.53505721422113,-0.0466027583627151,0.061146000091408,-0.00745365308282945,-0.403675529288712,-0.0784275691199448,2.19988107337899,-0.176921254289757,-0.0475286387100734,-0.0158715666888766,6.13774804953005,0.00216470339767693,0.002729739461463,0.00110288822300842
0.53,3.08896356020378,0.614788354432317,1.57656300098696,-0.0892498911301329,0.0032496303499691,-0.0101802101996172,-0.396246787713189,-0.170456824034422,2.09450781400679,0.0655542333717817,0.136412613841381,0.0187330263656735,6.20144831380069,-0.00143909338968305,0.000513558545846383,-0.000400577037058021
0.54,3.11073224159652,0.586543062789828,1.54868615955492,0.0210632416549536,0.090805176502441,0.0145180087889189,-0.346998775150394,-0.186168472588203,2.19468278944193,-0.0701839918316469,0.0618540565148079,-0.00225332963109269,6.15089138446161,-0.00319544570246904,-0.0015856964349589,-0.000582817819466317
0.55,3.10074010221655,0.547854080769806,1.55860262818629,-0.0601242679463908,0.0351594516723746,-0.0214053621021539,-0.445113866445916,-0.168293435716416,2.12681057218448,-0.163183690952586,-0.0414793279654048,-0.0281111349376262,6.1679023114958,0.00296769289392729,0.00316925970500409,0.00234766455073166
0.56,3.05569893942056,0.560592788107321,1.56537554116392,-0.0986470089696758,-0.00804216966654719,-0.0289430916899285,-0.423365978391741,-0.21653837607555,2.14922386847934,0.0851933589212763,0.143095203430652,0.0334205849213207,6.15530832658452,-0.00124706342117494,0.000433162972357764,-0.000207093862765531
0.57,3.09406013011282,0.564635240676112,1.60018444925183,0.0263033349784413,0.0925027792463048,0.0188585868066676,-0.360094049519958,-0.20399754261221,2.18907421228146,-0.0652040672072932,0.058419740846381,0.000606194232823739,6.11554361521669,-0.00359666338718448,-0.00187555385344873,-0.000920720721018827
0.58,3.14124021301787,0.590850587117254,1.64054399993203,-0.0115708409022724,0.0819934274765844,0.0260775183577644,-0.373358158555607,-0.106678826186284,2.17185631545329,-0.141101249502152,-0.013003420994996,0.00444711016937676,6.0883785998438,-0.000622997921780766,0.000601475251861348,-0.0014522888703914
0.59,3.10947229921499,0.615281356391492,1.65620003360419,-0.0574148437388828,0.0388952605104448,0.0155000906688354,-0.399868110357709,-0.147049681745046,2.1360773656239,-0.0334555840357571,0.0701021952162323,-0.0192247293561607,6.08995641017022,-0.00108183919797186,0.000310149876904417,0.000171310214579635
0.6,3.07262127595202,0.57092679808736,1.62978912554646,-0.0384873720073871,0.0487397059690122,-0.0176291206447226,-0.428049026261073,-0.209944940155033,2.12668375106713,-0.0717570507273564,0.039818758173484,-0.00479637443694326,6.10885668039124,-0.000600144447109271,0.000241314375511753,0.00105415341327857
0.61,3.09406455493302,0.574863045501616,1.65418538019053,-0.0278025244912503,0.063224851944587,0.0141800837653702,-0.39390097535161,-0.162735676475199,2.17828415270348,-0.0310632247811527,0.0589509991469196,0.0360844493840781,6.05603463775937,-0.00244503107112858,-0.000795679397486919,-0.00238342383560859
0.62,3.07793776404677,0.566948175911141,1.66836627466776,-0.0328044768600775,0.049284258926071,0.00878433659072702,-0.438699245254414,-0.197144280569343,2.11774420833696,-0.124946346469967,0.000546279403354284,-0.0548757538640654,6.08771044895393,0.000289252412658182,0.0010795018318628,0.00217471304970538
0.63,3.04884361543162,0.544738028763348,1.65180155063241,-0.0803363431782103,0.0168770816813309,-0.0354900288333573,-0.456494393018683,-0.218312382068592,2.15173416980931,-0.021435182035479,0.0680903326408088,0.0341727958143482,6.05976343816299,5.99968792796942e-05,0.000630116023208257,5.87624943606531e-05
0.64,3.04709893864363,0.54191992864442,1.67945777650236,-0.0338467609308291,0.0500708368450572,0.00558981738530358,-0.439623852583063,-0.232010818696859,2.15014064648064,-0.0269843320845433,0.0529732838623556,-0.00599658531465123,6.04492833149695,-0.00200365807077913,-0.000515182721193121,1.48065283971365e-05
0.65,3.04850843211912,0.529494187330964,1.68173311330719,-0.0395259343110339,0.0412280363028343,-0.0147017165579863,-0.458245077442883,-0.226497213538206,2.13336671400492,-0.112787421907342,0.00649323613166972,-0.00957554041085036,6.05369322792052,0.000350566729049419,0.000963658558451614,0.0011418420470612
0.66,3.04555092071095,0.54114768734409,1.70268560490694,-0.0668299995477547,0.0301761832027872,-0.00773993361011477,-0.448136503592407,-0.219394946103849,2.16044560807868,-0.0114956596439557,0.0703631572991013,0.020826236179163,6.00931210153013,-0.00105460502254227,-0.000143465067796572,-0.000623505354583666
0.67,3.062899044342,0.558108166638839,1.73879020150466,-0.0115815203123063,0.070748523175974,0.0185938396471419,-0.422888231202592,-0.206514890084078,2.14558845366745,-0.0570283762346642,0.0394625267093474,-0.00436261211209575,6.01271944891265,-0.00268174608943019,-0.00122466003343489,-0.000675627627986881
0.68,3.03498815542662,0.525085017685672,1.71256511244629,-0.0611863509845563,0.0279295310455285,-0.0230135376737736,-0.490966569299027,-0.248198084697225,2.12799885640102,-0.148640231784108,-0.0278985647898967,-0.0312985302615322,6.02032704991507,0.00222083075728952,0.00206013447707215,0.00256810392478129
0.69,3.03585611522621,0.542655318708063,1.7554071397239,-0.0716355690145766,0.0270241832236224,-0.00553870644166066,-0.440795946069864,-0.219982219833843,2.17302109309893,0.0720860861351074,0.122365115350222,0.0600205948930465,5.95452484172753,-0.00310897999127382,-0.0015396551673636,-0.00257828111369206
0.7,3.06930678417972,0.564446294628878,1.79066627983473,0.032833482764098,0.10192773875123,0.0445405200572693,-0.416876663445731,-0.200259221753616,2.13410112373047,-0.134251782715145,-0.00402197843724547,-0.0368166906054331,6.01137943722708,-0.00301203108501941,-0.00186684742488921,-0.000355570768834292
0.71,3.0538851034187,0.548517448413022,1.76901947345802,-0.0707722357294585,0.0345396756703536,-0.0143317092117227,-0.475329546935258,-0.214697567660228,2.19395871335251,-0.144382951913691,-0.032611558074163,-0.00543817321476871,5.91896821122137,0.00199169514335378,0.00194050469987956,0.000932660876919409
0.72,3.0366358798825,0.560103551975355,1.83512299385142,-0.0646826297502077,0.0327636529955644,0.0112738695588775,-0.445863978505424,-0.2148736769059,2.1108904390007,0.0668268690072149,0.121607911580348,0.0306560879193697,5.9429499866269,-0.00359620199703526,-0.00196678207970511,-0.00198290130951203
0.73,3.03329762247987,0.536638576978681,1.7844447015456,0.00639592037540464,0.0803652811620784,0.0101768769219296,-0.473688181870989,-0.247332747307205,2.13022253268845,-0.172891533098389,-0.0409098824110632,-0.0432695853078171,5.98603394879684,-0.000771937544058376,-0.000309136072241002,0.00156676870213588
0.74,3.06483400037918,0.568351808767594,1.84333145457041,-0.0522887998891602,0.055288260503115,0.0187928162659489,-0.422707679555687,-0.175984364039543,2.21957796159527,-0.0254834865326466,0.0563088583262684,0.0647553026190954,5.85009521865363,-0.00231901236234419,-0.00124067238525418,-0.00395731196002351
0.75,3.05237609554953,0.571649112722142,1.88222429564896,-0.0127258229533642,0.0725369342671243,0.0424624079163423,-0.453951540854805,-0.214558582333166,2.07198226925857,-0.107698160099354,0.00104073347477868,-0.0699108416671703,5.95366103364981,-0.00189520497912962,-0.000953102788008917,0.00129957775818429
0.76,2.98327821840744,0.496239844834539,1.77871824938303,-0.0996180234341863,-0.000378716296898971,-0.063280271020805,-0.556474480760028,-0.305688662375828,2.13707841615177,-0.133196540699362,-0.0279533236110069,-0.00204151403619108,5.93268871439816,0.00353629690016342,0.00229367768499768,0.00309304322891708
0.77,2.98319277471923,0.504746967599072,1.85691494551474,-0.0749746523555021,0.0224054817685592,8.43527430590203e-05,-0.49352325853056,-0.262876621601072,2.17649581802099,0.116460080067635,0.12389812416062,0.065670739226584,5.85150648655992,-0.00426683075303266,-0.00230470566869174,-0.0031069732208434
0.78,2.96612673261899,0.474759833085154,1.83356721082433,-0.00850970491728875,0.0479577446016118,-0.00840396955063337,-0.552617005254243,-0.322486316873638,2.06050073562739,-0.230404153809633,-0.0821219203247981,-0.0949908163039261,5.97752258851688,0.00168905008666854,0.00133634532545781,0.00489262498459688
0.79,3.00161498328364,0.514191093585504,1.85830246743719,-0.0957592364786766,0.0187782696332686,-0.0197149812598104,-0.472142346937636,-0.236969283283759,2.23695562735916,0.0553848074905979,0.107674592696321,0.119629413257411,5.79341880636636,-0.00212815778004121,-0.00162335818156696,-0.00472994751303369
0.8,3.01071454539259,0.530363478836427,1.9334525034361,0.00890437717208271,0.0829329250192015,0.0554463465979424,-0.489774745184576,-0.25551921482698,2.06776320682034,-0.112124278590763,-0.0203527313466898,-0.0943438448237945,5.91872447339889,-0.00273547683545016,-0.0015935633118565,0.00185461107191926
0.81,3.00802452486165,0.524475523500793,1.87998598374094,-0.0576544506771656,0.0393220864300396,-0.0274623581036125,-0.492364274075511,-0.259383081079492,2.19664509089212,-0.129646135466955,-0.0146886286713567,0.0488909055570036,5.81137067473897,0.000570243847723446,0.000460096531702297,-0.00102093614471808
0.82,3.00515280287208,0.530176727164395,1.96306042583458,-0.0593222702884635,0.0448513497659561,0.0354286267264964,-0.48596776764378,-0.250018148943799,2.09865650961747,0.00720246023967524,0.0632749284906264,-0.00827019297939186,5.83093837291195,-0.00279491798041362,-0.00189679584000133,-0.00128210156968859
0.83,3.02544934987103,0.547684627813238,1.94349774148039,0.0116430698801821,0.0932124015169926,0.0289546435866242,-0.463038242439437,-0.229078903311037,2.14337439007226,-0.115608643198033,-0.0122979673374667,-0.000185803709063147,5.85375996084439,-0.00323618992650839,-0.00229229925646852,-0.00134172031584048
0.84,2.98616630053672,0.50902840538117,1.93522651669296,-0.0773366554051833,0.023333350117734,-0.008207412854649,-0.535729624954622,-0.30245637462111,2.14565801665462,-0.167479325305776,-0.0608440780567208,-0.034485608315278,5.79425113699692,0.00256484979029291,0.00188390085596954,0.00201989266773807
0.85,2.95895513373041,0.489488415201752,1.96485301437785,-0.0953486634421956,0.00616810940390304,-0.01671763128592,-0.537797691342907,-0.291778724748953,2.09685473687539,0.0699439927498636,0.104803683599594,0.0396815634696324,5.80906318405468,-0.00253598842331877,-0.00175160388553609,-0.00108708849966502
0.86,2.97471558586669,0.504015584437677,1.95527096892603,0.0148757312025119,0.0874856802502937,0.0274926258345833,-0.517882945274917,-0.276551196286892,2.14269300804279,-0.125886239033839,-0.0247377557236567,-0.0141851145717793,5.8339844540751,-0.00293743520869673,-0.00233786492344569,-0.000604341678962015
0.87,2.98612871722556,0.514670493691576,1.98907395565443,-0.0583639980089143,0.0432505996562073,0.0103337874537602,-0.503723554177055,-0.281388769174658,2.17358029812364,-0.136019129934245,-0.0428175795733003,0.00166610602343541,5.73436130963825,0.000485331815903349,0.000522087791146443,-0.000569833579005876
0.88,2.93924011492432,0.470456274018595,1.99338236023681,-0.102717883713687,-0.00412814778010501,-0.0208508777498155,-0.577707022715366,-0.336945166500542,2.03931565678923,-0.031065085434543,0.0342487116633159,-0.030872409871444,5.82088693339775,0.00044345286111079,9.88972335464241e-05,0.00244366206624897
0.89,2.92548242626526,0.458981832885875,1.9532723650644,-0.0503009194800424,0.0373430251148753,-0.0226989958280066,-0.570613722028756,-0.329522480204143,2.16529829750839,-0.0230913098417967,0.0270228734057034,0.0422199313439619,5.75741605718597,-0.0023377321007973,-0.00177297202318207,-0.000920710399209017
0.9,2.93804302453314,0.471052388213766,2.0159185883887,-0.0352028119288973,0.0455981663988375,0.0170236067397456,-0.546297750300116,-0.319993530635281,2.09768039910188,-0.127747058605652,-0.0371682502944831,-0.0196311864503578,5.77467876138002,-0.00056119501789603,-0.000382533291394999,0.000126941660207397
0.91,2.88799988481982,0.419859675161248,1.96285186585754,-0.126484771394532,-0.0278754394302201,-0.0554255759237424,-0.630497944909031,-0.407913524575807,2.07871851943453,-0.0962414413843056,-0.0215578394065328,-0.0374554058519572,5.79434225980666,0.00365189442089591,0.00175401880031578,0.004398061352202
0.92,2.93242430537352,0.465078045901772,2.03913655609947,-0.0451503376263769,0.04639143264115,0.00645994278073973,-0.528343454534254,-0.289491394400076,2.21346603290746,0.13330376433989,0.117772278375167,0.111217140946751,5.65829303488438,-0.00676999585841937,-0.00482137296843546,-0.00553607157455767
0.93,2.91872850382523,0.455150966344978,2.04815628945966,0.0095596649363507,0.0580953990258159,0.0253776798975927,-0.580474234872733,-0.373187444878575,2.00354505773313,-0.327216754905498,-0.169130671940605,-0.134182432028738,5.84345376524756,0.00264050523636205,0.00177478749248357,0.00516929533698122
0.94,2.94166618710429,0.47217242129101,2.0351551351454,-0.138205327927887,-0.0149843633634297,-0.0338583333517769,-0.52313830606656,-0.322494229599392,2.23815682243905,0.0857808000943883,0.127597310158716,0.126954452691312,5.60718481298091,-0.00141178018723168,-0.00193410908521346,-0.00440616220987011
0.95,2.91581574644517,0.447446341888984,2.10497382365256,-0.00772863480564931,0.0696031571331767,0.037297437109928,-0.598817039602733,-0.34323146889368,2.01874706578132,-0.108265936370389,-0.0552582840153754,-0.106361997860989,5.78145817152328,-0.00240321736417113,-0.00178007449459179,0.0032939309548701
0.96,2.91793046694551,0.466940373837325,2.04474469716878,-0.0631135341328295,0.0253742059375525,-0.032046220662991,-0.538907955619313,-0.350472422086161,2.18100044159087,-0.123133742294116,-0.0263524275550392,0.0792983623765106,5.6516306442113,0.000271128526805407,-4.31784583633582e-05,-0.00223858572523868
0.97,2.9365384307365,0.466622574540242,2.1431651742597,-0.0637642440205036,0.0394372000914365,0.0463416517035615,-0.544573432349698,-0.328126985335315,2.06339094007136,-0.0115896409389044,0.0371648838716392,-0.0349300454405904,5.67836615873959,-0.00254840851691271,-0.00241025107311201,-0.000528785910822991
0.98,2.91147936455351,0.450312753467511,2.07922171414624,-0.0396605954688966,0.0464315361771812,-0.017969882780166,-0.577078747306837,-0.367526191056628,2.08012200722932,-0.141505602320589,-0.0674159465514207,-0.0147143677415011,5.71462295807971,-0.000285393022852419,-0.000377395736560585,0.00155375413011864
0.99,2.91218357844406,0.450058070091007,2.1160821465961,-0.0778327933249091,0.0175771667379032,0.00324729138924201,-0.555875837415182,-0.359548664195435,2.13277943899392,-0.0393842372724189,0.0225371168279124,0.0411625973378135,5.62449060561373,-0.00118666978269314,-0.00125870738818372,-0.00210037212754913
1,2.90075995272116,0.436081224595907,2.13815289104157,-0.0496423079509995,0.0406246669041069,0.0136545036339157,-0.589010624594894,-0.369307068935305,2.04736154158103,-0.087376776175789,-0.0238787884230884,-0.0472127106452448,5.68804471908233,-0.00121974265345611,-0.00145547699271048,0.0015979560289884
1.01,2.90073539431275,0.445027053718308,2.12236868587521,-0.0577207756905831,0.0351157763250341,-0.00980149930555491,-0.563581515397647,-0.367892819712696,2.1216033906047,-0.0779894430030777,-0.0194280265336288,0.0419092871358055,5.63114897320204,-0.00123301052335821,-0.00124349362798513,-0.00151318152148937
1.02,2.87032497026459,0.407894772693401,2.1385536200216,-0.0845510377925837,0.00523082592290327,-0.0047461519805333,-0.619445892391419,-0.420613716980387,2.04446883824406,-0.10510066851956,-0.0399637376099823,-0.050167883701478,5.66188018619413,0.0010893862558302,0.000236635161023737,0.00259849241869793
1.03,2.8553917998295,0.395418977411815,2.12640870779322,-0.0897096803642376,0.00303611528220014,-0.0348333325264885,-0.622399732699029,-0.408891450623794,2.10036298501915,-0.0058015863058643,0.0257223885693028,0.0428907861144902,5.6212082253857,-0.00126814702242402,-0.00152299563129812,-0.000381548010720972
1.04,2.89564065856635,0.442169540776044,2.19419327974919,-0.0084266807581622,0.070271018334281,0.0436162824976174,-0.555640160320395,-0.34325487702477,2.10516999238495,-0.067825587482296,-0.0108688426658393,0.0137501865081683,5.62472284123277,-0.00391284130172439,-0.00355666673395876,-0.00266900163670432
1.05,2.87156896950517,0.418977495500348,2.17007266457309,-0.072557307740134,0.0172461623640515,-0.00770371795387535,-0.595802229189341,-0.446783064189417,2.06811119457169,-0.207359347598362,-0.122498487984899,-0.0670927996846375,5.61135884243328,0.00298326685358233,0.00166965789728955,0.00354624150903994
1.06,2.87131098604953,0.399481875382385,2.1998400885182,-0.113370207608573,-0.0133508116556812,-0.0243965968591365,-0.595740016034196,-0.39637935474074,2.0806268987294,0.0835167194788902,0.0969364113299104,0.0781526951201913,5.57029919334547,-0.0026549639463733,-0.00262258263171832,-0.00254009414015136
1.07,2.82981679100342,0.375255983604604,2.16949836875595,-0.0299730682363711,0.0413689292192873,0.00210452225975188,-0.665754209466446,-0.444934831368402,2.03763630124967,-0.173345379634161,-0.101336401631186,-0.079480281885756,5.65733545316587,0.000178962118878199,-0.000671023684972734,0.00367895882245291
1.08,2.82673514536548,0.382241411912682,2.18131138569591,-0.113416034903898,-0.0160482298818241,-0.0417245449451462,-0.60843104732465,-0.454949860647168,2.12144336920846,-0.0408159133086272,-0.00391429225025604,0.0711417240897701,5.53710556345179,0.000625751732342612,-0.0002152036636933,-0.00139598243876744
1.09,2.8341966987827,0.366912007075214,2.2311773103116,-0.0665150028875787,0.0173662851681901,0.0138305399239402,-0.644626928634714,-0.428625922498445,2.03215473464762,-0.0264042388478532,0.00189930332720666,-0.0419158763349916,5.59054369159356,-0.00202229980038722,-0.00212444503003705,0.00134112011799577
1.1,2.8282489106777,0.385141267927462,2.20637039056473,-0.0526739991303144,0.0290697185820763,-0.0223082922626461,-0.615311559532487,-0.447898070073926,2.07546005743154,-0.125594185499536,-0.062561219291634,0.0241469217667555,5.57467874287096,-0.000257262048087038,-0.000966437528261797,-7.66428110502488e-05
1.11,2.86047029394622,0.40087683297212,2.26541445444061,-0.0683473897058859,0.0260601779039955,0.0264249061376681,-0.571066536623398,-0.420663285738912,2.08285971226784,-0.0348568891515543,-0.000389640713656658,0.0137726225079269,5.51741089475548,-0.00202657584098091,-0.00215515097639646,-0.00188784805258005
1.12,2.87149880542577,0.406957754124005,2.28414561470057,-0.0323730456165775,0.0508827170020065,0.0234833015269692,-0.575661301091415,-0.41408919374389,2.03527795907208,-0.107377278178583,-0.0461621243971636,-0.0247711956408816,5.56443462811236,-0.00198129454401571,-0.00223954529173443,9.01635537617025e-05
1.13,2.87012175320546,0.410885808635044,2.28035024819,-0.0591459607895025,0.0362346881515441,0.010402231349356,-0.559920425309359,-0.435912034628602,2.08647851962653,-0.103236937250413,-0.0464068246070115,0.0199941899455843,5.50092007686627,-0.000878177887480276,-0.00147373837095727,-0.00142335338432293
1.14,2.85034373944068,0.378729604502104,2.29979596147137,-0.0764575567481154,0.0164525049963952,0.00966554090930638,-0.602425904213219,-0.454710079221927,2.01354787209954,-0.0749656388555033,-0.0346429191573781,-0.0282288471692627,5.53114628334778,-0.00061089113109555,-0.00117525754873263,0.000886712756650783
1.15,2.83939014685235,0.377111667488804,2.28662798021476,-0.0598545688377686,0.0274125581034679,-0.00286373517110024,-0.607310794268707,-0.442883212693976,2.0617998525419,-0.0592242465134391,-0.0170398006387471,0.0260898094587924,5.50896564721549,-0.00189486766397339,-0.00234628450020191,-0.00108112889569751
1.16,2.80089069253345,0.345687165635771,2.28312033663625,-0.0825417723486893,0.00473061953394782,-0.0103941673132905,-0.650781426262361,-0.508083377692841,2.01301103630574,-0.136267625671398,-0.0886106478301427,-0.0402362160069481,5.52878320507873,0.00150050211710058,0.000137592147014336,0.00240029920981923
1.17,2.79487082691807,0.333137730296715,2.29021518374081,-0.103304220750923,-0.0135806944326941,-0.0265566139901322,-0.647103303902758,-0.484444418371553,2.05853914180168,0.00973344648020132,0.0190342211896363,0.0431878018038142,5.47749493428749,-0.00135724938269599,-0.00186229666634112,-0.000784427080375341
1.18,2.82779271991107,0.374986676673893,2.34812894097552,-0.0111193007120981,0.0626192903332348,0.0415973709564318,-0.603349455362547,-0.421373445165274,2.05564095740201,-0.0783815473990154,-0.0334065052646448,0.00314467549728448,5.50492915849925,-0.00380398523985878,-0.00404739637501861,-0.00205437486246524
1.19,2.83006607384963,0.386427019463001,2.34810241318936,-0.0546723310681856,0.0346104748150869,0.0166092351443684,-0.570198238247188,-0.498469516893286,2.05942765318631,-0.183803595131297,-0.125107156887635,-0.0299619329561712,5.44940260344225,0.000947084746557297,2.95177316202178e-05,0.000650197021540065
1.2,2.8286469331451,0.345019115866839,2.37027351687177,-0.106940992951984,-0.0118002130924164,-0.00597451849934344,-0.606387407909404,-0.486279741682928,1.99991474165258,-6.41758245385066e-05,0.0263057730081444,0.019804110274522,5.4541736513062,-0.00119488633960193,-0.00193354159469489,-0.000650221509203609
1.21,2.77687203816033,0.311187050648275,2.32015538451388,-0.0650116061308787,0.0173451518191214,-0.0155643082741797,-0.691220636674754,-0.516131856081562,2.00588861916861,-0.112733389349708,-0.0785065821426515,-0.0342549369062647,5.50184664113553,-8.3121725473948e-05,-0.00138038535273993,0.00236884568517076
1.22,2.77600408955453,0.333286484087881,2.35433282780715,-0.0817139664344533,0.00452527144844965,-0.00957614500252528,-0.62327007868189,-0.504139167879648,2.0642400867343,-0.0435989075403782,-0.0314358860286802,0.0547237268276559,5.41538053250685,-0.00126770510687205,-0.00169539334372525,-0.00212590825183984
1.23,2.79690832849232,0.3334523927705,2.3973854752085,-0.0516918005976553,0.0244755272517209,0.0289054492595962,-0.630476528291256,-0.491865645604023,1.99077216614015,-0.0900784925127702,-0.0453418311675291,-0.0394603500364829,5.45968151493717,-0.00156263921017369,-0.00230987328799051,0.000525491526145807
1.24,2.77306102118512,0.318515124645489,2.36173763314843,-0.0875798059903567,0.00379082131593862,-0.024907248444407,-0.644688017368789,-0.54780385522944,2.01728743422382,-0.115793298452729,-0.0801003378293512,0.0039888829346563,5.43438773599471,0.000957211653542982,-0.000666232500489653,0.000994415816835236
1.25,2.77930155778471,0.309797185135454,2.40142302898559,-0.0844398677601181,0.00251413865336314,0.00515496844135316,-0.636241702039796,-0.506163240443975,2.01964309547421,-0.00234118081185389,-0.00760200450967256,0.0250865317212636,5.40565048426101,-0.00223760030395649,-0.0024853291216292,-0.00141577059495231
1.26,2.82520497927258,0.369884151137098,2.45522955957912,0.00454559917750159,0.0743310822023817,0.0589170926214705,-0.568350670892992,-0.441277547344427,2.03483313130103,-0.0962789505684828,-0.0425387647183887,0.00995636876148235,5.43498053533114,-0.00435301922925944,-0.0049103127970338,-0.00316404461319485
1.27,2.78033731491785,0.324672757376658,2.41358550440251,-0.091206592856955,0.00277501570043102,-0.00684915596189897,-0.613703042807997,-0.607556511019706,2.01287609895155,-0.231026798759425,-0.185513511262666,-0.0754370248821241,5.37945005680182,0.00416586530565353,0.00199275418127499,0.00390686954385011
1.28,2.73803909879888,0.237932698793135,2.41231581084918,-0.167619091154204,-0.0802583443287401,-0.0645731786282007,-0.705826725668797,-0.577582069943133,1.94758461837642,0.0907285003889181,0.069588341734333,0.0559640234558974,5.42459134300853,-0.000131427166874958,-0.00153875815243288,0.000402530253744392
1.29,2.67898168403301,0.225051811678422,2.36182024620707,-0.0588798921245758,0.00579220133296057,-0.026659215732278,-0.781563675439496,-0.585210001761226,2.0649068818832,-0.0945294428116097,-0.0905874253909002,-0.0342339381407524,5.39868109217634,-0.00069116157878125,-0.00200134528466151,0.00289211251404018
1.3,2.68522789787013,0.264236397259183,2.44136645646945,-0.0986499448030496,-0.0233506858354757,-0.0299228378678868,-0.669418575221064,-0.601965803431655,1.98170266738462,-0.0878070622303,-0.0774903683808612,0.0490254506213953,5.37415542599235,0.000903828632664504,-0.000340191315258989,-0.000903155495380119
1.31,2.72373461966957,0.250148974643091,2.43649652490044,-0.0940063373925155,-0.0160190515513994,0.00552644317874362,-0.687955870650147,-0.574718237888,1.98269597335925,-0.020105468488885,-0.0151470175364766,-0.0298688624475798,5.37650966769612,-0.00114678711094903,-0.00229223509679573,0.0011601233495371
1.32,2.70114956203031,0.247248405157024,2.43357726226814,-0.0773938428822984,-0.00127648852307324,-0.0344999167342055,-0.698441871657143,-0.604889527788321,1.97687717302518,-0.111873300733768,-0.097162359359935,0.00610477031851493,5.38796206511407,0.000469498630516549,-0.00114557916824414,0.00134869299449557
1.33,2.7604756873024,0.300914519849266,2.50541624146543,-0.0531105411740426,0.0260474924598678,0.0388070257883405,-0.583552262398766,-0.523235871263224,2.03612105048228,0.00475492233715343,-0.0039664307299518,0.0609889632927585,5.30482009309618,-0.00408686571304419,-0.00428008010299426,-0.00467408238470826
1.34,2.77366168464727,0.300823799943525,2.52489737680705,-0.0248559369726174,0.0417593654894255,0.0434084801644957,-0.596992229466849,-0.578708988492762,1.93007450186248,-0.198143208897221,-0.142467896729085,-0.0838357404708278,5.3864397585236,-0.000132390312107077,-0.00137192949965572,0.00195467432544579
1.35,2.75974164514061,0.271100286333834,2.49396224827333,-0.115815877405331,-0.0193376003958556,-0.0238955029037286,-0.597721148813701,-0.619599558967517,2.0105177655297,-0.0459876059029109,-0.0308127561565692,0.0515001506747546,5.27932404377588,0.000355754994496722,-0.00142239292819366,-0.00130600556606766
1.36,2.75099560864812,0.246604854187125,2.53661166165313,-0.0580704837975135,0.0212249577594172,0.0279661011915871,-0.655741806923229,-0.550553971873332,1.9325833505978,-0.0271722543677874,-0.0431434430225885,-0.0213191629578304,5.35227224943416,-0.0029740870205406,-0.00349151106756629,-0.00027945341298959
1.37,2.65516476502369,0.201630331517676,2.44274971985882,-0.114581730004963,-0.0466429579154841,-0.063213423235213,-0.72749507087737,-0.720431055500406,1.92485023121706,-0.215545157444753,-0.17453168238884,-0.0518087528614137,5.3750937275166,0.0054895293085528,0.00195515948212893,0.00544643579252603
1.38,2.72429767933576,0.23307784075855,2.54611269433511,-0.103787502976596,-0.0161547225104816,0.00553746717584006,-0.633515726369144,-0.537644434845382,2.0693141223506,0.198639312589988,0.110149367410934,0.141991067789452,5.20048178263722,-0.00651538832718337,-0.00627450243775371,-0.0069332977378921
1.39,2.71343937839772,0.259512061283739,2.56970143401847,0.0370650314418823,0.0637114229106169,0.0620186265781868,-0.665427880310401,-0.595000539990772,1.85151800261296,-0.316507888056183,-0.230238903713059,-0.146756264884323,5.46957156810488,0.000144096418392543,-0.00138161211420722,0.00409563091453769
1.4,2.67942342007519,0.216575285786895,2.48235180351266,-0.195162572963304,-0.0883056055249183,-0.0798552267169637,-0.632798388969589,-0.756628857910771,2.11052740349768,-0.0685737946441059,-0.0496332773090027,0.0716012913051705,5.17506638723699,0.00528164540059753,0.000970560996740237,0.000388193713041376
1.41,2.66592779613467,0.125712484278874,2.59195315828494,-0.117323490983348,-0.0330534387509035,-0.0117491407622476,-0.780609864853144,-0.5922508663858,1.90198625867539,0.133319949272729,0.00580227204986306,-0.0241447968236334,5.29329297829692,-0.00399840572471429,-0.00354144879715844,0.0017076002158037
1.42,2.6479431181088,0.23784877195594,2.53750349848118,0.00368142007821809,0.0278359521693679,-0.0048291742526932,-0.673353285556324,-0.618085174143854,1.96742740341125,-0.209059989476233,-0.133754934060231,0.0379479473975223,5.34132510210672,-0.00123636399576595,-0.00242970825158232,-0.00150988166234926
1.43,2.72490345122561,0.260287808385027,2.61846248641531,-0.0946779876976297,0.00831401316100569,0.0510408696233427,-0.556666387655403,-0.672833279728026,2.02618109268624,-0.0654328474762615,-0.0626744846175122,0.00120158261040304,5.1493018303702,-0.000232509195400188,-0.00235086954271144,-0.00245794465476186
1.44,2.72796361762376,0.192757071252306,2.62952182611671,-0.0713752966814535,0.00394081065465177,0.00621788141907924,-0.63326209130481,-0.624152838458854,1.811217515664,-0.0535579555787285,-0.0852001295602434,-0.0464183347367268,5.32864191517902,-0.00160808578325775,-0.00201914985652735,0.00191998607791789
1.45,2.70631976387959,0.221850085247618,2.56445378316443,-0.0584189084597308,0.00353358883779981,-0.00295260940207271,-0.619734027132381,-0.654780490013463,1.99610847674654,-0.102667457702161,-0.0647813411138119,0.053948008646805,5.22220252793762,-0.000995321484747895,-0.00273187931191861,-0.00239014064996448
1.46,2.68557721974338,0.183274264902927,2.62852344228674,-0.0963794864552939,-0.00830893914610621,0.0164014287630947,-0.651330722654063,-0.700152557677132,1.87387189431125,-0.0934370734117546,-0.111968224981535,-0.0537982737823147,5.25323217206499,0.00085616579664114,-0.0012043964891571,0.0017721557955872
1.47,2.69594492380747,0.188814066440629,2.61317393669411,-0.0720903398512168,-0.00540935921213713,-0.00423392266445964,-0.626862034964267,-0.633642903880905,1.94049718090583,-0.00101500815985761,-0.0313267961451669,0.0535760046598132,5.21973120358364,-0.00298898567775402,-0.00344073008554414,-0.00230969422066796
1.48,2.64534806322761,0.155264521441188,2.60125187113787,-0.081725202220737,-0.0218449946468434,-0.00703264202978144,-0.700935397006183,-0.745591422956053,1.85866074478445,-0.196145709437356,-0.16124106539056,-0.0734039350587414,5.27667505007817,0.00304643140530702,1.0901218504936e-05,0.0038075289127343
1.49,2.66844467507358,0.164381510693227,2.62722843271195,-0.115194177578449,-0.0290346257880882,-0.0157366237088556,-0.637798925344564,-0.668201945796642,1.96919131487512,0.0844568270120629,0.0159486361878372,0.095630965730582,5.15684570791772,-0.00296461145196051,-0.00395443045858224,-0.00377017266613542
1.5,2.67510691732166,0.177316002753841,2.67020617617564,-0.00759147723565555,0.034128562383517,0.0507376382583524,-0.656982472464287,-0.647071378244429,1.85873255965806,-0.163785954394957,-0.147439245009012,-0.0717393442624896,5.29047431062021,-0.00176608762318756,-0.00286990599459483,0.00104818070805547
1.51,2.64839218491603,0.16828792256304,2.6248180683223,-0.125486432171423,-0.0442743632176477,-0.0344780350561261,-0.618083157129064,-0.791968222715398,1.95840015991926,-0.129631518986135,-0.115908675314548,0.0186999547205548,5.13877967013322,0.00330301736650552,0.000126667104091319,0.000739883775920246
1.52,2.67025160815785,0.113841316452279,2.69393759332177,-0.103680113336331,-0.0245791390829311,0.00795568316633247,-0.681180010459769,-0.65731622480629,1.85282559696827,0.0853367876707185,0.000830179157692781,0.0185011551147224,5.19929604659472,-0.00353904178022769,-0.0041139101078754,-0.00123678136502572
1.53,2.66750611599083,0.19461765832255,2.67651652683349,0.00930067211051114,0.0478894984887737,0.0403867757287013,-0.618641431540529,-0.65336014767265,1.9202902041138,-0.170330526756925,-0.140470843053388,-0.00134883913964393,5.2423832386494,-0.0025308110671372,-0.00385907730499085,-0.00177040113122583
1.54,2.65328631122292,0.155871365649018,2.68736694505468,-0.123950441599181,-0.0388111361937472,-0.0026343097585076,-0.592408462669266,-0.82501335145137,1.92805938810244,-0.155583775837959,-0.157228608299696,-0.0378029049880931,5.10029259571549,0.0039503547124974,0.000915638152882628,0.00191194245402184
1.55,2.68178473112341,0.101884086169834,2.73229848672849,-0.102629115895248,-0.0313472343673577,-0.00265114798298999,-0.65859976209361,-0.654292521929058,1.83046568387166,0.119666520471291,0.0417997365954886,0.0538442556458911,5.17185651400698,-0.00454056959603464,-0.0049860498871633,-0.00239849498828362
1.56,2.60190038556399,0.120358078209592,2.64635646862072,-0.0318551838634323,0.00716864559010688,-0.000253053225796579,-0.712537560980594,-0.767138223024492,1.85230690108641,-0.257945036810942,-0.222708572318941,-0.0720218338847543,5.25113800665543,0.00216407903326059,-0.000623546231813012,0.00342997205847947
1.57,2.63206536871747,0.128109146953799,2.71456982828904,-0.139446158690924,-0.0535122565556203,-0.0121562932708461,-0.594016189168969,-0.772660131432575,1.95504790950443,0.0486922866066968,-0.0111985624113806,0.0904801302142075,5.04683493554558,-0.000762017504311326,-0.00253185995161888,-0.00371111145450864
1.58,2.6849351737512,0.127568613574998,2.78478703562056,-0.00190971754451429,0.0444541018034144,0.0721416964493795,-0.64049149532497,-0.625974344486859,1.81632592860771,-0.0556172687886921,-0.0799238552256988,-0.0504829249529494,5.2248254289063,-0.00490272970460699,-0.0057818614443234,-0.000937758342469081
1.59,2.60825497920713,0.133135064411825,2.68547376431393,-0.0933445465900672,-0.0280693267048886,-0.0312238411207887,-0.608006988950051,-0.871323534335117,1.90647414212633,-0.263358446308683,-0.245006050558058,-0.0301989996087111,5.10208419948896,0.00539657405319161,0.00191670453004,0.00290948489745836
1.6,2.61508135688623,0.022780383765991,2.74336386920396,-0.183602418424944,-0.106079688130367,-0.0382948896669184,-0.696630904942021,-0.786496767859864,1.79003776705673,0.14435086912871,0.0484097422297296,0.0443126612080408,5.15036536406601,-0.000673128359985182,-0.00255500462102756,-0.00029455349201444
1.61,2.5756582590664,0.0556852740560669,2.69453986081797,-0.0190140117249746,0.0147190880475197,0.00185572107161869,-0.758051700998347,-0.719073707657597,1.94974923755337,-0.0962441236030042,-0.127416315103249,-0.0220029980550966,5.14946472323175,-0.00280034532637795,-0.00427490548457104,0.000972885749428903
1.62,2.57706000078086,0.119178196119576,2.78854393937458,-0.0856174036347876,-0.0254412381609091,0.003262673407387,-0.587963397417819,-0.844380911724442,1.85557602188064,-0.157048493046708,-0.169554606614626,0.0309836925912956,5.06380145865352,0.00209873990277304,-0.000203071190172038,-0.00162297349793034
1.63,2.61131097094731,0.0227379482898619,2.75309255454656,-0.137711943295907,-0.0701191817948137,-0.00559191615048045,-0.679604351607844,-0.814177731084333,1.75824794601435,0.0193862680385957,-0.0373300178764822,-0.0471913540901059,5.14914307001195,0.000295953067508782,-0.00197200246874991,0.00248549051417653
1.64,2.58567354227724,0.0485968348114515,2.73080084426042,-0.0553497713514615,-0.0059653548778236,-0.0209276555330644,-0.698332540633667,-0.75798312854365,1.90403432054867,-0.0435882414471664,-0.0946866808492037,0.0507200941549008,5.09996340941986,-0.00235365041029085,-0.00396618979816268,-0.00140506912086197
1.65,2.5430381167397,0.0403344405728689,2.76703733683286,-0.10356383289038,-0.0542100378083819,-0.00671014755565985,-0.666418425322021,-0.892965940589706,1.77531383193915,-0.170711706643997,-0.194818431412656,-0.0524286741078501,5.11999768970535,0.00381978340286844,0.00089987691810335,0.00278903094664762
1.66,2.60705486210102,0.0317357904216315,2.78508591907698,-0.110434934367283,-0.050676682156168,-0.00657371314612622,-0.64345014733159,-0.76997745796976,1.86959076618523,0.114530938311834,0.0351401243741517,0.0749802995314583,5.03181234097365,-0.003683917046129,-0.00503532190476229,-0.00322774001056244
1.67,2.56764683029113,0.0356648428990947,2.78902919445276,-0.0273145997962516,0.00806624398100474,0.0187035735446771,-0.692528358543711,-0.821494975537904,1.75195413057559,-0.215596496484905,-0.224715909834035,-0.0806920422886852,5.1799476753134,0.0010549868494101,-0.00147386285680652,0.00293164850845422
1.68,2.58056135104944,0.0490238109014584,2.78579994288698,-0.132750174980165,-0.0664878100273193,-0.0204381661134909,-0.571416062961328,-0.881481906455388,1.89833181531834,-0.00254981810703028,-0.0585824424058478,0.0753223714575447,4.9727697463983,0.000588591002056529,-0.00160118167432077,-0.00261029858750564
1.69,2.62205778023315,0.0104731418577529,2.86334918555561,-0.0477544635767321,-0.000431526338409385,0.0443287402466075,-0.660639029784594,-0.752096655834817,1.74184374598214,-0.0170889598389051,-0.0718778400469145,-0.0435437075005773,5.11147551137901,-0.00333358278307027,-0.00480010334432631,-1.556834544137e-05
1.7,2.55917891625425,0.0427221086333672,2.78165263346186,-0.073811508719733,-0.0240987719398019,-0.0199646160919396,-0.609199865566707,-0.905249952259112,1.81376965566952,-0.192956790050821,-0.21024845028751,-0.00348395118179649,5.06151257210789,0.00278130210694937,-7.89491152157944e-05,0.00109711149362053
1.71,2.59002752543685,-0.0158610022944611,2.8408718179947,-0.134795764936389,-0.0724013281994884,-0.000848169458820011,-0.617975918262069,-0.86152922979529,1.78037873827489,0.0619201712031666,-0.0210550588099055,0.0272852187682164,5.01782680858904,-0.000862956396901017,-0.00269095859308071,-0.00126201537049823
1.72,2.56741521718318,-0.0168262819619612,2.82251930282656,-0.0443831575858071,-0.00821616057249806,0.00582527009575399,-0.69199914015135,-0.818355754652462,1.77708113419046,-0.0941307931503534,-0.133173308235852,-0.0322553061607935,5.09539425874081,-0.00131499694420827,-0.00344090666444238,0.00124406454854302
1.73,2.53054972178071,-0.000359100666280754,2.82200977115639,-0.109029218199166,-0.0552063150157238,-0.0216042850544257,-0.612657730667824,-0.940013507567663,1.80004974486986,-0.115212469171097,-0.16284488978257,0.0200101856556803,5.00961587905888,0.00266940469727413,-0.000231129272471356,5.56955493732991e-05
1.74,2.59314525587908,-0.0271409607974548,2.88154300482491,-0.0885561727393851,-0.0386616119601765,0.0259152382341288,-0.618838976874323,-0.812992627025575,1.76984884493551,0.0726657677558573,-0.0175701349889347,0.0189070230952799,5.00536522982881,-0.00350303344311519,-0.00467449239791153,-0.00211342313979701
1.75,2.55785685638805,-0.00472584450371838,2.85160504881741,-0.0338657449875358,-0.00233203547190306,0.0108532510821967,-0.633738163262625,-0.885856952705415,1.73365524358623,-0.195723601614164,-0.20673821540775,-0.0446344389241271,5.08542140495389,0.000991970635122438,-0.0017372551863101,0.00158850628813113
1.76,2.52615069003796,-0.0618699969826332,2.82735429457026,-0.16450427634047,-0.101623996151752,-0.0430990896682993,-0.618733394682779,-0.99846619467291,1.78109545778115,-0.0361531154004665,-0.108603953261174,0.0153766802419633,4.99205237281049,0.00372655758834364,6.34975820300011e-05,0.00129325179093913
1.77,2.58809274218365,-0.0569274037783726,2.91449276807849,-0.0499501482921082,-0.0110410655525365,0.0327692881496942,-0.643019405149588,-0.756548317078583,1.82744047579238,0.122219015178801,-0.00165230857625747,0.0519170184277169,4.96339023083855,-0.00664535222661845,-0.00716148085066616,-0.00396650734501161
1.78,2.50867508999448,-0.0180855823124857,2.87961331624581,-0.0337025194330944,-0.0201704089157277,0.00616510641471624,-0.620151912367987,-0.992374146683453,1.66042573825223,-0.340313405336815,-0.322085146979548,-0.101178021617724,5.08746892600998,0.00523846442478578,0.00161371371132487,0.00449014940592038
1.79,2.55344142916378,-0.0883340481191467,2.86381159737094,-0.193411980556284,-0.12516795978323,-0.0406344105757387,-0.581213563940708,-0.975551511009707,1.81620062075594,0.153428061434089,0.0497282839694571,0.100495907951342,4.91800990283058,0.000188358047613417,-0.00289370083859753,-0.00284789779463594
1.8,2.53556483058328,-0.118004023764061,2.90900034247654,-0.0187974998702772,0.00559467484891712,0.0271163075014978,-0.730967310079896,-0.820995742589737,1.75951349502657,-0.0607522492952319,-0.153526149628288,-0.0740595603249096,5.04533074874812,-0.00317101256252089,-0.00464527804896096,0.00220294246535935
1.81,2.4773561504907,-0.0364651265338263,2.89576468643708,-0.0984259228260905,-0.0672109254118375,-0.0351397234892249,-0.561132933203281,-1.03700879970646,1.7582208368357,-0.19095294842753,-0.215102689996134,0.0412978290816898,4.93444488369166,0.00443645023650755,0.00112940829848705,-0.000309488473104474
1.82,2.56280122510752,-0.126594685222832,2.93698056258813,-0.136076703669588,-0.0785684973069903,0.0181631608070977,-0.626836468103307,-0.909421891198342,1.68794365709469,0.133171668375954,0.0149293896317075,-0.000782287608168652,4.96183572808577,-0.00229304750034526,-0.00431739475518161,-0.000833493820734059
1.83,2.54015120185907,-0.0641242054626684,2.91859610106448,0.00605635664783116,0.024743107125741,0.0231680736345454,-0.619205233289566,-0.860718568501759,1.75195113093563,-0.130186203383099,-0.183551051308035,-0.00137440323320651,5.03164354253641,-0.00253751570108532,-0.00440879627452087,-0.00103324250142938
1.84,2.50727167627759,-0.0782547989434418,2.92659341311866,-0.125788419759484,-0.08247363284222,-0.00834743435602407,-0.524884132067551,-1.09164464018929,1.75365034878496,-0.163450396562313,-0.211148437035291,-0.0280133293537665,4.88055037471919,0.00537894881916029,0.00177632848095177,0.00171105602428174
1.85,2.56426322190385,-0.168315878209646,2.96894865217085,-0.12692580028941,-0.0831759038728498,-0.0114025192249497,-0.641934316596622,-0.896206786522684,1.65540431754114,0.16655223283923,0.0400027387998421,0.0408745291545025,4.95208636535425,-0.00352038593857559,-0.00520047941618412,-0.00140271468065293
1.86,2.49334085459935,-0.100895238613542,2.90996675269945,-0.00374063637102279,0.00764330028339691,0.0164626636138703,-0.646086828460035,-0.933822986568059,1.71651850916216,-0.200443968270517,-0.239503920658218,-0.0336435018582781,5.03023209751296,6.80885973205311e-05,-0.00262783551114165,0.000778719346958004
1.87,2.49307221041497,-0.114762737378618,2.9495035077945,-0.148758800758983,-0.10111203262576,-0.0173623700626194,-0.521147888046768,-1.09332280304184,1.75587687969006,-0.0544807403092298,-0.136836502154847,0.015894934994442,4.84400089477755,0.00371273459677299,0.000452293876190625,5.15163312286411e-05
1.88,2.5192443856829,-0.219263676552083,2.96710985441129,-0.113407651036203,-0.0825337345625788,-0.0204982556756195,-0.695520938739612,-0.93814829418691,1.61892731101358,0.0775168339123005,-0.0402098687003713,-0.0182251004471165,4.97680838305886,-0.00164066802840911,-0.00381198295993573,0.00180393325105105
1.89,2.46145091425326,-0.127949145709549,2.92588235441967,-0.0404044709287131,-0.0246335818936875,-0.00820669353189222,-0.624060473300367,-0.975930426386119,1.73432600488021,-0.12206263211204,-0.188959432925562,0.0360268452006249,4.94387733364893,-6.5534484551846e-05,-0.0026242288492635,-0.0013574179435965
1.9,2.51898781000048,-0.11915787789238,3.01465999083107,-0.0889454924986294,-0.0544172621989206,0.040153793792835,-0.499890466905094,-1.02425922816757,1.6884003966172,-0.0308341366455663,-0.120136124701894,-0.00556003175480214,4.8489818931833,6.23107950734323e-06,-0.00202618018987475,-0.0016561263532127
1.91,2.51702243042603,-0.20298263112681,2.97092038630003,-0.0978666163150182,-0.0719194295410986,-0.0193139256208229,-0.615893671115592,-1.03572240293479,1.57102852255863,-0.0672713189794815,-0.132891463052139,-0.0488454146627586,4.97730783490956,0.00170606814449018,-0.00167176894079294,0.0031922902698041
1.92,2.4584133901758,-0.215768435426936,2.91931729394293,-0.121305325051478,-0.0878688636623564,-0.0474361298363174,-0.632107651983992,-1.05570315994399,1.70140897265673,-0.00756916474158131,-0.125511136781259,0.0467191500628622,4.9066485891031,0.00141598073724596,-0.00169658090962508,-3.98497842445254e-06
1.93,2.50775814288038,-0.166867286293101,3.03438457314721,-0.0421175660171153,-0.0292924016990311,0.0468982261997725,-0.557641419210322,-0.931884182584393,1.69514505355407,0.0312602203132891,-0.0839686691037348,0.0248530050993877,4.86226265307735,-0.0038817095294997,-0.00507511994981906,-0.00340288838768267
