time,x,y,z,roll,pitch,yaw,xdot,ydot,zdot,p,q,r,thrust,roll angle,pitch angle,yaw angle
0,5.01841953230695,4.01841953230695,0.0184195323069548,0.0184195323069548,0.0184195323069548,0.0184195323069548,0.0184195323069548,0.0184195323069548,0.0184195323069548,0.0184195323069548,0.0184195323069548,0.0184195323069548,9.30806311135095,-0.00893553962524924,0.00858679813860811,-0.00180501147388605
0.01,3.0193717654818,2.4193717654818,0.0193717654817975,0.0183517613673659,0.0182016055522146,0.0171904827832301,-0.0664061054570008,0.102723196685459,4.45708546819688,-0.35409402003115,0.343576560432579,-0.0285534401885396,5.71107118940014,-0.000266691801394127,2.76724320880702e-05,0.000493290413621637
0.02,3.30375385234435,2.70611381451271,1.81253310905679,-0.142192655167796,0.1410163416004,-0.0104367699467218,-0.0194075557255756,0.0235059673931011,0.860524001182152,-0.0106780363891247,0.008249557768132,0.0122471777238676,7.05304706694022,-0.000639987029688681,0.00226175245298124,-6.52813197719362e-05
0.03,3.32585643219891,2.67829585199855,0.38424330197391,3.13985323270004e-05,0.0120074216998555,0.0115722768133949,-0.330642635903677,-0.318604661381692,2.27729536605983,-0.0242628875253377,0.0966937479970561,0.0038925659367837,6.99383762782293,-0.00486021458509661,0.00403762149056477,-0.000759715752644386
0.04,3.16823634070702,2.50813609441461,1.02448278881976,-0.0252506749859755,0.0281415737008286,-0.0139277407615898,-0.0738043670462881,-0.0363561225652047,2.17073553030654,-0.212633188631348,0.150077650025287,-0.0274681324327073,6.69649646302122,-0.000310918153828639,0.00355129339029732,0.00196066177263695
0.05,3.33492441730978,2.68507126569728,0.963233189484221,-0.0558375419474735,0.0960681931053253,0.023992994729769,-0.0273500297766631,-0.00788004876314258,1.93222453435698,0.00836923532013435,0.170376370014346,0.0684005997454885,6.83790737155594,-0.00500608833798769,-0.000155359599281283,-0.00437261744483985
0.06,3.31318204212821,2.65640297113701,0.860058630529726,0.000928622527266075,0.0715037254713244,0.022961218483207,-0.222712676662944,-0.13499169146117,2.079657128305,-0.211105680423313,0.00208099734030532,-0.0922835638077675,6.81149573805212,-0.00149745780351232,0.00447396615705511,0.00323009235209301
0.07,3.27079293023099,2.64314720381542,0.995591906578145,-0.0525322855291997,0.0408886030466709,0.00192708934415912,-0.127562320488352,0.0295156537581126,2.09178462959765,-0.0400000125791494,0.211782509780786,0.0963255144417542,6.74169135582091,-0.0042706365696609,0.000905295781086035,-0.00465963181852478
0.08,3.27494240230691,2.67591321280829,0.960591557146322,-0.0165298301122614,0.0925757620271902,0.0377605329644483,-0.122240789936122,-0.117007966606028,2.01323469167287,-0.182647100986205,0.0472334116077961,-0.0953242893269492,6.78123335905066,-0.00174278893422822,0.00260328194740701,0.0026850689957238
0.09,3.29335606164806,2.63126065225336,0.956691359003883,-0.0607283670121251,0.0429273861461221,-0.0199162858323379,-0.207436538247782,-0.0437434988452644,2.08756551042657,-0.0662043629344581,0.127524942754007,0.0698190641097106,6.72862944748304,-0.00294294283883506,0.00262072131791262,-0.0023785563858012
0.1,3.20581184441277,2.61117191106464,0.96251477844157,-0.0618652877902115,0.0292990611179992,4.12244472358103e-05,-0.198890646850309,-0.192670573874947,2.00785965918832,-0.155274400249148,0.0877087520917765,-0.0741637359095826,6.77229869766193,0.000258833040782502,0.00398054764366789,0.00351311740050765
0.11,3.23125071140273,2.56999260868481,0.952358874289892,-0.0806693886513132,0.029001040499222,-0.038574465214972,-0.153876514935914,-0.182150308719901,2.08203418438679,-0.011416265698129,0.15742444936926,0.0626758825754793,6.71590127622098,-0.00254058822319416,0.00245653048141812,-0.00112902614833671
0.12,3.28870940691974,2.61331980302406,1.02735554476547,0.0108424945831107,0.0936360088195446,0.0458643299933403,-0.0991030678188161,-0.154914059817068,2.08126143725073,-0.0988519892375092,0.127686504106088,-0.00480477527861087,6.71183316374966,-0.00516561437795176,0.000314651668241209,-0.00199924419097695
0.13,3.26595308733659,2.5785210405227,1.00847200004769,-0.0594721724255178,0.0483463124807083,-0.0178428362650303,-0.274163069606735,-0.0703918033855274,2.06412588013043,-0.232881228614675,0.0163568590481284,-0.0532914671194151,6.68975930533057,0.00129032844154796,0.0046445868679153,0.00334426042415724
0.14,3.22237726140132,2.64500737104309,1.03554149905006,-0.0901476201511791,0.0263111976208325,-0.00418226322428344,-0.165112002419238,-0.144891312505312,2.07574587077801,0.0466267536083597,0.204760668303875,0.0793178413106695,6.66789421369608,-0.00427719475138772,0.00114530307515063,-0.00354486547650451
0.15,3.2443050551448,2.58964307248221,1.03693848747819,0.00206992904083474,0.0832507151032348,0.0194106890718608,-0.16090573633647,-0.234894230909998,2.05952345880118,-0.197534002677385,0.0547660710586892,-0.0816897722619318,6.69503923148335,-0.001969461228316,0.0023262870529761,0.0028938268469288
0.16,3.25277272211456,2.55815372567135,1.04807826035068,-0.0904318351212592,0.0309783637003671,-0.0333701999238252,-0.254848231538324,-0.0843564196816008,2.10529237030895,-0.0976203477030178,0.108133348469395,0.058454118041101,6.62171959587085,-0.000861825483411239,0.00309823587294963,-0.0011952360013003
0.17,3.18594417878805,2.59577560008896,1.05059148030525,-0.0768680238521599,0.0289262522341525,-5.32441634029934e-05,-0.216768302726389,-0.270487106279661,2.03012245571756,-0.0750232695894398,0.114178967751966,-0.0472561451766592,6.66576089648114,-0.00122479756715253,0.00294117992553955,0.00223868998256048
0.18,3.20590920447947,2.52004939727629,1.04182861702762,-0.0644717354269012,0.0340440673552035,-0.0419136422279302,-0.210938331351124,-0.260962840307581,2.08941760875329,-0.0860099402137514,0.11350101579245,0.0268912583044916,6.63001727909338,-0.00143884145363869,0.00275723300034012,0.000700106275037344
0.19,3.25494274791462,2.57136187770733,1.11650477713993,-0.0279801909167252,0.0766644723639835,0.0293159032880663,-0.154075022915296,-0.171604770485771,2.10768549796833,-0.0623617939518187,0.141025117830705,0.0302412006389183,6.59363279202547,-0.0046034360389332,0.000254101837446243,-0.00286111762547716
0.2,3.25009429594864,2.58033940388982,1.11515144918744,-0.0379864369790077,0.0685357194082194,0.00724139211872993,-0.250314859717715,-0.159205155148304,2.07153836576193,-0.207519769646386,0.029066958884855,-0.0617768836826413,6.60598681797525,-0.000578885453472834,0.0031472956428196,0.00253085979238368
0.21,3.19464781456018,2.57206056255207,1.10313288946719,-0.110326688226045,0.0103211613403781,-0.0359029673440365,-0.272478722509274,-0.19968274582405,2.08621291457769,-0.0563684872943428,0.133178910865299,0.0405593237544381,6.57875554522976,-0.000727377622837725,0.0029264771271124,-0.000217198395179018
0.22,3.18727570124712,2.5567621154947,1.12207951730022,-0.0516156393197808,0.0532263441690272,0.00276048122600866,-0.195991068993853,-0.311224240117815,2.08651573022339,-0.0637535076404653,0.12239401585265,-0.0169000480556245,6.56712900461593,-0.00288502820649044,0.00147333349826668,0.000645982704677943
0.23,3.25347549618823,2.54177593198323,1.16691587724282,-0.0232342980786895,0.0812122601057207,0.00744148549666734,-0.202470747227071,-0.182764563972162,2.10789152062628,-0.124414261446788,0.0937517035076472,0.0271625125869639,6.5527834201406,-0.00346228141904561,0.000934602971261769,-0.00169894618886703
0.24,3.22529432323259,2.57233084837477,1.16771010184078,-0.0659327639097875,0.0519880315468685,0.00825568801860878,-0.277895993384605,-0.17706362138573,2.09632995932413,-0.164711987528218,0.0578842277938465,-0.0371465830124284,6.53060432898122,-0.000589436995645946,0.00286543333413444,0.0013294684692674
0.25,3.20641612032143,2.58893479326478,1.18864655584941,-0.0715358020469521,0.0494438655176513,-0.00311434177862068,-0.225270511710962,-0.220696862735252,2.09929813355846,-0.0390267268825259,0.144084564150264,0.0360227253101051,6.51209425372764,-0.0034014853739205,0.00088627586519548,-0.00158799683855478
0.26,3.22405256049805,2.56451445542815,1.201577270954,-0.0243998275279982,0.0815863725056345,0.0190295998784368,-0.231535952992949,-0.237642942777831,2.09506118818525,-0.157380592501128,0.0650271263058836,-0.0277489886475944,6.52282750741952,-0.0025877832893526,0.00131247155898559,0.000350351616649205
0.27,3.22826905578597,2.56422939575601,1.2201672601873,-0.0655380529700874,0.0584981423440831,0.00251122877909976,-0.268790844729648,-0.173300779304901,2.1277556193879,-0.118186761395376,0.0888728295704625,0.0189528670724167,6.46986243932126,-0.00209216701329762,0.00168857547881163,-0.00106423413881979
0.28,3.20231403922207,2.58331202688117,1.23746811737833,-0.0577029369841594,0.0611018083424193,0.014840783447458,-0.25585307095478,-0.23746599165151,2.08373626611865,-0.105751394757131,0.0967470589063987,-0.0167448981560653,6.48629325715713,-0.00253624456874299,0.00126567059819397,4.30060531236341e-05
0.29,3.17114474651929,2.51800923236604,1.20196863660373,-0.0860790816228016,0.0322023651438894,-0.032312066786172,-0.321657692370022,-0.29270544536869,2.08346729558617,-0.150882057145955,0.0551004114486091,-0.0209209387208312,6.48251447204243,0.000474738259337328,0.00321339098458017,0.00249574642537258
0.3,3.18321243479232,2.53501798273797,1.24664205111943,-0.0722864785883697,0.0480621332199513,0.0012730132075005,-0.24104383602124,-0.277810989332439,2.12838842804227,-0.0027195843464458,0.157767265242765,0.0584789880398193,6.43452594339102,-0.0042393346908486,0.00016718979050853,-0.00285862557865534
0.31,3.22774072095099,2.5505794554965,1.28997008444469,0.00114320994194211,0.102819351448533,0.0404416332029581,-0.234958964016581,-0.243658424006489,2.10653340258774,-0.185375217760656,0.0521793150949003,-0.043305184268928,6.47080737568931,-0.00341414871214339,0.000282367146181326,5.1607115335583e-05
0.32,3.21815262785,2.55371331346198,1.28706993195486,-0.0807751357349703,0.0559188567558875,-0.00553822623776656,-0.322905563644202,-0.18202538683093,2.15765380660303,-0.156400320359111,0.0525290143051146,0.0119380063351362,6.38103607627818,-0.00080317759937384,0.00227807166541149,-0.000355159288991115
0.33,3.11343282462829,2.51677551071246,1.26050423024109,-0.129385295155376,-0.00349196339342559,-0.0374518207513913,-0.37212090634069,-0.369951609268544,2.02217517845011,-0.101278815976242,0.0789977510598606,-0.0458745493941224,6.46718984052279,0.0014939329421571,0.00357209882585655,0.00394430851797857
0.34,3.14538567358261,2.48560801957738,1.26507719037214,-0.0668562901921628,0.0468462480123024,-0.0205866257346737,-0.249199496868282,-0.379474560316063,2.17660515174274,0.0259755413923832,0.164532163524471,0.0789377453623959,6.36483629786752,-0.00485274804726077,-0.000307946238016732,-0.00279144583845301
0.35,3.19105354841911,2.47230458334572,1.33287610579685,-0.017267506694311,0.0795297098717189,0.0211902968859082,-0.301751227286993,-0.310145148491895,2.06796842851622,-0.236146244797125,0.0133753468222436,-0.0646205641941262,6.4369555130063,-0.000995234582951645,0.00184922277422589,0.00198707211881509
0.36,3.17913260209485,2.51587304140028,1.31314886045598,-0.111026670952724,0.0336822193730923,-0.0184937299628757,-0.325410693309834,-0.248157649802409,2.16754079443531,-0.067788023616555,0.110650171379264,0.0468134649174042,6.32984490164724,-0.0014358419865664,0.00148367491440635,-0.00137208227114474
0.37,3.14767493473471,2.52321017363325,1.34763503836622,-0.0608554740623355,0.0570071751682293,0.009110460949066,-0.308432924711746,-0.369947854883741,2.06907178334128,-0.100966227321304,0.0794963004329221,-0.0374310455181746,6.38509882540525,-0.00236469660119331,0.00106354603946891,0.0012936322274583
0.38,3.1671770838836,2.47894800968284,1.34054468275149,-0.0646020674895436,0.0555985893320496,-0.0158502451913022,-0.319672592435453,-0.318106045832621,2.13647608996743,-0.129103444487499,0.0739436697657618,0.0271343350876021,6.342129812766,-0.00175205261171059,0.00124502188551296,-0.000586642253726283
0.39,3.19298642362897,2.5346925491341,1.4051307648483,-0.0462913443171832,0.0835511874177023,0.0402582657944405,-0.272323532857336,-0.27288607890889,2.13642213176699,-0.0816112705465635,0.104318839496528,0.0127954167823283,6.32018403591428,-0.00429276803689196,-0.000751414104685856,-0.00257529603770178
0.4,3.19091370569378,2.53167543140743,1.40362520177823,-0.0419609243970394,0.0819886584982193,0.0174825407223879,-0.325924030437917,-0.289735343937079,2.1173928098126,-0.197128658098814,0.016378613865598,-0.0417187224940987,6.33100172014305,-0.0016037343298244,0.00138878159660821,0.0010737354454498
0.41,3.15530574913261,2.51342079527417,1.40230709665411,-0.100365852902161,0.0364211552594397,-0.0112614077580121,-0.354246106968996,-0.308151721708129,2.13072773169304,-0.097846096882812,0.0923122297389124,0.0262984260817344,6.28600717250526,-0.00129683398434277,0.00137296835473204,-0.000754657666768342
0.42,3.11846316558305,2.48092702420441,1.39590231661762,-0.084210865045262,0.0443410620770215,-0.00647593527000085,-0.357964916412455,-0.40194358200753,2.08265369731643,-0.105644125682905,0.0707093787381447,-0.0312374804020911,6.31349127794519,-0.0012687277722017,0.00132140596754139,0.00174494825989993
0.43,3.13829983406258,2.45825524289776,1.40645993057444,-0.0714570171917775,0.052593974412343,-0.0138486759419834,-0.342588305140047,-0.372576736875149,2.13457485745535,-0.0903833260765746,0.0843603872949356,0.0353392672695691,6.27814905675429,-0.00247408222391598,0.000650098035897935,-0.00106727238349214
0.44,3.1449705712759,2.47217520166816,1.44225601524638,-0.0618775844203061,0.0621426817091796,0.0158037266111418,-0.346592315167415,-0.360058624939282,2.11426199237772,-0.138074535796208,0.0603380075238925,-0.0207614424786054,6.27584947169185,-0.00192750342662165,0.000767080449600359,0.000178270408468314
0.45,3.12549909457843,2.46079431048283,1.43260500404482,-0.0950987892751855,0.0401127600986938,-0.0191915737092428,-0.381448575938484,-0.383660018638307,2.11210417984169,-0.126625632579348,0.055999343584236,-0.00558702632584751,6.2580287874464,-0.000552580841907227,0.00166442655172721,0.00113045635526609
0.46,3.11514131512166,2.45597538538187,1.4492963349169,-0.0871466170257157,0.0426461652234251,-0.00781251252738096,-0.364292067462708,-0.409105979825296,2.11606844360406,-0.0682975594453262,0.0937618488347077,0.01821462354247,6.24461527320597,-0.00233604935070986,0.000560786424478446,-0.000535606933067785
0.47,3.13646478145751,2.45696280908359,1.48000533000751,-0.0499420188753428,0.0724865047448395,0.0138821698698433,-0.345361026422859,-0.387621658908288,2.12691889847155,-0.129904726466564,0.0628048316473655,-0.00516369920116794,6.23974458220688,-0.00276014515207512,3.40069995180978e-06,-0.000472334142693756
0.48,3.16455758140822,2.48684152799966,1.51740834089493,-0.0537448546295511,0.0824900210810154,0.0250284491199513,-0.335149448787469,-0.331983359607074,2.15247747253195,-0.129524983644868,0.0597116089908802,0.0141646769612052,6.2036324567422,-0.00310611384606363,-0.000322897463850497,-0.00192208737585854
0.49,3.07787769695636,2.42260342670363,1.46312175247042,-0.13030199214048,0.00540694704548557,-0.0413598331197867,-0.47696573824791,-0.467598455728019,2.05920153304575,-0.207744763871317,-0.0158279093878777,-0.0801311857050173,6.24298705531473,0.00362380582146438,0.00404763412835036,0.00573638749452914
0.5,3.05477515475522,2.40207677030904,1.46960136842159,-0.135337887424121,-0.00211287836022371,-0.0488490454190438,-0.390798598015251,-0.492983870331819,2.15151945594697,0.0856845678433877,0.179464720333048,0.103829509464733,6.17246877820626,-0.00355394952390039,-0.000205726839934508,-0.00261997500186926
0.51,3.13577417822782,2.42916248050496,1.55814662262974,0.0238549762151785,0.119418442417972,0.0600708857651723,-0.317020267638243,-0.429081284567535,2.13664407174365,-0.17506742586788,0.0485510078881357,-0.0379916448707165,6.23682540234393,-0.00496499697355919,-0.00232362023780108,-0.00109768061939474
0.52,3.14753623881359,2.43599583675263,1.55323527121551,-0.0932522181902962,0.0605469450452186,-0.0096008373627411,-0.421438571354363,-0.356778189522585,2.20275066733503,-0.236208746905798,-0.0422446593313496,-0.0144321150280266,6.09868591793989,0.00124862526903055,0.00279777124559318,0.00108521116240492
0.53,3.07935596697608,2.45626135796643,1.57422357250488,-0.134792292929205,0.0066498610911384,-0.00872932450617941,-0.409436913898037,-0.44858048141856,2.04493696427272,0.000427180214486525,0.140578814181001,0.0181981981907814,6.18585048851488,-0.00218688440397001,0.00038301994525491,-0.000477989501690186
0.54,3.10133939253502,2.42501834393898,1.54708033862519,-0.0271850140295493,0.0937623295536784,0.0138879423030342,-0.364133787406225,-0.474446470747443,2.171820916989,-0.128858014468032,0.0579558425267934,-0.00396521110592437,6.15150888834903,-0.00389450125322801,-0.00151991456946632,-0.00051818780011939
0.55,3.09065152687089,2.37925942856164,1.57701661899168,-0.106182627405374,0.0349205988991956,-0.0229239989456303,-0.462143710860483,-0.461387906423334,2.10826088016153,-0.220164750812743,-0.0369456846642844,-0.0268705828069795,6.12514443114179,0.00210195709277021,0.00322278493904917,0.00232198439541086
0.56,3.04498359972505,2.39131771450774,1.5639363601246,-0.144357288666964,-0.00487315609672535,-0.0273396918296014,-0.438248582606485,-0.510863620154144,2.09460348001004,0.02118930415785,0.146996502280461,0.0327077444999896,6.13338253232713,-0.00194278165687891,0.000288916102528489,-0.000277258827085214
0.57,3.08406525867117,2.39175849040012,1.59901431734628,-0.0225544636001661,0.0953841473882662,0.0182447459519105,-0.37809167064743,-0.505006444004238,2.1583953145574,-0.122707578721886,0.0536881059546983,-0.000956645856176202,6.12129436018689,-0.00423329006541742,-0.00181286195516595,-0.000859174934195206
0.58,3.13079384781488,2.41193991871089,1.65775161666588,-0.0582365298482348,0.0814930249697144,0.02418867994727,-0.391499711509447,-0.411975684474112,2.15788410120164,-0.196400874081726,-0.00897896277846402,0.00562582851885736,6.07281734878372,-0.00148441563368523,0.000626052793738285,-0.00147088401730042
0.59,3.0981333969233,2.43612751412787,1.65507808694542,-0.103498315002684,0.0418399734081561,0.0155875097267248,-0.414874949818374,-0.454721045065305,2.10323993201921,-0.0982830222296175,0.0724149168400484,-0.0197711761811226,6.08034280928909,-0.00171382756622867,0.000219017402266941,0.000148819689673263
0.6,3.06225366493138,2.38857281103439,1.62673501651275,-0.0887901460905637,0.0509923743677043,-0.0181567760277746,-0.44530861340498,-0.524155786193979,2.10329168766338,-0.127524781630254,0.0383625479238333,-0.00539036925166189,6.08585807697096,-0.00119605922909489,0.000268141030283093,0.00107183915521402
0.61,3.08264174737021,2.38724198561119,1.66520734859824,-0.0748008680568901,0.063947303657375,0.0134656314910385,-0.411196043780469,-0.482462144839873,2.14103557319047,-0.0856365270035629,0.0615530141745015,0.0363230471126152,6.04909410083115,-0.00321522334405963,-0.000827097240694452,-0.002402522055484
0.62,3.06616679481547,2.3754944935081,1.67068119965615,-0.0796293794436528,0.0516674329447739,0.00808497811695363,-0.455576504188969,-0.520175167566556,2.09318772544246,-0.186876574633677,0.000339237260173139,-0.0554094754042042,6.06850850332778,-0.000270601468746776,0.00106701035754781,0.00219430606915922
0.63,3.03732879300498,2.35072784492445,1.65541588425131,-0.130496875874803,0.0180782363939507,-0.0356439199512072,-0.473579032636931,-0.547149518174833,2.11453232005684,-0.0751090622050186,0.0703122167339079,0.0344256553430477,6.03046370802548,-0.000558699653105598,0.000584443168467677,2.40571711934677e-05
0.64,3.03541252530556,2.34384893697906,1.67943348662568,-0.0810033640900924,0.0522959336572182,0.00556714099359709,-0.457411624386871,-0.565499265203859,2.10790874113563,-0.0833139535238836,0.0521460456884782,-0.00685843098531039,6.03710951292157,-0.00262401032670505,-0.000541915373630459,2.47910605960277e-05
0.65,3.03670028134972,2.32545937660454,1.68997005987359,-0.0881091263076683,0.0422798245975008,-0.0155876975007675,-0.476278748987484,-0.564782170225291,2.10631850019023,-0.169373859919484,0.00724014896125098,-0.00950139177199468,6.0256168020001,-0.000185572249881625,0.000963680815746436,0.00114744615892688
0.66,3.0332767694001,2.33547052354396,1.70662420382885,-0.115851140190633,0.0318054675592162,-0.00781018916929063,-0.465521221924049,-0.561797844045565,2.1135219805789,-0.0649314112122768,0.072044287734845,0.0207882767265649,5.99465023557925,-0.00165587336672448,-0.000215533040559273,-0.000648839859352139
0.67,3.05085292547738,2.34869843847864,1.73586921556765,-0.0596488537504819,0.0728226755630167,0.0180217139178614,-0.441101615403224,-0.553477346483293,2.11503899502763,-0.113322729014806,0.0377370004753994,-0.00502286569021935,6.00854911038468,-0.00320685127809546,-0.00123729005356201,-0.000649520318335903
0.68,3.02256808645998,2.31049728248568,1.72150425080439,-0.110759257560985,0.0286062730689663,-0.023990021268506,-0.509455912271338,-0.601216707562451,2.10035091149174,-0.202068767455317,-0.0265516034984851,-0.0308920659006141,5.98422423920145,0.0016970985115653,0.00204886031616658,0.00256599200739847
0.69,3.02302750051041,2.32568206083962,1.75430909215696,-0.120379978822615,0.0288748084366237,-0.00522392187677127,-0.45861484632973,-0.575674030171591,2.11903065368865,0.0185024381774097,0.123794042727987,0.0598051322012102,5.95027409856167,-0.00366016386786978,-0.00165032342960226,-0.00261224734577839
0.7,3.05685565901314,2.34286183931721,1.78897887599191,-0.0162253201939604,0.103979183774552,0.0435067591180001,-0.435777171542154,-0.561196685937955,2.11279607415654,-0.189129432237495,-0.00808221617462737,-0.0376335212902723,6.01110714759109,-0.00344222325837502,-0.00183196863701255,-0.000291022855653583
0.71,3.04093643100742,2.32215548504905,1.78212948957574,-0.120751794464368,0.0342331985682559,-0.0157492172231964,-0.494105587718756,-0.58330635079093,2.16490000285375,-0.194654079636073,-0.0288785955920823,-0.00423569190657886,5.88888254844678,0.0014198215192162,0.00189420619669343,0.000912024354400652
0.72,3.02384999642111,2.33110683976605,1.82424962434489,-0.113114709825688,0.0356269852382657,0.0117733207276335,-0.463813403998882,-0.581977479365216,2.0629149542633,0.0106580779936173,0.121125642203634,0.0300567602508554,5.94471880112967,-0.00402828552947353,-0.00208372176232166,-0.00200746389147104
0.73,3.02032934423913,2.30347033571024,1.78601857868306,-0.0447082197847044,0.0816456719611567,0.00909544583390684,-0.492987158151105,-0.624463569755575,2.11130422734887,-0.223507805209101,-0.0445697508347033,-0.0438838490364989,5.96585615878634,-0.00113491562979117,-0.00025342669175096,0.00162855500972435
0.74,3.05128495601525,2.32976429201463,1.85594381999181,-0.1014859543853,0.0550632023730272,0.0176629138060439,-0.440619385236452,-0.557048007745206,2.17309136805814,-0.0736055487600197,0.0605755640719384,0.065892106591222,5.84787131349242,-0.00290797211784036,-0.00134261728972809,-0.00398968100116865
0.75,3.03920536940456,2.33086755438042,1.86903657336873,-0.0611286104916791,0.0756982351873299,0.0419409896263082,-0.473195313792079,-0.596558346192566,2.04809118133733,-0.165191935928509,-0.00267081392091773,-0.0707159919225367,5.95125153835681,-0.00219832802046369,-0.00099761175183765,0.00133947076859725
0.76,2.96934546460049,2.25117260729235,1.78503453598779,-0.152223988829606,-0.000739295087036646,-0.0641578482397268,-0.575615822646486,-0.698739129727866,2.1065252996488,-0.179300723098139,-0.0265656688970094,-0.00135879310327096,5.88646737926944,0.00313869929036371,0.00225221956761867,0.00308234611504627
0.77,2.96909478800304,2.2547484571997,1.85385386764071,-0.123287570253991,0.0242787368243962,0.000525403941389829,-0.5123242357397,-0.656193380180519,2.11201257288619,0.0664836838417953,0.123538859990168,0.0652856217414823,5.85536574435894,-0.00472099956761962,-0.00242165698693586,-0.00312967366474643
0.78,2.95275978863239,2.21839763451493,1.83483311970583,-0.0586038701817923,0.0493666701591865,-0.00907249118175572,-0.572072455852317,-0.723434729204508,2.03961926460378,-0.282817370159625,-0.0862565305419729,-0.0955693103835655,5.94493124843377,0.00150022274547592,0.00136500114036109,0.00493902624256003
0.79,2.98766461610111,2.25459429305447,1.87103579399693,-0.14716933744078,0.0180387844051303,-0.0204012700560399,-0.490472071589816,-0.643470450105409,2.17563101772924,0.0134151235785063,0.11178347731799,0.120414599063231,5.78434204046951,-0.00262492473288489,-0.00174188392829608,-0.00475573644070061
0.8,2.99695223795847,2.26841071197285,1.91615865085002,-0.0384398727605584,0.0861708224451796,0.0551485125351455,-0.509316806238457,-0.662394903023359,2.03811509662921,-0.16672400690766,-0.0255580504752399,-0.0949893296558132,5.92354652721717,-0.00297873379761352,-0.00163300980493098,0.00189336246635941
0.81,2.99382942362885,2.25607147782929,1.89279252916672,-0.110563038261751,0.0382443594275131,-0.0288722930104601,-0.512889089007072,-0.675960654841664,2.17010798950697,-0.174120465657513,-0.0130626964935262,0.0495555484539049,5.77970682217595,0.000257998581136154,0.000427352080286523,-0.00100500546942722
0.82,2.99018457576237,2.25954149218806,1.95574491752567,-0.108390600013674,0.0469591988436311,0.0351883236905131,-0.504805952852002,-0.66387434553199,2.04207934819226,-0.0400693129222828,0.0623737463233173,-0.00806967869389508,5.83883307880551,-0.00315705305976237,-0.00200622704870289,-0.00129668530836552
0.83,3.0108510981772,2.27353760855214,1.93779734958616,-0.0388781428027793,0.0942173042332199,0.0280092112996453,-0.483427947681117,-0.653276233441275,2.12538860980395,-0.164944742099791,-0.0153713305874981,-0.000593568258167712,5.84493370292269,-0.00342884266926637,-0.00229577777243648,-0.00128080378706357
0.84,2.9708916547528,2.22830614374415,1.94432964923585,-0.128989716522587,0.0234037269276512,-0.00953750992420281,-0.555144952706749,-0.732020607100255,2.10228580069283,-0.210129220786698,-0.0595170741147694,-0.0333362983125899,5.77149502003382,0.00224154001395835,0.00180345413410889,0.00201198584858264
0.85,2.94400536876363,2.20598369937992,1.94965251516515,-0.144608509592612,0.00794189619237774,-0.016382074783386,-0.556957126233018,-0.722820030894234,2.04802348581231,0.0219465982622742,0.103329080861984,0.0393617638254285,5.80269915299516,-0.00278315721102115,-0.00186509634197976,-0.00110227321923832
0.86,2.95994380597625,2.21486778285955,1.95593782344779,-0.0367533913848275,0.0883985267046429,0.0268348761059455,-0.53725236326741,-0.716127190167825,2.10988297532587,-0.170889932371306,-0.0287929420512573,-0.0145804362158881,5.82492838446305,-0.00305955229848708,-0.0023190981449263,-0.000547850731737098
0.87,2.97152313708453,2.21889378735427,1.99960209523822,-0.109102227920029,0.0428743597983086,0.00890166868366126,-0.523426050542939,-0.724857613886269,2.1287906838195,-0.176121293174016,-0.040606040122608,0.0027276606512757,5.72109646090502,0.00014436878013691,0.000431449257184083,-0.000564822980841831
0.88,2.92393016866969,2.17366556502791,1.97624145528836,-0.151724449020544,-0.00191460884686381,-0.020755398296963,-0.597491860571997,-0.78217484717767,1.99514593627269,-0.0800825287856293,0.0318955538161611,-0.0309005918326374,5.80585059589299,0.00030721316879136,-2.64634018913502e-05,0.0024283021663994
0.89,2.90983928568134,2.15724360925822,1.95062227177407,-0.103204913203209,0.0375526623244664,-0.0229148848364867,-0.589911808204767,-0.785263911618023,2.12045141699306,-0.0639319207764354,0.023818626872973,0.0417913484433855,5.74311167367323,-0.00243302727378039,-0.00178697454474685,-0.000893056408364801
0.9,2.92335112903088,2.16068489562931,2.02261394069563,-0.0850331192004494,0.0457962132273004,0.0161621860375206,-0.565966747252465,-0.775496453025338,2.05130521197602,-0.166923988964773,-0.0373025253104834,-0.0191500996595504,5.76191225865702,-0.000815653596914464,-0.000449379918729199,0.000142114791862706
0.91,2.87215794198218,2.10873984378756,1.95791568559572,-0.175906576346873,-0.0267263280628923,-0.0556285688104159,-0.650447571870846,-0.871761466843509,2.02932981895199,-0.141976607639165,-0.022565906601124,-0.037268406261614,5.76434401341411,0.00354769330915308,0.00160500868643809,0.00438875070384219
0.92,2.91647776361239,2.14931815540731,2.02915093158631,-0.0975114245962881,0.0470778132062309,0.00626968183324072,-0.547949265694298,-0.757483962837245,2.15394954281504,0.0935795665609676,0.113466353378449,0.110902147214099,5.67019886499813,-0.00684297974886083,-0.00483288217674335,-0.00551195133382897
0.93,2.90421467964553,2.1299250514175,2.05309685225036,-0.0405332314117527,0.0582292809220404,0.0246391099707527,-0.601929541092647,-0.842504343905326,1.97971212063901,-0.365611348944595,-0.170300139156908,-0.133733859874492,5.8125430876709,0.00252228702354074,0.0017293986100537,0.00519088589427662
0.94,2.92472590847888,2.14781574154563,2.03775011362782,-0.188064692244038,-0.0148924861011964,-0.0345472439586169,-0.542498739387645,-0.802395009538943,2.16799423711799,0.0452358017566058,0.128894542088347,0.127228464673426,5.60569774349647,-0.00158524364472776,-0.00210110129318864,-0.00439753519750875
0.95,2.90003085938694,2.11776934817261,2.07603984176599,-0.0584873420745002,0.0720168241793782,0.0373762898365393,-0.618405805751295,-0.824204183083322,1.98610024710319,-0.151074588604438,-0.0627642117614268,-0.106225087170146,5.78057802092557,-0.00229678349047674,-0.00178260205397698,0.00329855674432056
0.96,2.9028485136264,2.12716824033262,2.06170259651523,-0.115177848779225,0.02288743120267,-0.0331930464774616,-0.559937718334252,-0.839380548289866,2.14049271157148,-0.154763620651399,-0.0237885524189764,0.0792649179421599,5.62323766819733,8.68623293851881e-05,-0.000114834288342557,-0.00218593607598653
0.97,2.91934977129537,2.12705726203734,2.13044934750543,-0.111504267386244,0.0420192997314618,0.0457420986722936,-0.565021362406706,-0.813341093999112,1.99991755232743,-0.0548157231670809,0.0341817589865883,-0.0339075402200967,5.6918920838015,-0.00258925107054897,-0.00254545205202897,-0.000547232808965894
0.98,2.89474026513632,2.1074705183769,2.06742242082661,-0.0923861285224092,0.0462553031558767,-0.0183673133788848,-0.598336984152574,-0.865846117838431,2.0555104057655,-0.178882736903527,-0.07124281288981,-0.0151757031979406,5.69006052417031,-0.000183936502372952,-0.000399542337031759,0.00160088465284538
0.99,2.8947735821979,2.09934181457551,2.11972183003129,-0.128439605413985,0.0170812282845018,0.00208817140644076,-0.575656825501594,-0.858549514291817,2.06923469960862,-0.0710329599369991,0.0227947899299704,0.042045134782521,5.62222185565549,-0.00133293336847165,-0.00135712257237454,-0.00208872851927819
1,2.88361428615148,2.0826773114614,2.1217281775702,-0.098111770167547,0.042140338663685,0.0135538363951742,-0.609869204148105,-0.873451768235272,2.00767977633753,-0.129021457684196,-0.0274930256880132,-0.0470338012808838,5.6808191805096,-0.00113783727435329,-0.00155123832769428,0.00160208544727003
1.01,2.88367948934579,2.0853603557904,2.12240203858281,-0.11050032303683,0.0345100118922765,-0.0107362199075959,-0.584012629393054,-0.87914901170376,2.07411755335378,-0.110448842780428,-0.0216073964036625,0.0419089727984513,5.61807064465254,-0.00117272535018777,-0.00128483032309089,-0.00146406716537382
1.02,2.85279669184249,2.04350246140465,2.12912677256843,-0.133803613486893,0.00575716665585468,-0.00536643854428593,-0.639986760058832,-0.933278447868978,1.99056562838291,-0.138349600611337,-0.0413089546655536,-0.0492076207334535,5.65261051387771,0.00105286249108134,0.000111659744805938,0.00258330118078322
1.03,2.83772237989599,2.0268560830515,2.11670744232357,-0.13954244803409,0.00337170028607724,-0.034940559231426,-0.642571130768034,-0.930653110088813,2.05020720119166,-0.0429876779588782,0.0223081885539041,0.0424827623931394,5.60970667486084,-0.00114148640890049,-0.00161033108725837,-0.000354736285146969
1.04,2.87869506160786,2.06634231332854,2.19082634001269,-0.0599972550711756,0.0703312090718436,0.0428108538246289,-0.575412301414823,-0.866478516626095,2.05422129277024,-0.0983026958263491,-0.0144128780856084,0.0142698351995976,5.62432378857822,-0.00382021988382872,-0.00355361465315792,-0.00263466555223306
1.05,2.85454982858533,2.0386430426017,2.16716111701686,-0.121635769694011,0.0170118644368269,-0.00843620745636202,-0.618045628909569,-0.975444394750923,2.02118001172956,-0.239231530899347,-0.121848916563408,-0.0664306804844665,5.59475524733057,0.00299809730852925,0.00151127386365658,0.00355319018181771
1.06,2.85257710054376,2.01677820954119,2.1816105203118,-0.16328206111315,-0.012390708202859,-0.0249750011046707,-0.616148454870182,-0.929361118846279,2.02149812050848,0.0484641451804732,0.0924158767550572,0.078198401403505,5.57287969503157,-0.00249456458964679,-0.00271575024046873,-0.00251502482432256
1.07,2.81205844961495,1.98569989143603,2.1584143039432,-0.0812575062887007,0.0412417688566578,0.00217819282875752,-0.685212077416841,-0.985835456377707,1.99664358559425,-0.202393011584824,-0.105448229135504,-0.0789615676477984,5.63991987367626,0.000380466352206701,-0.00070366712803735,0.00366596929218531
1.08,2.81005946191653,1.98408525172206,2.18689798906689,-0.162506493536743,-0.0172417430148639,-0.0426423349826257,-0.629039096497027,-0.999441357125184,2.05722094579958,-0.0683407030965364,-0.00344181106959916,0.0707698418993901,5.52553637345137,0.000638284387238899,-0.000354774041625089,-0.00133394144043195
1.09,2.81582101158664,1.96795474442798,2.20940347056655,-0.115107236077964,0.0190838731683736,0.0134024922246715,-0.664824561585575,-0.975912690149048,1.97635321770504,-0.0613851304311896,-0.00387407907850388,-0.0406428315345891,5.59409271860331,-0.00175019052367506,-0.00220151780892126,0.00131058780260484
1.1,2.81107092923859,1.97794232087341,2.20468586855888,-0.104503527420514,0.0274402099864434,-0.0225106996721183,-0.635932959878738,-1.00296229544098,2.03218871978268,-0.150030957971482,-0.0645001086424374,0.0234585387737313,5.5539170907901,-7.71760280890653e-05,-0.00100889014780726,-2.33960790420387e-05
1.11,2.84217195581467,1.99003682424095,2.258895169233,-0.116110169979684,0.0264415120350441,0.0252063639900027,-0.592104032182018,-0.974767868724781,2.01590693376099,-0.0628982040611476,-0.00183140686051958,0.0148454088901854,5.52481322843735,-0.00193620202098037,-0.00227063704149571,-0.00187115946214625
1.12,2.85262469261568,1.99333846793043,2.26497058789447,-0.0817274806501251,0.0514051502751028,0.0231937429995065,-0.597474311639982,-0.976095487822619,1.99589267720079,-0.138956073886951,-0.05051478489548,-0.0244426756536169,5.55873833255088,-0.00166387524435439,-0.00229565346810767,0.000106067785950319
1.13,2.85096449819218,1.99030881133418,2.2742054454543,-0.110133244046238,0.0352455837419168,0.00934561983367144,-0.581457997213849,-1.00201473652484,2.03215944723197,-0.125597829989063,-0.0478590476238682,0.0202878077545044,5.49662907987966,-0.000711491431365744,-0.00154036316834402,-0.00137596095602507
1.14,2.83077778940539,1.95419076151572,2.28041765072844,-0.123876849968766,0.0169835275550625,0.00898594179927613,-0.624286692786605,-1.02301062682399,1.96096642348546,-0.103295619834181,-0.0370800972518834,-0.0272564654611799,5.53163019751916,-0.000409701328723209,-0.00130483888833892,0.000882029559137938
1.15,2.81965927784509,1.94724125219024,2.27330510978427,-0.109863103512112,0.0271870710616201,-0.00326667386706652,-0.627982947480787,-1.02056657969852,2.01315294345725,-0.0860912664962789,-0.0214234347143894,0.025965023055175,5.50270249706796,-0.00155501772179773,-0.00238893000222331,-0.00104375476957428
1.16,2.78187843030545,1.90815395737486,2.27393728752672,-0.132102555831402,0.00411269811242079,-0.0111453481477978,-0.671526478768617,-1.08786209645339,1.95576689896786,-0.157376859470423,-0.0902276789192174,-0.0394633040785132,5.52062327425842,0.00171608706580763,2.18715657246081e-05,0.00240668918842413
1.17,2.77542006048357,1.89190326357236,2.27470891298735,-0.15072624274771,-0.0135988142040131,-0.0271442931598259,-0.667611594828907,-1.07056512698192,1.99981939770874,-0.0163666458526554,0.0153224501318629,0.0432874389562884,5.47656233071084,-0.00108450107866289,-0.00196395224530788,-0.000755383445213471
1.18,2.80882650357274,1.92692966406863,2.33640382459166,-0.0606495695943928,0.0624081818045818,0.0412018690825452,-0.622916677633956,-1.01191527505494,2.00421406330937,-0.101954159659608,-0.0378261352963833,0.00377078701127896,5.50319923124706,-0.00341770370952026,-0.00403475282008824,-0.00204003028274764
1.19,2.81184991327981,1.9318353146841,2.34288804697084,-0.103330419177814,0.0337048938674018,0.0158042244861763,-0.592815148233049,-1.09199730706383,2.00422888894291,-0.202704311731334,-0.124489658661576,-0.0296651655779024,5.44338838756526,0.00116747387407835,-0.000109127253511828,0.00068760845227111
1.2,2.80793012325001,1.8890093883011,2.34409267816435,-0.153888957878733,-0.0109089890752796,-0.00707512750650001,-0.628141503855791,-1.08293407671587,1.94149648031583,-0.0256550026917977,0.0215636966354805,0.0205717104150184,5.46187388086035,-0.000851976884591711,-0.00204810828501662,-0.000628889389274337
1.21,2.75643992272761,1.84895956818345,2.30072970228195,-0.114767683832118,0.0165126335621076,-0.0154831159163481,-0.710450235053368,-1.12324542476235,1.95861554395329,-0.133131885691243,-0.0830606069891546,-0.0337789951867517,5.4917873389464,0.000363835596198611,-0.00142385856116605,0.00235284723411532
1.22,2.75753000716267,1.86113309762484,2.35059754359239,-0.129506655056256,0.00319486745072563,-0.0104950972581895,-0.64368115305603,-1.11217428991099,2.00040891188381,-0.0597388565293508,-0.0326029500446786,0.0543726773373321,5.41297672716243,-0.00102060668745413,-0.00178364310695672,-0.00205579718376593
1.23,2.77696308665767,1.85916083613388,2.37818834173369,-0.0978626606502399,0.0252564920164803,0.0281814279130581,-0.651381943913608,-1.10326086265907,1.93434886053853,-0.114087513296933,-0.0492783807611637,-0.0379571508585708,5.46276515914434,-0.001127442875796,-0.00240334367441634,0.000503562286895911
1.24,2.75316124076467,1.83842040025366,2.3477467861849,-0.137059641183439,0.00262230682887476,-0.0252358092146827,-0.665594411740876,-1.16753633122207,1.96423826198098,-0.132095415662341,-0.0832022869675865,0.00353344675481132,5.42615601854224,0.00137804238447077,-0.000750119205075056,0.00103853292321924
1.25,2.75888594698074,1.8241988016686,2.38223959535754,-0.130944925919705,0.00208203263464934,0.00396364426869798,-0.656396232337919,-1.12619372913151,1.9561904481455,-0.0190498136777668,-0.010814872926086,0.0260289222541641,5.41296644987574,-0.00190533403059171,-0.00255636440028605,-0.00139428223446809
1.26,2.80523870378748,1.87851421170004,2.44003895945444,-0.0421885636412118,0.0740030010067994,0.0587673858874448,-0.588958273304725,-1.06767505500893,1.98740278201618,-0.116324213685538,-0.0457657017575395,0.0104532748922801,5.43237458779902,-0.00385888249811138,-0.0049152388312148,-0.00315201177709607
1.27,2.76024885441216,1.82706997218155,2.40226047559681,-0.139404704620339,0.0022574077160088,-0.00771673207052042,-0.636547810209644,-1.23955100467383,1.95154489377779,-0.244409132994378,-0.185787097133378,-0.0751546624708457,5.37640294331513,0.00456196840136659,0.00179668338815191,0.00394053436774663
1.28,2.71622520179495,1.73691824857089,2.37696355147803,-0.213344754860824,-0.0802652309980448,-0.0661104362277089,-0.725717710218761,-1.21197216939842,1.88563565668771,0.0733097576370105,0.0629818592430007,0.0566702446370197,5.43521611812471,0.000291619412572338,-0.0016480975669453,0.000441879407732361
1.29,2.65877374469008,1.71601040523313,2.3461120838371,-0.10629942774467,0.00449523868740972,-0.025993605237813,-0.798466238398181,-1.23445679601845,2.00873074951354,-0.110422582486356,-0.0954868948900661,-0.0333251077007334,5.39146505736946,-7.27429010220337e-05,-0.00203320193374097,0.00282447470205915
1.3,2.66952900613624,1.74022939594411,2.44462963711905,-0.14546204328186,-0.0250437139557243,-0.0307727713129322,-0.689618640714005,-1.24584832256642,1.91435702911064,-0.095703476511184,-0.0784943944345728,0.0476124686375956,5.36610229304723,0.00126150410265058,-0.000450356024895378,-0.000790744902435964
1.31,2.70309536342557,1.73138092849485,2.41124172609181,-0.137688281717809,-0.0153671993426524,0.00418408367326542,-0.708186968655202,-1.22327203415284,1.91358443209922,-0.0383139426425386,-0.0199254921498795,-0.0274438101318869,5.38909316733678,-0.000621330204240864,-0.00239314605219421,0.00111491586521766
1.32,2.68122215525184,1.7206721354728,2.41525454047566,-0.125302381462019,-0.00285154973417375,-0.0340234095643423,-0.717874645554131,-1.2633345585525,1.92588028512586,-0.123071573193626,-0.101043676205685,0.00520442145546229,5.3787062363204,0.00107617451837717,-0.00120816602267174,0.001373841611052
1.33,2.74062520507577,1.76714501566478,2.49269421767306,-0.0983055597325726,0.0251424986475651,0.0372029579841659,-0.603778219876306,-1.17838769706378,1.96694065375077,-0.00297105861850608,-0.00665984447489662,0.0615609296736662,5.31354729392292,-0.00369268973273445,-0.00428819692340431,-0.00461250729534231
1.34,2.7527545127969,1.76447485382328,2.50165688426614,-0.0686812838152645,0.0417580522250267,0.0433651222776917,-0.619864546404938,-1.23916433349747,1.87781893687157,-0.214162470054025,-0.143650020945178,-0.0824564708309964,5.38519651048432,0.000472509440746042,-0.00151117374834684,0.00190571824216788
1.35,2.73725477749238,1.72968927042317,2.47078997948148,-0.163119270045637,-0.0201011991678074,-0.0250761707585156,-0.61965658096777,-1.28835285801121,1.94792436163119,-0.0535285419933731,-0.0354934882417107,0.0504918710712704,5.28645552896092,0.000913863046672352,-0.00150417481775513,-0.0011996566606902
1.36,2.72854045484595,1.69881541885172,2.50307572620906,-0.102009624471375,0.0204840024578114,0.0270446332868519,-0.674786667556751,-1.21877509353981,1.8762424341214,-0.0361118945187654,-0.0470975080242746,-0.0189904884319744,5.36094492901093,-0.00245084630924093,-0.00350804961581808,-0.000337360644250466
1.37,2.63494717383362,1.64523059303691,2.43112597974023,-0.159065837062315,-0.0479445053590268,-0.062844176804333,-0.749065711660657,-1.39989421257262,1.86774034533466,-0.225734773549118,-0.175425482233349,-0.0529638754879476,5.36471659623554,0.00610845269899012,0.00171294635243625,0.00548412825926529
1.38,2.70192010265982,1.67202466573179,2.52121199671235,-0.148956967646476,-0.0165404388252183,0.00311287902606304,-0.652006273382899,-1.2185488396705,1.99264177182464,0.192225173546588,0.101199941208549,0.142829676795618,5.22360457843216,-0.00592988681040528,-0.00616224431881566,-0.00685523373960463
1.39,2.69392869716144,1.69037878918042,2.54913679001664,-0.00665768966669772,0.0620267910036951,0.0632318609821522,-0.685031128661003,-1.27702253659149,1.80869610715362,-0.323586379293555,-0.227359558877287,-0.144974427513274,5.45054273387802,0.000793495921681156,-0.00151254805289388,0.00396956714176696
1.4,2.65862172648576,1.64323271073258,2.47197829241264,-0.239201495036254,-0.0882066053375068,-0.0815130829882481,-0.65521214054069,-1.45295016895229,2.02865244873443,-0.0732996488285676,-0.0535329493646222,0.0689657450822854,5.19121178274784,0.00583288154000874,0.000718766490987657,0.000589544927094138
1.41,2.64304523252321,1.54692156224239,2.53550164474922,-0.160365605364755,-0.0333232609581275,-0.0135760854753602,-0.795579847188738,-1.286518983984,1.84013239923145,0.125187696487684,-0.00486690109138818,-0.0197865036456862,5.32178166474967,-0.003261494126889,-0.00344435447185482,0.0015859082879176
1.42,2.63194809541101,1.64324541054054,2.53900631010741,-0.0405945617988061,0.023592207833075,-0.00321636207659279,-0.691603038141706,-1.32073819609071,1.92548181367764,-0.209380438307431,-0.1303965182295,0.0354877975728314,5.30604425458725,-0.000575253526221769,-0.00249038849667764,-0.00146294142770394
1.43,2.70485754670049,1.6655208589682,2.61015556395747,-0.136001893929962,0.0103927586135991,0.0487039085210678,-0.57953623659477,-1.3726492049976,1.92804980814228,-0.0687556403607107,-0.0654780492517188,0.00228480045132143,5.17764302957611,0.000335408899946097,-0.00250892795850045,-0.0023959556755106
1.44,2.70437249588197,1.59938408872366,2.57171419876694,-0.113887950344744,0.00321921250499593,0.0059192735748478,-0.652607131698683,-1.32936602155625,1.76991476279272,-0.0601709666240028,-0.09197199661762,-0.0450032228540635,5.3375037998915,-0.00083023321997424,-0.00200888810212316,0.00186846324496654
1.45,2.68427336081042,1.61815444918732,2.55008330768271,-0.102265287335419,0.000691302593930521,-0.00339186326732603,-0.640078801063617,-1.36770834339516,1.93666099527948,-0.100612679162211,-0.0647210478946782,0.0529481679843839,5.21649450019981,-0.000341680072135257,-0.00279019484601176,-0.00232066768482681
1.46,2.66298472639667,1.57360005841256,2.60161377814161,-0.136783084747312,-0.00738796693221703,0.0153920939879011,-0.673173487519501,-1.41034475891311,1.80034554864969,-0.0960660529071917,-0.115131218883933,-0.0522152444058369,5.27084349777688,0.00149864037825179,-0.00136557125798823,0.00174463100753495
1.47,2.67257256757216,1.57638080225077,2.57757103675288,-0.114402815058427,-0.00688716803905053,-0.00481957241266351,-0.645345168859826,-1.35524219305348,1.88654721813764,-0.00390376407130091,-0.0378999976360369,0.0530900256818095,5.22482151247269,-0.0021848261790067,-0.00337835667604108,-0.00225979918213668
1.48,2.62358823563619,1.53185793056771,2.58044356359255,-0.124184999760413,-0.023544095506664,-0.00761893297698724,-0.721146362842604,-1.46748370972115,1.79268713750404,-0.192030229059477,-0.159936691004548,-0.0722295238851121,5.28005944187053,0.00372698106676177,-0.000178739489655275,0.00377765886468456
1.49,2.64568858689664,1.53787160381973,2.59685688336315,-0.154847380943504,-0.0289531302917228,-0.0169346408323525,-0.657699330837112,-1.39545424703681,1.90214166196477,0.0836447006944323,0.00839701175590123,0.0951015394942046,5.17364560154823,-0.00226525398115214,-0.003956962043463,-0.00369070362193076
1.5,2.65278462408007,1.5437385007646,2.64075359902897,-0.0492176316363332,0.0324597583568646,0.0506891589169056,-0.674456843083399,-1.37842480367394,1.80010504257375,-0.163235943194595,-0.148959371726657,-0.0699171385410823,5.28805649953387,-0.000907034555671086,-0.00286133506337971,0.000961689451459412
1.51,2.6272878963651,1.52631007025235,2.60495348618699,-0.166460855006025,-0.0455331955242963,-0.0352544479492974,-0.64069522174929,-1.52855576837376,1.88881641681683,-0.122626364681887,-0.115876598128637,0.016968776584683,5.14999344426935,0.0039574829766002,-9.2221412945245e-05,0.000856007359460235
1.52,2.64556732056907,1.46978597590572,2.6467326919693,-0.142102374628059,-0.0240581545249922,0.00603746954250671,-0.698953615956997,-1.39429013663557,1.78723572559197,0.0843939242568554,-0.00838103708444389,0.0210865535516523,5.22448532152331,-0.00273118163398933,-0.00406707980217992,-0.00127294532408007
1.53,2.64655035222491,1.54057872244936,2.65567920557448,-0.0322115261413308,0.0445435241296381,0.041474042415663,-0.636045490721025,-1.4001832890096,1.86998201396046,-0.164497877427338,-0.139644882418036,-0.00196650188117451,5.2237110451537,-0.00166387971121924,-0.00381749300633018,-0.00179983603782108
1.54,2.63169506864859,1.49479210767473,2.66670609185724,-0.162782792386321,-0.0383626867410649,-0.00412506866279054,-0.615629353182271,-1.57105509382803,1.84219635196248,-0.147280676379824,-0.156295118487585,-0.0383053102444583,5.126026429944,0.00461449775302959,0.000629436831985548,0.00200308870521388
1.55,2.65640571621659,1.44021538443059,2.67348955855461,-0.140515446091934,-0.0310966740429703,-0.00452278159777415,-0.6749670194021,-1.40560833895358,1.77745584448936,0.119986514821977,0.0301850752701939,0.0559042849420037,5.19392279359468,-0.00364567167181086,-0.00486056276725025,-0.00241411099871469
1.56,2.58101841415188,1.4466168183437,2.62792782165845,-0.0728794442367623,0.0033148737694384,0.00103173275275834,-0.729479538015422,-1.52606934365323,1.79540198888319,-0.247624562287375,-0.219061751973226,-0.0721887424467296,5.23797357046083,0.00304142776067552,-0.000734730645302109,0.00336898573198223
1.57,2.61044711488197,1.44838699382949,2.69014893031264,-0.176396732786353,-0.0527720536488099,-0.014466895205917,-0.616050415989803,-1.53028812073674,1.87252151062894,0.0581529806870328,-0.0157318763836658,0.0893135900391722,5.07490001543511,-7.25978633456075e-05,-0.00265786744858265,-0.00355068830152678
1.58,2.65989327286941,1.44660086983228,2.73450232308342,-0.0391768349758679,0.04382333411809,0.0717734615316682,-0.655401984531684,-1.38907347097941,1.76162505848064,-0.0529875195832981,-0.0860661538796397,-0.0469283172547057,5.23135677221018,-0.00391371386763402,-0.00563707196701617,-0.00110232206933914
1.59,2.58822163305082,1.43932188746887,2.66795979768345,-0.133103703182507,-0.0312111369153874,-0.0304213777603016,-0.629980879106212,-1.64178843922499,1.84511187180702,-0.248396500475058,-0.240235419772686,-0.0335500717359363,5.10180659352028,0.00619657115080058,0.00165622478310128,0.00302497801728736
1.6,2.5895618250321,1.32732761932832,2.6942545835345,-0.218510883671599,-0.104456466184203,-0.0423364772884769,-0.716403726380126,-1.55257822805919,1.71223388826309,0.151395294867309,0.0381100657648444,0.0469085944495322,5.19447869179341,0.000119485032986539,-0.00264049958177352,-0.000230531315076285
1.61,2.55204871543615,1.35405422463546,2.65775539467469,-0.0571291427072933,0.0113147287356452,0.00335184551038734,-0.769681878108767,-1.50440208860646,1.8956150336702,-0.0884212532287116,-0.131885413044215,-0.0204646370607174,5.14464740459607,-0.00170171450458557,-0.00413340556944225,0.000812284349106917
1.62,2.56084647826746,1.39875883347615,2.77963579500467,-0.1232140847028,-0.0275725388062897,0.00275475729459609,-0.609666133025933,-1.62075760137309,1.78147874051545,-0.136600960619086,-0.165037616064342,0.0277187992000238,5.06865959813672,0.00280721636142678,-0.000399077003177055,-0.00145128668255665
1.63,2.58572372092173,1.31003214431485,2.70066172683433,-0.170207636370643,-0.0680469859064587,-0.00844412236705705,-0.699394236259086,-1.59295672779043,1.68530563965076,0.0241206355911085,-0.0457648935495189,-0.0433842982485163,5.1869866344796,0.00119558818086974,-0.00208837337942063,0.00243448141815388
1.64,2.56164224110629,1.32773347802315,2.69231666723981,-0.0941170868518374,-0.00978334266298553,-0.0198715382886615,-0.711186745726345,-1.55384309485576,1.85121426384369,-0.0305049575065015,-0.100161397433668,0.0498063195071859,5.09935737808054,-0.00125163869497384,-0.00380287809339056,-0.00142720452108997
1.65,2.52372034795319,1.30485494818432,2.74659467538677,-0.138975629846206,-0.0558001479713301,-0.00787668215899293,-0.687312488122312,-1.67843093110112,1.69911697826933,-0.148999349100264,-0.189785706312206,-0.0527401912331868,5.13660917078264,0.0045241482188314,0.000614611832530039,0.00285327283369679
1.66,2.58171813778319,1.29962055598692,2.73864878329507,-0.142296032059482,-0.0492489602309062,-0.00854546996241238,-0.661146812155291,-1.56516769432358,1.8049387644013,0.120297867933578,0.0231913545418931,0.0765162781068746,5.05727667073745,-0.00268053469989389,-0.004958325772274,-0.00321796139435104
1.67,2.54506093928518,1.29254820563628,2.75583413373529,-0.0654936382083474,0.00418278168518061,0.0198563986840558,-0.706628328905167,-1.62246659091639,1.6911174394871,-0.196939293761801,-0.223197454455557,-0.0802971197699545,5.17720445454982,0.00211722809994599,-0.00146641514024801,0.00284374698319587
1.68,2.55935740591414,1.29805731415247,2.75524130380931,-0.165558589749414,-0.0669941720460429,-0.0224565949571156,-0.593675903762077,-1.68036799012433,1.82392149735511,0.0183083776929555,-0.0590792574984525,0.0736204983329072,4.99914769564807,0.00133365640924299,-0.00179361033489544,-0.00244006524718121
1.69,2.5955299776507,1.25879226571451,2.80979747968821,-0.0796365812640294,0.000206201321505207,0.0433592159444526,-0.67587621988093,-1.55661555301882,1.67946837536669,-0.00835772184296735,-0.0805322989864498,-0.0397572936344208,5.13095144791239,-0.0022343149121658,-0.00469803112480806,-0.000166507951145139
1.7,2.53796954035207,1.2785395458766,2.753754261956,-0.110283498364052,-0.0283746383627927,-0.0189246492351561,-0.626756169309109,-1.71764553393946,1.75868416717289,-0.169500337632136,-0.207461723970438,-0.00651369259419527,5.06003216248456,0.00376231049695048,-0.000172536113817363,0.00118218534686425
1.71,2.565423069185,1.21616492647145,2.79785578198246,-0.165393765635604,-0.0714692521020816,-0.0041870693179066,-0.639014100953105,-1.66774166384065,1.70094324708508,0.0805529562449696,-0.0255038145360099,0.0292700893606943,5.0573667503593,-2.70545579082055e-05,-0.00282395505817318,-0.00120485008140154
1.72,2.54169068046839,1.21141664251863,2.77496931171975,-0.0768294888182188,-0.00978061456402968,0.00669857165410568,-0.704991438161622,-1.63923750750164,1.72389242617334,-0.0804423357289352,-0.139614668632488,-0.0308529624760751,5.10142486580555,-0.000150696856021495,-0.00334503910231369,0.00111973854546671
1.73,2.51022192892173,1.21368921896438,2.79647032719879,-0.143279229426769,-0.0584057951337384,-0.0222722536656911,-0.63114937163849,-1.76009914604021,1.73157719250525,-0.0880348795079835,-0.160357038376917,0.0175419568768634,5.02531466157364,0.00358515582055071,-0.000370412444273229,0.000198150794310479
1.74,2.56783273559165,1.18646728627121,2.8311258242714,-0.117352403026436,-0.0376246010458453,0.023442794185168,-0.637480080248288,-1.63149190796054,1.70144024304241,0.0900579981331666,-0.0240327952603315,0.0221191580559414,5.03446529360849,-0.00255546058525583,-0.00468325304071933,-0.00216163234949204
1.75,2.53391076702277,1.20124254602112,2.81407373840172,-0.0663700002029251,-0.00499554905643575,0.0125028457533897,-0.648245016200792,-1.71594304129269,1.679512828291,-0.176279128598036,-0.208338364746173,-0.0454600207828062,5.08349250723631,0.00214143782342521,-0.00171927535333402,0.00153400066472547
1.76,2.50323235958769,1.13538567043778,2.79001217591933,-0.196107997012416,-0.103072759126792,-0.0455720192559742,-0.638442958179003,-1.82736300113433,1.70582468447827,-0.00866958725961331,-0.108948953355748,0.014398515216662,5.03302000372117,0.00463884457844146,-0.000159534449629021,0.00145422535220978
1.77,2.56173180687291,1.13773395714708,2.85766933724259,-0.078304049387878,-0.011079715616716,0.0313464701719491,-0.656605150374247,-1.59095369494546,1.76974460509358,0.140877769675296,-0.0115550159428311,0.0555267475273496,4.98077474249532,-0.00556957938169599,-0.00695201538434202,-0.00409394796786033
1.78,2.48892647334105,1.16170706340319,2.85622666896493,-0.0653126211391443,-0.024006313734818,0.00839886678955636,-0.636838375301828,-1.82994183707633,1.60219752787678,-0.314339506950424,-0.315209379370435,-0.103673214133957,5.08144251360084,0.00631054451560155,0.00141725592913683,0.00449321657420752
1.79,2.52839066134121,1.09142231249314,2.81561894309493,-0.222054127238465,-0.123989523159955,-0.0452170346708401,-0.601763116710145,-1.81406623003716,1.73839964046479,0.178417086088529,0.0417442777668184,0.100767948260153,4.97320918943975,0.00116798780815778,-0.00301608844529934,-0.0026481225632126
1.8,2.50870045708453,1.05676668448592,2.84908537983906,-0.0478462935046974,0.00362619374531519,0.0279334931923031,-0.740434173859113,-1.66806238394788,1.70220316182152,-0.0379361933646484,-0.159510018137549,-0.0696151903822781,5.05831028968515,-0.00199230317496707,-0.00447143859725364,0.00193422836713234
1.81,2.46069744388846,1.11969253677445,2.87681463349905,-0.127773093319184,-0.0710153364239613,-0.0343382982876743,-0.580140632749866,-1.8845523824048,1.70193325087927,-0.159835272631141,-0.20993748063673,0.0357981166079746,4.93812669936761,0.00542013527171728,0.000923320426910785,-9.05035370101359e-05
1.82,2.53609867367022,1.03391918915181,2.88179200639097,-0.162111511924142,-0.0764629353380277,0.0136988872562424,-0.64603320620953,-1.75445372862807,1.60690650561108,0.156219102718418,0.00614313341909941,0.00407987419153961,5.01468897910828,-0.00123626832657701,-0.0043526593425001,-0.000860605016145194
1.83,2.5150793679843,1.08911885605583,2.86929128278759,-0.0230003704778347,0.0208026933846483,0.0259045223251866,-0.629052320112779,-1.71942074780741,1.70745963433283,-0.102991950911871,-0.186019360295813,-0.00172783235925218,5.01942158536688,-0.00133807758304264,-0.00421149134220684,-0.00117256075540528
1.84,2.48722063547764,1.06200660482238,2.89859212902632,-0.153086082412543,-0.0838601563102768,-0.00963964675032902,-0.545827479814798,-1.94608300187241,1.67670492318414,-0.130265329020647,-0.204899443427514,-0.0307629297191148,4.91457165505414,0.00633905450726046,0.0014326388117853,0.00190058784683911
1.85,2.53618729090905,0.973222789954313,2.89876865138374,-0.151752745471338,-0.0813571396144854,-0.0148725482188398,-0.656624790241,-1.75436166315507,1.59672032038386,0.190181357828943,0.0254132013686087,0.0451234184520069,4.99626662627481,-0.00238318693897987,-0.00507978376270194,-0.00144876841003045
1.86,2.4707988485713,1.02909352094022,2.87319602601166,-0.0321649112470436,0.00193343927738612,0.0191434343167723,-0.65586418401328,-1.80095134430198,1.66332544672913,-0.168563380991608,-0.235959850967577,-0.0343884966794009,5.01912897437957,0.00125103184710204,-0.0025289257205787,0.000672350437461641
1.87,2.47263716182795,1.00607692607448,2.91524568097614,-0.173644574904567,-0.100596834967629,-0.019523126677162,-0.543562615072922,-1.95648053989063,1.67956366009112,-0.0208326310497734,-0.134366360335417,0.0138668318328659,4.88783383194989,0.00469343403619947,0.000107700085264952,0.000248491878401514
1.88,2.49024610564555,0.902100003274427,2.89714949895275,-0.137504165886136,-0.0816752751362203,-0.0228584885158311,-0.706690477929417,-1.80770220369912,1.56008155880145,0.103561008256738,-0.0551545187421693,-0.0138185573283114,5.02132808035462,-0.00044248366788169,-0.00365618172927545,0.00170299383861731
1.89,2.44115589289737,0.97921317133267,2.89229027471486,-0.0672182042984347,-0.0313009262973982,-0.00656620788353523,-0.634449021376163,-1.85262545539495,1.68498652129336,-0.0865075275781422,-0.184463425831387,0.034116746626278,4.93682526071457,0.00108873759890168,-0.00253850622386346,-0.00135119978707022
1.9,2.49768923239891,0.982040558940723,2.97784800822055,-0.111873250359046,-0.0527242128329684,0.038245708361793,-0.522921140390185,-1.89364092812154,1.61071430835368,0.00308004697516025,-0.11797421640172,-0.00519365659280985,4.8836475971685,0.00103087854547729,-0.00228935301402293,-0.00159056343844225
1.91,2.48785350253756,0.898255629831399,2.90597269157732,-0.121248019520271,-0.0716349418129574,-0.0200060664723612,-0.627174328781698,-1.9142221714946,1.52003581285785,-0.0379048929611389,-0.14475346010031,-0.0472194603500743,5.01228063824581,0.00290917385121113,-0.00159565770101881,0.00314750734452719
1.92,2.4353781090815,0.874401063886267,2.87483915569093,-0.146273383975828,-0.0935538196170886,-0.0484374566617627,-0.643753495951548,-1.93976225425766,1.64673135826153,0.0291562744540735,-0.124435626706051,0.0459945602955891,4.9352404456798,0.00257772859565484,-0.00169219212487065,8.26060169200579e-05
1.93,2.4850015926267,0.91529362488566,2.99074872087325,-0.0640316903041633,-0.028749611098695,0.045770703442196,-0.576246911005715,-1.81238294529732,1.6330302972835,0.0670235479576594,-0.0850883281542828,0.0269258929246316,4.87803971587056,-0.00279567760976777,-0.00512470033373388,-0.003462992101955
1.94,2.49296717561629,0.940555603269798,2.99022305792092,-0.056281600594989,-0.0231873231403837,0.0363114869531623,-0.511808532209543,-1.94981473999352,1.54693690623308,-0.157707663711164,-0.224906200392636,-0.0550328654296865,4.91818538685388,0.00298493325033039,-0.00122290777380698,0.000853108393733221
1.95,2.5092811533476,0.862943868995135,2.94788650935014,-0.155052670953713,-0.0887964154618826,-0.0136497605089552,-0.510930835995093,-1.98038006724202,1.58172586526323,0.0654413970032399,-0.0782683715786452,0.0298261922444299,4.88772400844313,0.00223921310071788,-0.00203415740110063,-0.000790999408266503
