time,x,y,z,roll,pitch,yaw,xdot,ydot,zdot,p,q,r,thrust,roll angle,pitch angle,yaw angle
0,2.01841953230695,4.01841953230695,0.0184195323069548,0.0184195323069548,0.0184195323069548,0.0184195323069548,0.0184195323069548,0.0184195323069548,0.0184195323069548,0.0184195323069548,0.0184195323069548,0.0184195323069548,9.05830483890798,-0.00903851084713647,0.00247871928330725,-0.00185631825251892
0.01,1.2193717654818,2.4193717654818,0.0193717654817975,0.0190963353756678,0.0181884024545312,0.0179220536394475,-0.0617397051471322,0.0982125685179413,4.20491310386542,-0.35829902402131,0.106324823822363,-0.029647026944911,5.81295034255521,5.52880450052819e-05,-0.000246570598527671,0.000468153390470255
0.02,1.30755782533207,2.70407169290959,1.70643918906362,-0.143955295261288,0.044639443017101,-0.0109408482487472,-0.0212050851850332,0.026064760570574,0.96094166087076,0.000637412790542433,-0.00459829815099379,0.0110632923947978,7.08436703874265,-0.000450174277146102,0.00123466035707107,-1.41954664748818e-05
0.03,1.32948533890748,2.67942303052551,0.419685139276518,0.0047695610470458,0.00537442444376626,0.0110706474634341,-0.103378597124828,-0.323728439329247,2.28635432008902,-0.0163891611529988,0.0543884245875234,0.00496413604640303,6.99511362593838,-0.00508060976403119,0.00105574073071912,-0.000789705423888129
0.04,1.27238094229096,2.51151607027476,0.988987540142684,-0.0219479263775219,0.00942249566843188,-0.0128223213213241,-0.0458536303823793,-0.0260237591094097,2.17161639531001,-0.221609809485448,0.0313539927446518,-0.0281262999578229,6.69909689986845,-0.000194191609640596,0.00189449479782386,0.00189631439730442
0.05,1.34970938235132,2.68918829031541,0.958161036503444,-0.0596967603317087,0.0460909657962821,0.0223209524039605,0.022199332006189,-0.00196645943469242,1.93278185208882,0.0132381417554986,0.102331114192202,0.0668433873387522,6.87047594456095,-0.00463688424386888,-0.00163589745717117,-0.00423481937808531
0.06,1.33746802871914,2.6590445706519,0.850606494050284,0.00368519070933232,0.0416648415811699,0.0250498136757944,-0.104602539397339,-0.140723462550532,2.10370152027814,-0.19525728586912,-0.0599322866356247,-0.0893745961976123,6.84581759144836,-0.00180070544230386,0.00224091103315813,0.00301465120493809
0.07,1.32566458159607,2.64227190283819,0.979922421416645,-0.0475049552648262,0.0130094209625616,0.000992277166036962,-0.0467846569832827,0.036445453383388,2.1217527813459,-0.0531004519976996,0.119937639535608,0.0916510419132617,6.73131781566179,-0.00397001348196497,-0.000813621270067711,-0.00442133988012966
0.08,1.31346703920369,2.67878759982983,0.953221939700749,-0.0205502387602311,0.0524881373913969,0.0383468651951357,-0.0418972167659633,-0.106015370984461,2.00111841175741,-0.16847868371117,-0.0258276944543022,-0.0903099003365069,6.83407378693605,-0.00169691985114266,0.000956731295772863,0.00243804353751036
0.09,1.33138073141101,2.6364730974623,0.938127608255238,-0.0561060965500262,0.00943767172720746,-0.0188518337378017,-0.101245153603481,-0.0480510363941775,2.13421533139498,-0.0656413860746397,0.0565706106766194,0.0644664218596308,6.72135092389604,-0.00295098318335156,0.000747655935161229,-0.00219163478968786
0.1,1.2564878528385,2.60993111012662,0.958303775160751,-0.0605001700228658,-0.00358316402586184,-0.00181517467751854,-0.0993422245503824,-0.183689336899153,2.00053852931423,-0.154269692663419,0.00776147712938514,-0.0702754541785156,6.79241922243037,0.000298638614931901,0.00241218884303433,0.00339076055156789
0.11,1.27801953225964,2.57458135777371,0.934791763790315,-0.0809621693402637,-0.00810110853613664,-0.0389157656306138,-0.0510884833772344,-0.179033908082297,2.10360072921099,-0.0109185133489308,0.0885491658958312,0.0599645190195851,6.71364368189905,-0.00237281935977134,0.000772839454266961,-0.00101690643188286
0.12,1.33674939496658,2.61534957015149,1.02509779655243,0.0119575787444666,0.0606930241590626,0.0461033621437221,0.0124596058930045,-0.155959331650935,2.07998268713748,-0.0905310965709828,0.053640345797945,-0.00245058715791672,6.74898680177871,-0.00511540942089291,-0.0015676599376352,-0.00208213458686641
0.13,1.3185751378925,2.57897576300651,0.997063726029502,-0.0560281349603591,0.0126616896994881,-0.0155760049841649,-0.166480023446306,-0.0639151995975615,2.09830641645278,-0.231029534227789,-0.0663112082426449,-0.0551310825773455,6.69877833755498,0.00120460943111962,0.00322236111728578,0.00332358427574449
0.14,1.27498174996603,2.64760838792389,1.02541665152371,-0.0895908809036202,-0.0132359642565841,-0.00750113150831778,-0.0483668514840434,-0.138409134643798,2.08448917083625,0.0427476007342099,0.140089741940387,0.0787048335560768,6.66577283653514,-0.00400507295044689,-0.000504816007339222,-0.0033900071738318
0.15,1.30014764131885,2.59333920852893,1.0252384462294,0.00158992692548651,0.0507142659871642,0.0215496821168466,-0.034421786299719,-0.231764388867102,2.06051754367452,-0.185354057122161,-0.0198455059131414,-0.0783988477773655,6.73685089362727,-0.00205752887183966,0.000590792107868574,0.00267101416969331
0.16,1.31282557899608,2.56050629022205,1.03789621006549,-0.086241300388337,-0.00612371469267067,-0.0332279049333994,-0.136107934292757,-0.0819814581482231,2.14579986010992,-0.102298021120352,0.0293311748495509,0.0535930660015922,6.60805798118212,-0.000794445798614916,0.00169405414100548,-0.000989791696635104
0.17,1.24423253198547,2.5969130722277,1.04625915801423,-0.0778652706677793,-0.0103052728365685,-0.00267842156763051,-0.0867968140666892,-0.261964768040622,2.01941600015861,-0.0707058478093085,0.0479177131491378,-0.0429971204452336,6.68559038026212,-0.00114663943838173,0.00143098576876889,0.00214240980137491
0.18,1.26861206582461,2.52483830875665,1.02528984495945,-0.062977689675881,-0.000679637262356252,-0.0407296655170159,-0.0720575115380973,-0.261378379814262,2.11386994338944,-0.0834142580383074,0.0422837209567566,0.0247912283773571,6.63174942488922,-0.00143523591371324,0.00118801339196202,0.000731107767403158
0.19,1.32148247880499,2.57221014684749,1.11577608750866,-0.0263645715722686,0.0395844061638651,0.028445028037039,-0.0202115757803061,-0.168922555829618,2.11172666088271,-0.0609821067740342,0.0671223023482945,0.0308325884727596,6.61396269988735,-0.00446921507971689,-0.00128100732114872,-0.00282351385971243
0.2,1.31540288503714,2.58236968821902,1.10525068379701,-0.0368904110022072,0.0299134672881835,0.00915257266354443,-0.110203223195771,-0.152709944934442,2.09135904082831,-0.201325435579546,-0.0442782126552522,-0.0610312088388973,6.62744929287785,-0.000634575400923581,0.00173381986286223,0.00243271847302363
0.21,1.26415113480992,2.57561152945521,1.09086735999878,-0.108024460163974,-0.0284902437562399,-0.0372216098156402,-0.124725750870378,-0.195272844631823,2.10883884186118,-0.0592957217708508,0.0642281839565093,0.0383346993960128,6.5701830498909,-0.000640967362181857,0.00151983610528792,-7.2562858427533e-05
0.22,1.26029326815391,2.55957123232222,1.11263287218875,-0.0520649231170144,0.0157778006775135,0.00152103282695255,-0.0443014956262018,-0.305950295865974,2.08432464158243,-0.0589630023012687,0.0530410421387835,-0.0138848070267123,6.58975635477656,-0.00281852281174928,3.58128020899321e-06,0.000566704680891114
0.23,1.32796599576959,2.54508675289923,1.15829747075842,-0.0211306223618071,0.0430689108122819,0.00950608291738541,-0.050133901013118,-0.180863730888409,2.13266937506511,-0.121530822967729,0.0212505455161989,0.0254399385338761,6.5679987198172,-0.00342922299731964,-0.000502595497968667,-0.0016721700080556
0.24,1.301241596511,2.57419178516888,1.16295089704072,-0.0641931948539726,0.0122506853121876,0.00817403844226135,-0.120042283311643,-0.170790457475711,2.11191511518182,-0.162344271358081,-0.0137963649927881,-0.0366680979814676,6.54182345213268,-0.00059273745072318,0.00155370476804015,0.00132578668463836
0.25,1.28602930259803,2.59235757044589,1.17378543803211,-0.070476692306715,0.00955708078201211,-0.00381092072703689,-0.0619942182563755,-0.21467470716763,2.11336198992997,-0.0390914927841419,0.076804844448201,0.0358392823933955,6.52218543118968,-0.00328827266661271,-0.000508492863405749,-0.00153695913724529
0.26,1.30608228158939,2.56841532689736,1.19202292865044,-0.0237340455073841,0.043108379068943,0.0201487087260638,-0.0642263960145093,-0.232987866074806,2.10874585166111,-0.151663583859658,-0.00610533472735299,-0.0266941337068083,6.54864533981768,-0.00258290917683934,-5.51961268825496e-05,0.000296152509453844
0.27,1.31270138448742,2.56760121494553,1.21113476825505,-0.0630587588824226,0.0179937682033085,0.00309330315701509,-0.0991467389181941,-0.168071693583403,2.15461975063856,-0.11780068006018,0.0181913628520182,0.0177073326951771,6.47404157975968,-0.00207339329353612,0.000408211905225774,-0.00100712244656941
0.28,1.28917909044851,2.5864209431785,1.22767603987113,-0.0569719019283275,0.0203885698195426,0.0144862121184304,-0.0803928173213234,-0.230002424227382,2.09118003369359,-0.103901952129736,0.0290538637648232,-0.0156094305921646,6.50650511454461,-0.00246756507505062,-2.67821717511054e-05,3.43452444800671e-05
0.29,1.26096711509131,2.52267235215267,1.18855793823776,-0.0850194256444209,-0.00775494249633638,-0.0318170104084337,-0.140216303851611,-0.287429133582691,2.10867422012571,-0.148018851650353,-0.0136412527041699,-0.0211744946593477,6.48670695960629,0.000442667211728794,0.0020166788494788,0.00249015285290595
0.3,1.27605859520476,2.53868736181375,1.24006079844759,-0.0707896447992986,0.0072876928307853,-4.35345946225331e-05,-0.0566207899643054,-0.273728971944786,2.13944386306366,-0.00354355268011965,0.0924641031127062,0.0582714861212255,6.4406352516082,-0.00413017876238855,-0.00112871968509767,-0.00277133200635008
0.31,1.32226652988666,2.55370867490704,1.28345672078186,0.00162972428395893,0.0630853174768652,0.0422242950505111,-0.0476077345824198,-0.237352322502602,2.11747823411961,-0.179356450205388,-0.0175924344326547,-0.0414455575665394,6.50497826880478,-0.00339975163014545,-0.00100784390128505,-3.16216369733186e-05
0.32,1.31515781018641,2.55791252607704,1.27750015081771,-0.0781822786439167,0.013892186089535,-0.00427494259318273,-0.131449019488294,-0.175081315522904,2.19283722457662,-0.155943859365977,-0.0177527803058465,0.0100721786918167,6.37955385848781,-0.000835899077654588,0.00114454872027034,-0.00029386550878156
0.33,1.21466093562187,2.52026524397114,1.2501355022224,-0.128587518620566,-0.0461072505893958,-0.0392572985473739,-0.174126177208921,-0.361856662506287,2.02795375646662,-0.101968037696765,0.0147722449294689,-0.0446803871675594,6.47424854271825,0.00153515879241312,0.00251315443966706,0.0039632545451656
0.34,1.24890960460954,2.49091722467914,1.25136936935171,-0.0668652972921329,0.00626107841442804,-0.0214967313724758,-0.0429639153736112,-0.376529043333129,2.19613186202626,0.0276400996414857,0.102629363776583,0.0792938275016507,6.36794681604902,-0.00475332864871495,-0.00158481517276275,-0.00274542387413135
0.35,1.29832682548779,2.47472628554327,1.33679969735508,-0.0156379794171862,0.0395567532285739,0.02326415044338,-0.0981858813566804,-0.30593073026033,2.0784944076028,-0.230413313685137,-0.0573871114432564,-0.0636176463122369,6.46035871294793,-0.0010788471127716,0.000760669769031837,0.00190594573430484
0.36,1.28659093815791,2.51912091531889,1.30431148907192,-0.108572940246235,-0.0102506824332549,-0.018728521959803,-0.115848590182551,-0.240774785620178,2.19552566130116,-0.0716247079844151,0.0465964555384302,0.0449679557443352,6.32336045818996,-0.00137026660147473,0.000405983166549698,-0.00126059727544407
0.37,1.25926277561366,2.52734225158731,1.33901709914715,-0.0616221799093168,0.0153675875618924,0.00837975269851304,-0.0932894990061609,-0.361953431722662,2.07167278257213,-0.0967551321185014,0.0154638304985539,-0.0350915280157317,6.40822825617457,-0.00232608284703192,-4.80843662010317e-05,0.00125359840729912
0.38,1.28180719920949,2.4843811909093,1.33017923030605,-0.0625866818647781,0.0135020970142076,-0.0145888519171129,-0.100696669745783,-0.314062214718291,2.16700490673311,-0.127544494412837,0.00802928646068804,0.0262517002608691,6.34511279415895,-0.00178150231598939,0.000200418798141937,-0.000565573191548391
0.39,1.31010136235773,2.538077475813,1.40261495621721,-0.0450026309294203,0.0403326172691359,0.0402418284466898,-0.0504439303340993,-0.265955775150856,2.14561804252458,-0.081282450780206,0.0407274472385919,0.0131965769499705,6.3390961308877,-0.00421814753015164,-0.0018601853287607,-0.00252602334633518
0.4,1.31061488931029,2.53636411955013,1.3922702842538,-0.0412509758883499,0.0393056271561753,0.0190462685385727,-0.0991436024799425,-0.28165481782061,2.14079103084567,-0.193206620902342,-0.0502256110205394,-0.0406874555851472,6.34956058089247,-0.00163109142991447,0.000380289191733474,0.00102423144599494
0.41,1.27903926999848,2.51873492286437,1.39115565440607,-0.0983744020075628,-0.00785234188908342,-0.0109654834817612,-0.122337539141771,-0.301314836484048,2.15512061812898,-0.0989163783922825,0.0292119865432005,0.0251641150533121,6.28632987243347,-0.00129108821583784,0.000409439978427703,-0.00068822443592334
0.42,1.24536981073304,2.48553449425419,1.38588215949328,-0.0839593857744734,0.00109520129962497,-0.00712559355485965,-0.120654279766919,-0.39415360907034,2.0941495619718,-0.104255741287464,0.00909193971301642,-0.0298595928122414,6.32900525396662,-0.0012387525365503,0.000351862409017114,0.00174045139850685
0.43,1.26768690964156,2.46368058965101,1.39975363005336,-0.0704534288730361,0.00955372543135048,-0.0133983856936436,-0.100923382831089,-0.367199425925263,2.16051506375947,-0.0889738178895921,0.0220414822235887,0.0352209381104966,6.28092558325126,-0.00247083452517049,-0.000321806325295351,-0.0010412335149775
0.44,1.27736344697154,2.4764698372797,1.44059219499043,-0.0606185075309415,0.0184576647103637,0.0162664861308348,-0.101892056738695,-0.353268209020807,2.12654746360335,-0.136532928475898,-0.00241848034145228,-0.0202221326678875,6.29018838536725,-0.00193675485908604,-0.000159612296886004,0.00018341623487027
0.45,1.26061201960006,2.46563522815711,1.42376271890238,-0.0939824545043333,-0.00412650527991459,-0.018895767983881,-0.131327787401987,-0.376147006716431,2.13586886615485,-0.126712936794213,-0.00539953746837893,-0.00551790703468265,6.26231113419489,-0.000546863851959446,0.000781470508644956,0.00114503232612408
0.46,1.25389535628369,2.46123463140702,1.44305704602984,-0.0865929034728727,-0.00142091105124588,-0.00818948271994974,-0.109449524924225,-0.402385014301625,2.13209153350568,-0.0673911610146107,0.0337900341410778,0.0184940458498499,6.25187788624472,-0.00231366774250296,-0.000343374602365814,-0.000495352845338137
0.47,1.2782136009507,2.46203552513179,1.47500821579117,-0.0489497408040482,0.0286276058144155,0.0145390829586087,-0.0869642529056948,-0.381096029670035,2.14542806290791,-0.127884638306015,0.00159658373483082,-0.00429829373138362,6.25427150265394,-0.00276794192333164,-0.000892769248467129,-0.000478225886194993
0.48,1.30902991395122,2.49179693024411,1.51322677509424,-0.0523523545259965,0.0377551738635917,0.0262256358941975,-0.0731146659730963,-0.324508060774768,2.17475158823765,-0.129014428702994,-0.0016240501394886,0.0140256227419259,6.21505437174297,-0.00309621539577564,-0.00120791364599747,-0.00189284718656916
0.49,1.22616799289756,2.42783032077832,1.45494293250202,-0.12945524095878,-0.0397196245348657,-0.0411016902667388,-0.208531214790857,-0.459193461403858,2.08085747523957,-0.206724482361003,-0.0769818843976186,-0.0795425513380217,6.24605397403664,0.00356823398932969,0.00335832097188745,0.0057105398586138
0.5,1.20721553414725,2.40798794540676,1.45853462306312,-0.134393568058327,-0.0474739707965204,-0.0506742614952153,-0.115354163455244,-0.487225337190673,2.17182972386852,0.0826415395207092,0.125915903568102,0.103217360307495,6.1665300709071,-0.00346962409874249,-0.00108833502223494,-0.00249389477694399
0.51,1.29117361935516,2.43359880767743,1.56173207149999,0.0234604464335376,0.0768067448081229,0.0611409791820213,-0.0413384511377079,-0.422327210391228,2.14726748479712,-0.169198421630186,-0.0130614691858025,-0.0352042351051537,6.2695482939412,-0.00496509047694583,-0.00321355760798364,-0.00114996394991265
0.52,1.30478832751605,2.44066384157458,1.55461997304866,-0.0903629077937992,0.0141928634376106,-0.00679154118298174,-0.140616068946718,-0.348274033681569,2.24173941086886,-0.236297467165417,-0.104962118216211,-0.0155668657061907,6.09190475751462,0.00113204448944832,0.00211769903069309,0.00106323395076841
0.53,1.24247072732992,2.46053560623478,1.56313549220346,-0.134154685223201,-0.0404757132691643,-0.0100251750042635,-0.126039972181458,-0.438939405759197,2.04930602141824,-0.00382021075288126,0.0863783925822271,0.0176579167437017,6.19497028377746,-0.0020767338731309,-0.000352499901506075,-0.000370811537859043
0.54,1.26571277496674,2.43209362099146,1.53340145585786,-0.0282571579894998,0.0497280755316461,0.0142092730205684,-0.0711146398927887,-0.468108815200754,2.19815118259007,-0.123315996660721,0.00107014807261676,-0.00161689094464504,6.17140773862226,-0.00389475324961281,-0.00234550180446422,-0.000555867926022869
0.55,1.2596960572787,2.38416881674356,1.5838638947049,-0.103315769898991,-0.0105705588484747,-0.0210255327943742,-0.167964693165656,-0.454748901851894,2.13806328052696,-0.219722290531842,-0.0978227182883332,-0.0276644534277982,6.11888928952844,0.00196612906985261,0.0026227786277201,0.00230690547111019
0.56,1.21730025316039,2.39608289667608,1.55537777171684,-0.143530456505651,-0.052283329322007,-0.0288191946502909,-0.139021769102028,-0.50148651623627,2.10346307322632,0.0158173808278456,0.0950650016796744,0.0323318991126581,6.13793756642706,-0.00182681982923229,-0.000398116034545256,-0.00017359633927588
0.57,1.25886329683915,2.39853508341361,1.59257454199813,-0.0240767943959323,0.0512499586409881,0.0185073195690209,-0.0722728520745823,-0.498597913064348,2.18212761321719,-0.116697656464918,-0.0021654003146687,0.00133825232403339,6.13931312854563,-0.0042351616872245,-0.00258505347990818,-0.000889134720942814
0.58,1.30975704699396,2.41679047163617,1.66562012233785,-0.055166466485119,0.035384814302449,0.0266772018185001,-0.0849212801764234,-0.4052074525813,2.1844669075048,-0.19567209723149,-0.0685931963944997,0.00501997386717358,6.07617623461265,-0.00160452698457032,-8.31513226355183e-07,-0.00147414856702195
0.59,1.28053070898801,2.44097793667333,1.64536338998733,-0.102558899532151,-0.00608670104191372,0.0158751414684533,-0.103866012279851,-0.445144819435019,2.11696237898838,-0.102172277615323,0.0183256493607475,-0.0198621499578052,6.0916953813914,-0.00163915074078467,-0.000381491381275436,0.000189848218514019
0.6,1.24813559610688,2.39561436707711,1.6134842770756,-0.0897067679868286,0.00494562758611435,-0.0179343023390184,-0.127384546812561,-0.516206130631359,2.13044428794635,-0.124181814881327,-0.0148862711939323,-0.00448536686790977,6.09519422388582,-0.00120530609651358,-0.000371460216599756,0.00106999280184332
0.61,1.27199832869586,2.39371359811455,1.66576702889651,-0.0728005515061678,0.0179214807554862,0.0141291646727791,-0.0898369788444637,-0.475602941230429,2.1649664181538,-0.0852420199521509,0.00648554784126314,0.0363140122630123,6.05429718375005,-0.00328341150578771,-0.00144727723755742,-0.00236521842371901
0.62,1.25894138035148,2.38124042274343,1.6689902718529,-0.0788479370754022,0.00457707054779521,0.00893264223742496,-0.130214767717332,-0.511150941085567,2.1122247619651,-0.188354731199055,-0.0542133508106624,-0.0545698649047918,6.07882844996881,-0.000259389391090578,0.000549842812242663,0.00217289210711241
0.63,1.23372908811316,2.35768498210134,1.6485094324477,-0.130412891506361,-0.0291008295004574,-0.0353811066613053,-0.141680557868824,-0.538980600643067,2.1407851248769,-0.0749632374412252,0.0195648899181367,0.0339662139110393,6.02934314454069,-0.000563182565189172,1.14774175948197e-05,6.5560622062019e-05
0.64,1.23588442546741,2.35031475315965,1.6781474099016,-0.0803093451654129,0.00630403214595613,0.0052375881767933,-0.121669894601496,-0.557640225020252,2.12645132282185,-0.0822067907820535,-0.000926810213136462,-0.00591968191497852,6.04788979755209,-0.00266280361166574,-0.00108431458803469,5.15002861228532e-05
0.65,1.24054779440038,2.33163939902578,1.69232999274903,-0.0870414854465152,-0.00494845860845125,-0.0146152568688388,-0.136240335738595,-0.55681434585063,2.13315411768598,-0.170461303018292,-0.0449667706181014,-0.00887653113948074,6.02604879036537,-0.000207706825078793,0.00048643200408288,0.00112305857938079
0.66,1.24079007976534,2.3419735062724,1.70588855096628,-0.115637218866474,-0.0153820231829964,-0.00754708668072775,-0.120749897950318,-0.553247592854475,2.13085514122026,-0.0652811744652626,0.0222072116633471,0.0202878405708996,5.99913891010418,-0.00165558142714002,-0.000744399762040681,-0.000595737825710264
0.67,1.26206164256894,2.3553991526035,1.73305888692801,-0.0591870445041361,0.0262698109212159,0.0181934005726072,-0.0927937006866763,-0.545423024879442,2.13724653050805,-0.11220180895016,-0.0142726061213359,-0.00381967661171919,6.02115077921327,-0.00323254934942973,-0.00173105899374339,-0.0006391065191099
0.68,1.23744627630661,2.31714454499593,1.72345092524514,-0.109662764196264,-0.0191273542098963,-0.0226757544186052,-0.15519960955074,-0.593052524741307,2.12835308155482,-0.20268817522398,-0.0775223716995842,-0.0306208098347586,5.9822300318544,0.00164547199120352,0.00164923093450636,0.0025319508653533
0.69,1.24258012242837,2.33236163407425,1.75006884391263,-0.119924933358009,-0.0187284506890273,-0.00545033473791488,-0.100621857146408,-0.566822245776376,2.13555505148847,0.0166458110657565,0.0764718069809179,0.0590930535252922,5.95574415503585,-0.00363424476590267,-0.00215506521160138,-0.00252444226796948
0.7,1.27936001488443,2.34987056111767,1.78883437765106,-0.0164363706527192,0.0575562956570452,0.0441413584479436,-0.0745455107571237,-0.55301209732457,2.13633355758944,-0.186386612428193,-0.0597130127266288,-0.0356407630353727,6.02999853393215,-0.00347024654383464,-0.00227586296614856,-0.000310271727327746
0.71,1.26704143921359,2.3290389761149,1.78547565515512,-0.11892836047213,-0.0142496492360282,-0.0135877602601909,-0.125087261234625,-0.574785086334418,2.19684844054161,-0.195780687901241,-0.0786820098914203,-0.0046178500964459,5.88181200636089,0.0013316102950153,0.00152246406192887,0.000874579468129116
0.72,1.25650187226278,2.33738221017398,1.81552502438636,-0.112887189416463,-0.0124341299631176,0.0114895080235382,-0.0951333508131849,-0.57195831166189,2.07412786922772,0.0077751325357695,0.0743677857942702,0.0292832278629746,5.95885192581568,-0.0039680682844352,-0.00250093736819624,-0.00190626321232232
0.73,1.25388124529194,2.31144022207355,1.78292628161944,-0.0453252950582849,0.0345609635220145,0.00963769885743435,-0.116030081476863,-0.616760429778975,2.14463184632863,-0.220032342916755,-0.0932964782773872,-0.0416094123812823,5.97446575144773,-0.0011844337173799,-0.000615909645691743,0.00157206533262764
0.74,1.28981120236065,2.3367448163367,1.86214330371764,-0.0993304097879652,0.00690083331810551,0.0196020815837756,-0.0593426206859423,-0.548442821737161,2.19559822416829,-0.0754080545363797,0.0134649129240444,0.0647194479112464,5.84702995437237,-0.00298403806047355,-0.00176157500312743,-0.00395849464892756
0.75,1.282578380061,2.33769528221001,1.86203371241987,-0.0613632492923926,0.0278623008651749,0.0423215014376398,-0.0914742322539054,-0.586884866057832,2.06392373914577,-0.166515672547488,-0.0518162852359927,-0.0699628018038743,5.97224319361314,-0.00215187328160086,-0.00128595708449095,0.00136421848724198
0.76,1.21508052361921,2.25943447323368,1.78045404668921,-0.151929054236523,-0.0496607893475633,-0.0631706310454139,-0.182829091693297,-0.690342856552902,2.14594922995484,-0.178227770197535,-0.0708583784249062,-0.000797113691904487,5.87744420050419,0.00306905844890405,0.0019697134202787,0.0030351325138539
0.77,1.22122933309056,2.26207533841207,1.85467323252957,-0.122194655174368,-0.0229867782313001,0.000140397643155034,-0.117190179266109,-0.646072678924289,2.12775743549011,0.0642742038791602,0.0795552824290721,0.0643278419362946,5.86175097873627,-0.00474280431407811,-0.00279799319031654,-0.0030222917587854
0.78,1.20786826859745,2.22580965656643,1.84093167472014,-0.0590920781155487,0.00198652347113962,-0.00887122263724664,-0.17271371657221,-0.714862700956187,2.068146217827,-0.282335762680165,-0.134075275831539,-0.0931350792784449,5.94849041096451,0.00149028884188564,0.0011943008583727,0.00486902892571003
0.79,1.24618239723095,2.26208454762598,1.87807451981601,-0.146018978398404,-0.0310777634234787,-0.0188535339628417,-0.0843896918962878,-0.634526408308261,2.19759292061208,0.0122540494739841,0.0714540748727137,0.11893164190983,5.77807107062044,-0.00268534060078367,-0.00210586005582721,-0.0047194760858091
0.8,1.26050696401121,2.27553177909835,1.9161855150357,-0.0386147160623972,0.0396859953428569,0.0549394072620961,-0.104325074620514,-0.652197015341129,2.0537313950942,-0.166763342669383,-0.0731543472229005,-0.0940794018359596,5.94659043724863,-0.0029793927578,-0.0018594483420966,0.00194022376653566
0.81,1.25993625584141,2.2644034549806,1.89582372465387,-0.109640880714731,-0.0113735309593913,-0.0271447516788347,-0.0976646037425719,-0.667454450845876,2.21008057442147,-0.175081834253979,-0.0556698354160268,0.0506059373423059,5.7677709848655,0.000198053724182465,0.000211624223247865,-0.0010847016910964
0.82,1.26319950959054,2.26687752909716,1.95542729774452,-0.108298398981181,-0.000968799798513754,0.0360458633852924,-0.0910634121259208,-0.65293597369068,2.05047877329832,-0.0410722469489646,0.0202395395648584,-0.00970171510004311,5.85495269567382,-0.00317017519170945,-0.00226991405509232,-0.00120583723345198
0.83,1.28521622302345,2.28230435749723,1.93405476665227,-0.038708978863506,0.0462589904480183,0.0282361138581223,-0.0619310148239339,-0.645092762408614,2.16033254685885,-0.164908706286684,-0.0593352735463988,0.00145503194963679,5.8523694694822,-0.00345010784775664,-0.00249233552061501,-0.0012997674299216
0.84,1.25092400920372,2.23625957907022,1.95099649713494,-0.128325929639567,-0.0255868205111483,-0.00736017587358762,-0.126944041919053,-0.722780279605743,2.12733363811161,-0.210510588400792,-0.101257745746721,-0.0336754969122153,5.76848389768812,0.00216674156547265,0.00165116468158193,0.00196527941021526
0.85,1.23009365164973,2.21374680300066,1.94195634296706,-0.144017429007465,-0.040397018955751,-0.0164548430736018,-0.127251700686698,-0.712554815988461,2.06811728385253,0.018901230356907,0.0635429568787207,0.0384104167031862,5.80982364917979,-0.00276888425052252,-0.00204767307006925,-0.00101866767288774
0.86,1.2479208949571,2.22343020357891,1.96069431106139,-0.0375587658037603,0.0405903196529614,0.0267944988203268,-0.100584960900183,-0.707186623994151,2.14064359087772,-0.169155945875592,-0.069866122943422,-0.0126563665365549,5.83149432155161,-0.0030912324405313,-0.00247005122257899,-0.000563511925564164
0.87,1.26470292815935,2.22667672500277,2.01204983325501,-0.107726956003098,-0.00569223237848379,0.0111513464918215,-0.0817153337937347,-0.715409442840518,2.15290794908833,-0.177021458948973,-0.0808013297581511,0.00246642572833835,5.71721581631659,4.18528540503182e-05,0.000278940043772822,-0.000606577092876663
0.88,1.22288364177832,2.18152311533995,1.97032874285305,-0.151509060669562,-0.0503720683841187,-0.0204597714502196,-0.154648191102025,-0.772069235919824,2.0136425000649,-0.0838340662939329,-0.00813783750099977,-0.0317311873833827,5.81362484578907,0.000354407779149508,-8.30138825903999e-05,0.0024822206083061
0.89,1.21099500118383,2.16622368539481,1.95127349777986,-0.103987142970319,-0.0111150798571874,-0.0233168183705287,-0.136788318954088,-0.776443271145496,2.15405136974383,-0.0620684962472904,-0.0124483455549977,0.0430340093866779,5.74103892061859,-0.00247646716550563,-0.00190852393536181,-0.000891980981413388
0.9,1.2308661973109,2.16831452848378,2.0386330691157,-0.0838942637526773,-0.00156113856536908,0.0173033258447054,-0.112718252629704,-0.764986527548581,2.0718502735915,-0.167642136852133,-0.0762274203001953,-0.0190096844806073,5.76263947399222,-0.000913870881007898,-0.00055241584943531,0.000132805031272808
0.91,1.18283738037593,2.11752398206822,1.96148308650943,-0.175558282018155,-0.0753321152571975,-0.0550345447274075,-0.189577072735863,-0.862363569773714,2.05358826715218,-0.146045732955086,-0.0608418433917089,-0.0374056316758042,5.76137632201609,0.0035897910691758,0.00162257971251968,0.00438479834349917
0.92,1.23220292367594,2.15790378980247,2.03184374238574,-0.098374048792462,-0.00157839835318141,0.00593754330111445,-0.0822412048681266,-0.747013374592621,2.17817262864897,0.0952578705587657,0.0799740959626856,0.110898109138002,5.67296475554356,-0.00689635358168914,-0.00497367506230496,-0.0054453248542776
0.93,1.22534846712694,2.13765625092787,2.07010345496251,-0.0398248050652687,0.0113205387762711,0.0254087128791712,-0.136477433127284,-0.83290261728255,2.0050561173096,-0.365996124350228,-0.209947913121956,-0.13213766869453,5.813229489927,0.00244157063387383,0.00176421717885711,0.00513411970732158
0.94,1.24828647234762,2.15669372104476,2.04152652259688,-0.186937605877884,-0.0643099927204702,-0.032403390330836,-0.0662605890841056,-0.793182716584946,2.18916132018755,0.0407530425588664,0.0952619818900966,0.126016633264455,5.59990211410091,-0.00159155971899369,-0.00215622554309288,-0.00441591352681256
0.95,1.23036320189352,2.12586227750517,2.07586304081395,-0.0603570883787823,0.0245917665131909,0.0366368575469552,-0.144298231248309,-0.813459612543205,2.007677511487,-0.149188641756628,-0.0993979842474947,-0.10645528385083,5.79503673280888,-0.00229791339932751,-0.00174000088669301,0.00338888122434643
0.96,1.2358315710998,2.13587027685205,2.07544664382474,-0.1132977297871,-0.0258478755071452,-0.0319943740577633,-0.0751522381830586,-0.830382654406335,2.17520133837517,-0.155858160491479,-0.0566950359652908,0.0812627813120834,5.60803122199713,-3.91632310702378e-05,-0.000137742231278197,-0.00229650424314663
0.97,1.25936380193286,2.13562528123708,2.13377148199076,-0.111796672099312,-0.00553096280664884,0.0472368088147022,-0.0832267338666505,-0.801867362223499,2.00757313155162,-0.0584080940155828,-0.00121253421945511,-0.0361700774530542,5.70673032977191,-0.00255894414690192,-0.00251604064428981,-0.000469129738728794
0.98,1.23614610125576,2.11714626683811,2.06878592811815,-0.0931724982663297,-0.00245029006900083,-0.0187127227265134,-0.106778756614403,-0.857875018686958,2.09281646841673,-0.177848274586164,-0.1043277300337,-0.0134076195736327,5.68368021172139,-0.000212867144303902,-0.000309761440653089,0.00157106902601781
0.99,1.24293326042238,2.10808145663347,2.13063055082492,-0.127401058670999,-0.0308916316651761,0.00378150157786018,-0.0802925097084157,-0.847428438924146,2.08506863392831,-0.0719565372392468,-0.0082412221568796,0.0414853275142011,5.62278899943544,-0.00143776079524396,-0.00135882842097068,-0.00210668589081259
1,1.23640749755707,2.09234689582318,2.12283436979937,-0.09821500766925,-0.00526693937014147,0.0137474675740675,-0.111645106508772,-0.863895955479937,2.03214581546902,-0.132434418163664,-0.0618257932511405,-0.0473063528433102,5.68537066973964,-0.00110465152617864,-0.00142598045222464,0.00164170103312994
1.01,1.24024770021381,2.09446620660881,2.13271447275729,-0.111083388477849,-0.0143775307748422,-0.0100147766763886,-0.0786560237327364,-0.869645648875846,2.10101176827962,-0.109435788585181,-0.0510353011777743,0.0428319403754388,5.61149624919806,-0.00123688397219469,-0.0012053882394728,-0.00150666490713343
1.02,1.21545560440166,2.05277682591657,2.13609708110853,-0.133154172212466,-0.0413602360186426,-0.00437135662013785,-0.132159679261692,-0.922192808533767,2.00847948771534,-0.140203086096201,-0.0725109272115109,-0.0500179583636548,5.65472984699257,0.000997121239968213,0.000219349870857105,0.00259993678315084
1.03,1.20439603591199,2.03677418743756,2.12134848103839,-0.139496829887065,-0.0446203853683175,-0.0348709307092535,-0.127063480461883,-0.921036075187246,2.07716464881201,-0.0457144181244881,-0.00766281792336715,0.0429112772001543,5.60536505541985,-0.00113203184660555,-0.00146489874878744,-0.000355375879138986
1.04,1.25094321779477,2.07537147340748,2.20491839651058,-0.0608864862096875,0.0226246221568294,0.0433278044212024,-0.0588010943920607,-0.855124551459579,2.07422328649757,-0.0970129380783604,-0.04295470412816,0.014377075710077,5.6260180805723,-0.00390222328374979,-0.00345542618166387,-0.00261782571415243
1.05,1.23088909019238,2.04828941365378,2.17911294994531,-0.120735544620832,-0.0302708685109117,-0.00725400079894487,-0.0949171581712391,-0.966256562836396,2.04508981307551,-0.242194829645885,-0.152199428165838,-0.0659763599275136,5.58859756427081,0.00296059484912439,0.00169474144916944,0.00350262302838383
1.06,1.23493392086271,2.02608581711974,2.18186031519751,-0.16356167572253,-0.0605478373269683,-0.0238708380155539,-0.0898687096004978,-0.918810020083727,2.03904217404376,0.0463827233261295,0.0653264660007163,0.077163066159812,5.57490025277539,-0.0024977373935078,-0.00255236021540111,-0.00249671734776479
1.07,1.19840058538109,1.99546716734991,2.16707579228453,-0.0821703653184683,-0.00585064817032818,0.00152691813531051,-0.152785856663239,-0.975768345619963,2.02593207562242,-0.201412137080007,-0.133141738660003,-0.0784312137350571,5.63592874996062,0.000336211056854166,-0.000485713515703625,0.00369466193260459
1.08,1.20210835224066,1.99310356254469,2.20603536010275,-0.161111007787341,-0.0646280161058026,-0.0412359631017318,-0.0904896868972613,-0.988998273012226,2.07632663504998,-0.0708615557373035,-0.0291709437490129,0.0714360754390687,5.5149951983593,0.000556767323513488,-0.00019273178466151,-0.00141300215622237
1.09,1.21326242034665,1.97775533391953,2.21447457384051,-0.116147000081384,-0.0278053110933546,0.013776224325562,-0.125838139998487,-0.964200261573594,1.99171179402263,-0.0637154780500651,-0.0314830662477656,-0.0422216653529059,5.59940768189679,-0.00172628002458546,-0.00194751577597732,0.00138929014244135
1.1,1.2122451587285,1.98774839090488,2.21879441080331,-0.104740625675322,-0.0202909774797014,-0.0226459709045122,-0.0894653869222699,-0.993583531357477,2.06118131240257,-0.149447646671004,-0.0883494193662933,0.0252253369687358,5.54187224816073,-0.000148938328595422,-0.000790282150102802,-7.77490440023224e-05
1.11,1.24913612991952,1.99953489571821,2.2728949878619,-0.115605419436763,-0.0199350898621736,0.0269231187250181,-0.0443451885046295,-0.963148849823976,2.02646696918099,-0.0652630426421774,-0.0271968062482041,0.0137694483589043,5.52667283838709,-0.00200484535740583,-0.00207148271301842,-0.00187333490807561
1.12,1.26368045493266,2.00387369692996,2.26940471613436,-0.0823747667966771,0.00425015021083526,0.0233721973972482,-0.045238272493092,-0.967419726763039,2.01969519757801,-0.141384612448169,-0.076367811454527,-0.0243917325567162,5.55721504033788,-0.00165014650732511,-0.00198964349670187,0.000124457059177733
1.13,1.26714047677044,1.99996268929292,2.28468462859414,-0.110515348760187,-0.0122402196141538,0.0105589239208723,-0.0235457422229561,-0.992394430664786,2.05217222107419,-0.125126325455835,-0.0695983920533849,0.0207477124654685,5.49165362845715,-0.000791426037504522,-0.00131031080916529,-0.00142917063543508
1.14,1.25288216750638,1.9642580456627,2.28446368418391,-0.123427810455149,-0.0290099577886198,0.0100628045338434,-0.0640347044327667,-1.01267690554545,1.97895054637409,-0.106179665225968,-0.0616295239239694,-0.028310344264096,5.53234842218802,-0.000439698498771438,-0.00101553424951864,0.000902505807823523
1.15,1.2460126950915,1.95773972264704,2.27979606578662,-0.110428096800925,-0.020075336999434,-0.00301450057524999,-0.0603626311116306,-1.01110986872542,2.03657790327471,-0.0875309435471401,-0.0434762350638974,0.0264722305943127,5.49735187570296,-0.00157068825968481,-0.00206356847229737,-0.00105880259232417
1.16,1.21441905161885,1.91809274117478,2.28668876660508,-0.132506334732251,-0.0422713640123961,-0.0102877845279161,-0.100537606221143,-1.07705616302978,1.9745148292089,-0.15771167305023,-0.110837096147755,-0.039703644030758,5.51429573319736,0.00166231565727815,0.000317922534076088,0.00239217664318713
1.17,1.21271963252705,1.90250065732529,2.28339374137829,-0.15019108429694,-0.0595153098854674,-0.0264164598603729,-0.0906438742677423,-1.0593167548247,2.01755267749858,-0.0189177817630771,-0.00632792861805842,0.0430353707813573,5.47237934974958,-0.00112815490455352,-0.00163638260046692,-0.00076355980991425
1.18,1.25175259005426,1.93741060659594,2.34940479787449,-0.0616432119433051,0.0158852649888712,0.0412533801552796,-0.043568251134637,-1.00075481709279,2.0229424812969,-0.10313060697204,-0.0580875810672904,0.00369646909317644,5.50013434079287,-0.0034556622076453,-0.00367932001964732,-0.00201570809204335
1.19,1.25956442749348,1.9419901829722,2.35969870657464,-0.103469054734898,-0.0123236940326599,0.0169336792057776,-0.00824356494154094,-1.08279317600275,2.02274708114705,-0.204123665911996,-0.143592344414375,-0.0290776663650547,5.43373929071376,0.00111212157849463,0.000211573711959417,0.000627821045282682
1.2,1.26155621283856,1.89915031876003,2.3460020384423,-0.153885380369139,-0.0565789484276005,-0.00548838512505325,-0.0413323400574558,-1.0725389735597,1.95415865427324,-0.0280555542977195,0.00108743190171964,0.0193404135840812,5.46330602080216,-0.000876092119844256,-0.00165999097000095,-0.000630520390883159
1.21,1.21440469688747,1.85975195031773,2.30647903772494,-0.115561244537207,-0.0299167133602166,-0.0159063196800717,-0.115729516244418,-1.11325640713629,1.9840726271958,-0.133971114934965,-0.100517572709948,-0.0337338076671689,5.4832256586279,0.000357487124539972,-0.00100188060465572,0.00238014852562441
1.22,1.22198892976078,1.87108837559771,2.37026907680194,-0.12924069866263,-0.042052929782038,-0.00951928141223288,-0.0453691577851913,-1.10033314765166,2.01464510126818,-0.0603027089886009,-0.0487219697060725,0.0550055227105334,5.40337658718708,-0.00112491681048094,-0.00145889867380106,-0.00211782430444376
1.23,1.24640651558872,1.87035266443075,2.38810608388962,-0.0981828156426566,-0.0196162519045917,0.0289337078413697,-0.0512937435679599,-1.09199821976322,1.94700494986234,-0.117795674749838,-0.0689704824993958,-0.0392007650259826,5.46154082340956,-0.0011292563793931,-0.00194580829689842,0.000542315750660772
1.24,1.22711207702284,1.84929910346799,2.35978513239542,-0.137912896911922,-0.0437475053116163,-0.024820688935763,-0.057933734297112,-1.15835111860272,1.98530682866606,-0.132668717307431,-0.0975428081773584,0.00440043030277286,5.41356510545875,0.00135986263701421,-0.000323042201110542,0.000987627066130842
1.25,1.23922649094191,1.8345745760412,2.39363377049335,-0.130915765445993,-0.0422377937178821,0.00520116850325902,-0.0471905414262168,-1.11319054170342,1.96664328606576,-0.0197519729897953,-0.0263002086635306,0.024996547332381,5.410368098657,-0.00200192553005691,-0.00216921081837644,-0.00139188254308968
1.26,1.29013717771452,1.89023845351709,2.45124019138305,-0.0423902832969754,0.0291085415293533,0.0587030240863382,0.0244858347642813,-1.05739435015055,2.00472531907251,-0.119967357017405,-0.0625128454557989,0.0105783275538315,5.42770393821797,-0.0038942210278452,-0.00443055196353882,-0.00313331210275843
1.27,1.25082050806281,1.83771248591183,2.4172991243296,-0.140666418221333,-0.043205194409811,-0.00644956701687626,-0.0159359679053586,-1.23168959488797,1.97010049104905,-0.245856187316698,-0.198708494133892,-0.0747176927768671,5.36156084274642,0.00457821114655263,0.00225096593425138,0.00387034242262204
1.28,1.21399136219355,1.74690269049817,2.37721708181231,-0.213040741290044,-0.124280954036625,-0.0643903414530456,-0.103497688174985,-1.19887012381706,1.89447938025816,0.0733418205305545,0.0488348082397587,0.0551888915650482,5.43702133946015,0.000214505829997565,-0.00118092409047249,0.000436659892045037
1.29,1.16053319214559,1.72787719878405,2.35778886980798,-0.106467157929302,-0.0402939148419812,-0.0274688305640889,-0.163453023247494,-1.22297890394766,2.03409768140499,-0.113174099843683,-0.108687607251452,-0.0333558148254906,5.37542671981214,-6.8757143260407e-05,-0.00147154222725504,0.00289617849917378
1.3,1.18110264880386,1.74878976122904,2.47705498280303,-0.145995315835853,-0.0693168550991726,-0.0299019569575299,-0.0579667379887565,-1.23351916488877,1.91981269372084,-0.0959719548327449,-0.0878181585266112,0.0491690703033147,5.35006211502252,0.00118846088725003,-3.09019598381308e-05,-0.000899329897300117
1.31,1.21583188979881,1.74303813145192,2.42094023213964,-0.137951749471166,-0.0581699971512882,0.00548888539800731,-0.0727141039813927,-1.20983589900172,1.91886969543649,-0.0409988871819403,-0.0346339157536739,-0.0297056805498181,5.38786749446612,-0.000656695836371255,-0.00184217242700084,0.00116659152775477
1.32,1.19979116132292,1.73223494761966,2.43086158122059,-0.125880021134154,-0.0479192819851794,-0.0346914025951132,-0.0750241733924742,-1.25352623663291,1.94458235561855,-0.12502825952853,-0.110275889483404,0.00634220995626451,5.36105515360545,0.00108122897924682,-0.00064863654276881,0.00135537542615236
1.33,1.2656047885645,1.77764889911036,2.51222193491837,-0.09892504483715,-0.0177500565032257,0.0386848395140412,0.0385778880090919,-1.16491453815119,1.96859553690828,-0.00276802907421261,-0.0155813115213969,0.0612000323623391,5.30874747155037,-0.00382607025188384,-0.00384376253078142,-0.00465444197618596
1.34,1.28186924562042,1.77676741016496,2.51154415825864,-0.0688822731087898,-0.00112724349078592,0.0434755034433987,0.026629765757031,-1.230418266726,1.89213136826988,-0.219261525853876,-0.156688757331199,-0.0832932570056546,5.37524752089533,0.000495151393828047,-0.000888649755436561,0.00194991121900647
1.35,1.27195237666599,1.74063166866268,2.48094928434949,-0.164164241730195,-0.0646824469605099,-0.0235563042883648,0.0347294241556016,-1.2799810481112,1.95805460437773,-0.0534145921265229,-0.0416480573316988,0.0514188608693842,5.27594125085518,0.0008760118024324,-0.000957413193878024,-0.00130849888073407
1.36,1.27030402294928,1.70961681151972,2.50781926653429,-0.102220570276073,-0.0214436336752287,0.0278620549826005,-0.0214308938842179,-1.20551333544233,1.88598054670687,-0.0374887075473332,-0.0557905400685937,-0.0212657907513389,5.3571194107268,-0.00253184712068692,-0.00296231917853548,-0.00026286028392053
1.37,1.18120816027687,1.65720614387708,2.44821506135247,-0.159249169022633,-0.0908481183362041,-0.063384253465082,-0.084368539927477,-1.39117510003579,1.88490367089772,-0.229543512773989,-0.183815891790282,-0.0513572711356076,5.3431409372116,0.00617376091528163,0.00234284588019127,0.00543897305370651
1.38,1.25552960057001,1.68312182298172,2.53326583849151,-0.149858511695081,-0.0593398126002724,0.00546462311174115,0.0134422878467959,-1.20254480139232,1.98864577340562,0.194514202187574,0.0958147678236216,0.141858751130053,5.22403507289333,-0.00610613214090691,-0.00561183613139491,-0.00691590124713654
1.39,1.2528915673367,1.70278719836195,2.56559310449447,-0.00683553449809168,0.0201704717484481,0.0613841017762795,-0.0197510068813723,-1.26691038920459,1.82701571755231,-0.329811968059233,-0.235546924778277,-0.14618852663499,5.43106570353626,0.000822974575285731,-0.000835883362023971,0.00411936092669921
1.4,1.22164760869889,1.65430850755992,2.49256561851699,-0.240020463123445,-0.131195796650414,-0.0790459792868086,0.0267261866625024,-1.44579407395629,2.03189871954761,-0.0731323870946256,-0.0568684936309591,0.0720981065789087,5.17765258353477,0.00581648784731631,0.00132032137915534,0.000332164997302087
1.41,1.21626246472595,1.55674825691472,2.53300727991357,-0.16078340459987,-0.0743358884402212,-0.0117845621626715,-0.119531723500394,-1.26970591126485,1.84788779626494,0.124726845237532,-0.0104239673718551,-0.025234086536844,5.31976700153135,-0.00333760958542556,-0.00279891630177785,0.00175875621861904
1.42,1.20911722034904,1.65435237354563,2.56603662896097,-0.040482042243,-0.0181720633980736,-0.00644135351524473,-0.00779242064794083,-1.30982394176773,1.93883329305522,-0.212954728078877,-0.134057467945702,0.039192570813404,5.27887716810587,-0.000615004544402631,-0.0018066585254414,-0.00148304409823055
1.43,1.2875924596531,1.67667790813678,2.63186241618578,-0.137622929196908,-0.0306928465094554,0.0521721066029252,0.105571464395288,-1.36278527553134,1.91687252999175,-0.0701445457986905,-0.0678133360843773,0.00184387780329873,5.17215555694465,0.000284445661830754,-0.00190791429307261,-0.00253335766604924
1.44,1.29112723790844,1.61078170819318,2.572260825293,-0.114292871880734,-0.0374339230205065,0.00639169801989244,0.0323255886981906,-1.32001395459623,1.78069318078685,-0.0625711953193248,-0.0966455252034308,-0.0479177237852146,5.32659506306864,-0.000842329479339035,-0.00130037357498296,0.00198744265590515
1.45,1.27618478592277,1.6299234241031,2.56339991229228,-0.102716914181492,-0.0408783145433335,-0.00396097480944069,0.0558371978403339,-1.35721919656887,1.94119970635256,-0.101824889753665,-0.0649063068182128,0.05546613036777,5.20179268716114,-0.000411154349033413,-0.00210842989817545,-0.00240879350373162
1.46,1.26309984690777,1.58564990500043,2.61308274174893,-0.137695677430624,-0.0471328836448518,0.0174111508764987,0.0213640890915891,-1.39918852159728,1.80156574443107,-0.0988781353807222,-0.116364116300835,-0.0540904442094244,5.25943931747155,0.00148743610670523,-0.000717769245185644,0.00174160437171376
1.47,1.27636956689408,1.58867901954257,2.58789971416464,-0.114922564223706,-0.0471207841620707,-0.00466943562600972,0.0565598219589427,-1.34405048563545,1.88917527018698,-0.0050668491340822,-0.0399588427128418,0.0530082937158046,5.21225110162831,-0.0022580722519812,-0.00263280140638478,-0.00226033649014859
1.48,1.23518323820198,1.54408794048565,2.59388235483289,-0.125148431222759,-0.064101685817668,-0.00755622803178122,-0.0161689120683179,-1.4563256348575,1.79551226676465,-0.195109632477782,-0.157993693263122,-0.07224458436922,5.26326831542533,0.00374988429001209,0.000523268254282748,0.00377957781761982
1.49,1.26238098570058,1.55021306947602,2.60948969053351,-0.155305839364621,-0.0678650598279393,-0.0150467974918485,0.0515263564241462,-1.38268726740021,1.8980495640546,0.0840067041282387,0.00867787341570175,0.0951106051949211,5.16417912392669,-0.00238690870568224,-0.00327217885804873,-0.0037778116471187
1.5,1.27577081241965,1.55635719610488,2.65426916176899,-0.0499284188757836,-0.00726846070226367,0.0499849164768862,0.0367401732134204,-1.3663045602782,1.80287028885157,-0.168077898452988,-0.148904035604685,-0.0717619162815021,5.27016950134912,-0.000919573327344281,-0.00204793795264831,0.00108474258717655
1.51,1.25608997674919,1.5386463550892,2.62207878003049,-0.167581230871274,-0.0852298741431001,-0.0343434864243834,0.0791754229150776,-1.52040023788706,1.88758633283432,-0.123899900848728,-0.110512540979118,0.0195375248083012,5.13243051350205,0.00395591413153655,0.000588800073311413,0.000697230187037288
1.52,1.28132478763254,1.48127410104688,2.64987903141352,-0.142797086884963,-0.0615489247335188,0.00843910656973884,0.0182615521754915,-1.37892041442878,1.78160979875985,0.0841309411637857,-0.00804108703650169,0.0176900467563408,5.21972007838165,-0.00283947771342216,-0.00330794946715882,-0.00122402034304776
1.53,1.2868494661268,1.55382637697478,2.67227770082611,-0.032522895024706,0.00501462722352413,0.0393543296396153,0.0896441913298752,-1.38956401393768,1.87491772001227,-0.169296235537342,-0.135853093493852,-0.000943090552160512,5.19823505134432,-0.00170998014815684,-0.00297139370994684,-0.00174494829466604
1.54,1.27956890004,1.50683536229038,2.68446489642273,-0.16467523108014,-0.0764726888854634,-0.00205673524731414,0.113801909246853,-1.56317149401049,1.83376765351133,-0.149464547801996,-0.149003298915866,-0.0371863024424369,5.11136062384125,0.00464692725156352,0.00131230941770413,0.00185890516833864
1.55,1.30977482689397,1.45168261021668,2.67098968416495,-0.141042315235014,-0.0677991652246115,-0.00243478799852685,0.0538744463129974,-1.39120852444745,1.7724225392143,0.120873490984212,0.0314915635635399,0.0528029004591116,5.18979643809089,-0.00378286717729907,-0.00403572117881053,-0.0023643698059519
1.56,1.23983666905538,1.45975854108187,2.64458222305955,-0.0731568854594149,-0.0358138017247183,-0.00136294433903011,0.00874653113790769,-1.51547177853486,1.80058975120615,-0.253417046859762,-0.211916546504156,-0.0711543583094609,5.20698120206621,0.00308494631205823,0.000122148448415484,0.00343812798194585
1.57,1.27686360407995,1.46051754220993,2.70899309508291,-0.177990464897355,-0.0894491496960387,-0.0114198543900078,0.123410558668833,-1.51900870262749,1.85259803404898,0.0596081979849676,-0.00740839066900285,0.0907193249959418,5.06757874754151,-0.000176182898985091,-0.00195303713338854,-0.00375662694282766
1.58,1.33077428746248,1.45961539619582,2.73614547185722,-0.0394175718628593,0.00746670558215886,0.0719524578151384,0.0841777232098126,-1.37529004609749,1.76065717831368,-0.0575102474488182,-0.0827782788208823,-0.0513317696366401,5.21676717306223,-0.00399909287656738,-0.00472537574701224,-0.000899314373550962
1.59,1.26562268321565,1.4519719678102,2.68876072087986,-0.134477555509782,-0.0693177889624698,-0.0317091027182832,0.121720444717393,-1.63545973603007,1.84733737289086,-0.252799805758003,-0.22844894488815,-0.0293007677707166,5.06970614676735,0.00629066384184741,0.00244339220079813,0.00289282927494676
1.6,1.27517060943624,1.33866488865754,2.69664849073556,-0.220223640593301,-0.138929655752324,-0.0377211271793557,0.0300833415614951,-1.53602124019642,1.68918417363557,0.155470513728488,0.0443488926692434,0.0440461917889212,5.198917026042,-2.69417951260009e-05,-0.0018421758024762,-0.000308130144943637
1.61,1.24073736067766,1.36881641389692,2.66506867256183,-0.0559037975295231,-0.0258264440852674,0.000906351750102313,-0.00935833427106458,-1.49070997375904,1.90058838672461,-0.0947333141924524,-0.124224137339279,-0.0221523149956829,5.11433588028467,-0.00175524104951959,-0.00313877395015359,0.00101299283158314
1.62,1.26161200146843,1.4093220969168,2.81140718066194,-0.125592269825246,-0.0638312558149749,0.00297783986709925,0.147014653629541,-1.61230746913888,1.76185582494054,-0.139498725258248,-0.149210732232615,0.0319096030000949,5.04510935530858,0.00284753333406264,0.000314647644820158,-0.00165434747192585
1.63,1.28735665681155,1.32230732046216,2.70057391203631,-0.171788132498462,-0.100783939730381,-0.00504097778740946,0.05857729979048,-1.57836639590214,1.66814406620164,0.0256073771610195,-0.0409252940343171,-0.0477466797841076,5.18303548567481,0.00110466967712098,-0.00120255604468686,0.00248533652922374
1.64,1.2691600554226,1.34201040498785,2.70203830759939,-0.0930966984961203,-0.0471591841535915,-0.0217050954281294,0.0587972120788246,-1.5409793048451,1.84656426986259,-0.0351544304188318,-0.0879291742078871,0.0508195665177616,5.07218181736698,-0.00132478540944981,-0.00280881283228434,-0.00138229243612184
1.65,1.24171439835353,1.31711086389401,2.76912437600287,-0.141578656225544,-0.0900102830263719,-0.00702470420327061,0.078125059110951,-1.66789514434339,1.68013772817776,-0.152452800005058,-0.173107644326283,-0.0518522770174682,5.11541872234812,0.00460348909062597,0.00132686547730632,0.00277779875139496
1.66,1.301369735271,1.31294425960389,2.74253985949332,-0.143293380319664,-0.0815770525385702,-0.00629586694470431,0.110629989081519,-1.54927822396121,1.78380338561974,0.12308640459673,0.0291490732882757,0.0748462510552583,5.05109751694721,-0.00287854563286794,-0.00399078970362811,-0.00324145578839093
1.67,1.27311613489862,1.30676001530454,2.76956123373941,-0.0653588943002434,-0.0325668781535914,0.0179880625406341,0.0696401990577761,-1.61093999449773,1.68509686297154,-0.205372088012884,-0.206946408591244,-0.0808567069639682,5.14284038582164,0.00216432974045144,-0.000493020519477626,0.00296883126027769
1.68,1.2940144387518,1.31092302507627,2.77315385322322,-0.168194603505707,-0.0994476684349575,-0.0203628955216763,0.184638961161133,-1.67113103334182,1.79649563653327,0.0197485522484387,-0.0423033314811298,0.0761909369441236,4.98782606954555,0.00128788638342657,-0.00102876793274172,-0.00265425019544336
1.69,1.33480683120993,1.27184456480288,2.807884765917,-0.079922354406732,-0.0319624025231737,0.0446070106222726,0.103977468912877,-1.54065219313726,1.66592474324309,-0.0108873269343012,-0.0712823151518509,-0.0443731435797143,5.11568335532019,-0.00236159429214371,-0.00367513879762604,-3.31767627062045e-08
1.7,1.28470725407129,1.29255297135239,2.77205761591741,-0.111020163006732,-0.0633667883852705,-0.0206766314116284,0.162284528229017,-1.71000153157916,1.7487353437007,-0.175705449732859,-0.187765858274481,-0.00306855937857619,5.02561014891523,0.00383654808630532,0.000746621602207204,0.00111204125429227
1.71,1.31918577335511,1.22875381724932,2.80440637964925,-0.168170610022198,-0.102057222820387,-0.000502090138978074,0.145844123307305,-1.65363852742765,1.66821706885273,0.0833862446562158,-0.0100509438170748,0.0277007759114692,5.05464661401088,-0.000131755382791691,-0.001977148571512,-0.00129867262333709
1.72,1.29921551774907,1.22622676142345,2.77742686149792,-0.0760900682227276,-0.0422467022616107,0.00558826422398467,0.0893104710387321,-1.62549617123735,1.71509278104229,-0.0854899775872483,-0.126138887893069,-0.0329278783478414,5.07290215067147,-0.000223318260149141,-0.00227838013866085,0.00128096718826883
1.73,1.27770768718853,1.22687926125975,2.81777825033634,-0.145196117941651,-0.0914570101718661,-0.0220673292911786,0.165705979288413,-1.75131955755539,1.7060555463363,-0.0918359250875087,-0.137932381017084,0.0208658428782637,5.00077544533368,0.00364418571867592,0.000505434553028006,4.07045471718435e-05
1.74,1.33971159405369,1.19960885123882,2.83248350192728,-0.119349006424743,-0.0668581421127586,0.0263088019764938,0.157197432551216,-1.61529055733489,1.67263425463801,0.0919056188051376,-0.00891880736829759,0.0186921817228989,5.02653156261588,-0.00271550054101276,-0.00375246129484971,-0.00212864654339047
1.75,1.31126615635594,1.21624211263827,2.82395235901203,-0.066074374251228,-0.0371878638953129,0.010259026578443,0.155924207998398,-1.70511727285041,1.66728264098658,-0.183693211988282,-0.190588942235007,-0.0448566534435322,5.04843977599111,0.00214988649787916,-0.000653369415510828,0.00162505736432483
1.76,1.28908761359022,1.14892646846236,2.80349075948155,-0.198891651788882,-0.13406033148917,-0.0429979858725142,0.167717135591909,-1.81835203604835,1.67347078658202,-0.00872302205462183,-0.0857781148320699,0.0162281859356734,5.01965876103879,0.00467121771870656,0.000731507784730949,0.00125600001694001
1.77,1.3525189458069,1.15122679563497,2.85503073399709,-0.0787241377725872,-0.0398411140324638,0.0330711384425736,0.150149738729328,-1.57216142206645,1.74527526224887,0.141362948421122,0.00547549547799982,0.0512229311683368,4.96597263866078,-0.00581397385639786,-0.00593625549324163,-0.0039620560424464
1.78,1.28800099362335,1.1759457717363,2.87522019293991,-0.0660469658694088,-0.055036930608552,0.00492814794404545,0.176177611816081,-1.82222430267595,1.58723144899576,-0.325208526015502,-0.293282550446015,-0.100980761408658,5.03906829680356,0.00648964816368857,0.00242413548821997,0.00454570539035405
1.79,1.33275674917467,1.10454574791304,2.82170550427669,-0.225733496993666,-0.15297850019637,-0.0402039107049406,0.2128537481773,-1.80287647716734,1.69244336015807,0.186141133434336,0.062972107350164,0.101772985002157,4.97686034957932,0.00101311723607587,-0.00202614940369729,-0.00292370366573562
1.8,1.31864707756235,1.07111705725409,2.8450045292408,-0.0459602753046644,-0.0259187120522732,0.0270936924787779,0.0779730342787974,-1.65118498360321,1.690117388409,-0.0451057761068006,-0.137528789929844,-0.0755708938759767,5.02330092623244,-0.00211163108257041,-0.00340419608554716,0.00227485001126171
1.81,1.28091047153239,1.1322032790287,2.90390203291702,-0.130149659336261,-0.0997031308631938,-0.036367887481546,0.243147191794112,-1.87939628684605,1.66953334549015,-0.165855119982115,-0.184280053916452,0.0429078646523588,4.90709960173163,0.00557794773089186,0.00186059010826397,-0.000318914774212774
1.82,1.35986695993744,1.04620772661006,2.87657763942507,-0.165488844730932,-0.103117902357871,0.0190796417896578,0.174260077710104,-1.73654221241641,1.56294638298159,0.162454580983908,0.0261018416391813,-0.000863969810720247,5.01522109416617,-0.00144186239377607,-0.00330269314373885,-0.000873372849134549
1.83,1.34442352437569,1.10528041838139,2.87467676517067,-0.0207758447339388,-0.00849500231801495,0.0224973723827517,0.199697264077254,-1.70654704694296,1.6916627289115,-0.112424284724045,-0.160810457904369,-0.00212494566848939,4.97710826710578,-0.00144070364441934,-0.00309827024761168,-0.000968752367503039
1.84,1.32574340862257,1.07561989057752,2.917228707137,-0.157296120578407,-0.110824437729829,-0.0086918429267636,0.285705209734137,-1.94221992636431,1.64005987294731,-0.135293279883349,-0.176583528936362,-0.0265552526504142,4.89245575793912,0.00654309108515367,0.00235642820264561,0.00166890315204546
1.85,1.37923228606758,0.985131949004574,2.88769822207665,-0.153942462507211,-0.10676485346496,-0.010709000252133,0.173044193035427,-1.73515638600054,1.55716379921147,0.198236095964187,0.046424997323405,0.0401046642797036,4.9930773888389,-0.00266835278989229,-0.00398806095426237,-0.00140045915776791
1.86,1.3205825271366,1.04527456389322,2.88311552920343,-0.0298259969167717,-0.026546792604365,0.0152517274327713,0.182180434499067,-1.78829622942761,1.64132563788207,-0.181180563740892,-0.208041981716856,-0.0334964416441502,4.97335742598595,0.00124461946903979,-0.00140782373691373,0.000838877941495461
1.87,1.33080768517045,1.01997177462832,2.93087102234474,-0.178727247294228,-0.126035737801686,-0.0170020733780536,0.295781779154894,-1.95208871072185,1.63378116255541,-0.0215767885033972,-0.104714071467058,0.0172803613885123,4.87355556394007,0.00482719698565478,0.00106472081917639,-2.13727810956551e-05
1.88,1.3524743092716,0.914429906630458,2.88582903417098,-0.138371696557326,-0.106162088201093,-0.0200188725100688,0.132641081261565,-1.78750506161491,1.52414686874164,0.108333139808783,-0.0313269774999036,-0.01965510161861,5.00764033209546,-0.000682455844079159,-0.00254953736926056,0.00185396274271947
1.89,1.31159200576069,0.995269719952039,2.90601204450556,-0.0655684273509451,-0.0580542760061452,-0.0096187723958478,0.212130801820698,-1.84035895602876,1.64985007099192,-0.0974816824909497,-0.154498182133221,0.0371828570129319,4.89823587899101,0.00109256114600064,-0.00142563591631149,-0.00133319689218033
1.9,1.37522486466878,0.996220928404844,2.98718207126895,-0.11715890273333,-0.0767207502620535,0.0406705421451424,0.321288001061731,-1.88621592631502,1.56153008292415,0.00222623208577813,-0.0875203575288062,-0.0049398628938593,4.86797329979006,0.00109141203790911,-0.00128952192582363,-0.00170632686024524
1.91,1.36887507344968,0.91191566426119,2.89957772429023,-0.121889883723654,-0.0953714514988631,-0.0193595033516182,0.221817655070512,-1.89898923703731,1.48635646866834,-0.0364307387422965,-0.117930460490089,-0.0497991006991658,4.98990717450435,0.00277137925912698,-0.000487320636983628,0.00324994693665746
1.92,1.32464296044707,0.890736504955469,2.88114849420969,-0.145691039005016,-0.118608157111006,-0.0481381642142866,0.211051283702159,-1.92769787086193,1.60313009425381,0.022704131383962,-0.0930317197866333,0.0480432380928827,4.90972307273416,0.00258822040387289,-0.000576811009657342,-1.93064202028781e-05
1.93,1.38188122111025,0.930055561302022,2.99418781496991,-0.0676548177750794,-0.0517011582277484,0.0470786689746032,0.274858543506609,-1.79849400436762,1.58221290304684,0.0661261306144416,-0.053079195406415,0.0246214536030024,4.85788207335458,-0.0028760167531793,-0.00407440110757817,-0.00339948843891275
1.94,1.39472572998991,0.95535154862661,2.99348090207231,-0.0573436954618957,-0.0457210950658316,0.0344329365424542,0.345819133889355,-1.93873709916709,1.5116713146497,-0.162546642588701,-0.194966644788781,-0.0538326023768736,4.88530459286125,0.00294684573818733,-0.000110676872466172,0.000902809871317534
