time,x,y,z,roll,pitch,yaw,xdot,ydot,zdot,p,q,r,thrust,roll angle,pitch angle,yaw angle
0,3.01841953230695,1.01841953230695,0.0184195323069548,0.0184195323069548,0.0184195323069548,0.0184195323069548,0.0184195323069548,0.0184195323069548,0.0184195323069548,0.0184195323069548,0.0184195323069548,0.0184195323069548,8.90670762683976,-0.00343867922232799,0.00453759271535846,-0.00175794605485272
0.01,1.8193717654818,0.619371765481798,0.0193717654817975,0.0188454807497436,0.0188991418623163,0.018381555220917,-0.0589098760476785,0.0954766964552148,4.05185051136523,-0.130259965252918,0.18630747852339,-0.0275511249492412,5.83567857100696,-0.00010152171610359,-0.000585660707397363,0.000428348893642708
0.02,1.974546886598,0.70503390657663,1.64910977516178,-0.0514407570430375,0.0771641788284546,-0.0102776967045258,-0.0224031401108667,0.0261423196236733,0.982405345152035,-0.00293088508495248,-0.0188381668070686,0.0101290822336825,7.15621832040574,0.000551129999966863,0.00156845283062856,8.69057981322088e-06
0.03,1.99427980123907,0.683572712315648,0.43252594003025,0.0046505529735833,0.000236045129243145,0.0106746046729719,-0.1818748587213,-0.10598373358723,2.33955537840793,0.0266325014746915,0.0680046616109836,0.00546414210889404,6.94360894777471,-0.00224196756326182,0.00228532937176574,-0.000770438840831281
0.04,1.9070997039457,0.607327214325112,0.98529292198734,-0.00318563618682983,0.0154331202017474,-0.0123404844953623,-0.0389947898482837,-0.0135751842235356,2.11953792232708,-0.103402619190577,0.0798311907345672,-0.0277163091577836,6.73128948228494,0.00105084237786842,0.00193353650035522,0.00189475070620566
0.05,2.01790678788007,0.69762523376756,0.936796986825538,-0.0100978842440862,0.0660244853878158,0.0219973014593975,0.00696389212776583,0.0462118029609958,1.96396009706015,0.0677733920209108,0.104975518603673,0.0668169848658479,6.86902652022439,-0.00337838933160169,-0.0010653270009757,-0.00419921721712559
0.06,1.9967837748936,0.682424571859773,0.85875595134627,0.0278636919401688,0.0441140520553083,0.026173008374817,-0.152671131923887,-0.0236159860428468,2.10044662180687,-0.139941891044299,-0.035598841485975,-0.0886381284386379,6.81833038216078,0.000274531906171373,0.00290285613359479,0.00295219938449388
0.07,1.97184808142126,0.69431282516105,0.969804286623421,-0.0220657175990953,0.0223993560261914,0.000439271219877524,-0.0593335395022498,0.105687224728189,2.09444494785328,0.0364413852713068,0.146288526810419,0.0903826347237604,6.75669000204835,-0.00248585763537855,-0.000343547849016356,-0.004298574607888
0.08,1.97352732079855,0.711147226013694,0.943884134915316,0.0184152275692947,0.0650496412714012,0.0389599322969911,-0.0680512367518529,-0.033315646496228,2.02433177144359,-0.103190306654545,-0.00384673632664291,-0.0877664575254641,6.81297365879296,-0.000333584696354936,0.00129681840645786,0.00230844722543209
0.09,1.98608619344266,0.670885089508444,0.93840160938097,-0.0259269973100292,0.0185272552882477,-0.0181953687069204,-0.136886158938975,0.0556146890753788,2.1143332343053,-0.00354966593002278,0.0702965705100057,0.0617659598739536,6.75006551956343,-0.00113019420789908,0.00143876385837294,-0.0020658231134996
0.1,1.90697848202885,0.657214933060102,0.948897087108137,-0.0316847201729141,0.00406370679676417,-0.00278928148169144,-0.126691945021677,-0.093962524882323,2.02681461477308,-0.0735772643517386,0.0374935798537506,-0.0675972754442536,6.81674680751381,0.00169775010074197,0.00271746739577776,0.00333613504578808
0.11,1.93202520561632,0.616785231743133,0.933976379303472,-0.0438634271109257,0.00467110346553389,-0.038665142281002,-0.0779901715696301,-0.0868589601496786,2.12524436956935,0.0540459996654596,0.101242940370994,0.0588573153800757,6.74835007580631,-0.000920553770845532,0.00133207462607201,-0.00095568024912694
0.12,1.99071925547856,0.658870564375109,1.02057120266568,0.0428428927127858,0.0679519686026506,0.0460609783501505,-0.0210891017950201,-0.0481394163497041,2.10878429080647,-0.0236201406821021,0.0789917948611132,-0.00117478950967462,6.70198372273491,-0.00353240344439677,-0.000958623967708455,-0.00212392158224628
0.13,1.96957353356922,0.630209869890855,0.991761247432099,-0.0236954040128278,0.0243776076950759,-0.0143745916902545,-0.194172261619499,0.0369202185433398,2.0553766073223,-0.157893690420023,-0.0403230628696231,-0.0559997718518045,6.74812604600397,0.00268699660169018,0.00341859089809577,0.00333510191466657
0.14,1.92792146507326,0.695058011627957,1.0131791411466,-0.0542817762420666,-0.00146080818808769,-0.00924955855446505,-0.0847448344150159,-0.0322014438750562,2.13184815298031,0.112557312403938,0.150094510998409,0.0790474228193749,6.68608477760022,-0.00256576744898443,0.000192391039712684,-0.00329997538203202
0.15,1.94996019926519,0.643994253087024,1.03383926167766,0.0355388292864096,0.0573718320433612,0.0224101525573467,-0.071601045475484,-0.116646673058316,2.07556337736036,-0.117221122096394,0.0115012916820484,-0.0765281015046162,6.71066654298178,-0.000669488034025286,0.000945224878131696,0.00255692781210348
0.16,1.96181088352611,0.616214225721017,1.02507031228994,-0.0520506124333354,0.00781406345885182,-0.0327952597093191,-0.166675146114071,0.0360488695349978,2.12341730763553,-0.0347362174613559,0.044868224717134,0.0512527950490159,6.67001422464032,0.000757155340622228,0.00210161520123626,-0.00087282642346335
0.17,1.89577897683461,0.652844271074151,1.03972821190479,-0.0437568946788247,-0.0013295269349747,-0.00404593456027436,-0.127924602880657,-0.143968180868814,2.07769602701424,0.00329998710351889,0.0680007624248653,-0.0404766758085882,6.70008319512531,0.000163961411469462,0.0019234780152385,0.00210952984446805
0.18,1.91584585291471,0.582675732338641,1.03150758801135,-0.0256242680769744,0.00934792632137306,-0.0401460485211224,-0.10871180225873,-0.135398296410236,2.12615696895874,-0.0181446397838928,0.0638495895664619,0.0241243944293922,6.66351460158106,-8.37510097935215e-05,0.00160587980051827,0.000755290146026987
0.19,1.97032773460889,0.63331749798604,1.10398950041649,0.00773261757412854,0.0509018113809941,0.0282423600443095,-0.0565360286856856,-0.0367296688040523,2.14194520462431,0.00601277204410172,0.0876988973272069,0.0313697144426378,6.59954649642885,-0.00301432990195913,-0.000777365820167953,-0.00282146961711244
0.2,1.9643386351678,0.646454885357937,1.10442702058146,-0.00171211426798237,0.0409070862910456,0.0101467715281221,-0.15245983543765,-0.0220903609710948,2.08045049181781,-0.129581678035171,-0.0204013747124667,-0.0609714885049312,6.64296436735709,0.000678551209652173,0.00203575258190301,0.00240246759980994
0.21,1.91041174275794,0.639032332384601,1.08402060366837,-0.0703508588723737,-0.016656780030761,-0.0380768913045867,-0.168418615627767,-0.0579470126550178,2.12707191612554,0.0078274716493855,0.0789108774384812,0.0377978285075888,6.62569224700872,0.000735510929410474,0.00201135520122706,1.71203378899399e-05
0.22,1.90592612661467,0.626372754201545,1.11469856700668,-0.0160487572297392,0.0248278260377247,0.00115200467941261,-0.0863916733475055,-0.164145679327508,2.13490503005956,0.0107788799949775,0.0769461463515604,-0.0119583574115124,6.58640139979796,-0.00154437389911742,0.00044085388477976,0.000509380928344884
0.23,1.97344079446185,0.61648713846527,1.1552958730112,0.0165141386060777,0.0554213121708823,0.0106006760509784,-0.0916360407056648,-0.0357565283011201,2.13059350152948,-0.0552784018322486,0.0424499910312916,0.0242439619233839,6.57047426089147,-0.00213033038693905,-0.000120194563720511,-0.00165326492116869
0.24,1.94736989540707,0.645788260972848,1.15280035680428,-0.027638390904782,0.0239910906822194,0.00799161255968987,-0.168030737640045,-0.0198385853310353,2.12011013814367,-0.0946936713192783,0.00602288098243057,-0.0362129713051562,6.56783229061719,0.000767292466381534,0.00192329654658231,0.00133423268874578
0.25,1.92913492688006,0.666627449922185,1.17623735112417,-0.0328378876954378,0.0204042840778819,-0.0039639916720997,-0.110423654448302,-0.062632228191999,2.14013232881797,0.0318491022998452,0.0953431054454901,0.036094658700604,6.53516973867106,-0.00206116425387641,-2.59968703133885e-05,-0.00152260107021182
0.26,1.94892721329018,0.64451429986887,1.19142435387422,0.0154748164489284,0.0540777968887705,0.0207976893252487,-0.11162982531232,-0.0753704727867303,2.12210037556359,-0.0859726149700596,0.0181793174725149,-0.0263811310523022,6.54506047872037,-0.00136909224871669,0.000277838301753429,0.000260545576440905
0.27,1.9557498079304,0.646882751255119,1.20350610524895,-0.0254040902334,0.0309540868194132,0.00333557609725629,-0.14909417801842,-0.00374147236010244,2.15678207288803,-0.0517861903322593,0.0357474260706499,0.0170240470494489,6.49879419887202,-0.000722232566563153,0.000812891232105596,-0.000967794386397213
0.28,1.9308305146529,0.668471060079752,1.22708389062547,-0.0188822013336224,0.0311125972840278,0.0143683525736685,-0.13333423818362,-0.0659350099958314,2.11776683006219,-0.0320408293275645,0.0503265323339646,-0.014721875971227,6.51210775664223,-0.00131968867643482,0.000373810466974096,1.33906605749865e-05
0.29,1.90123157137713,0.606123271627244,1.18897008521666,-0.0440849575935522,0.00435392752878206,-0.0314720912257393,-0.192498228068615,-0.116170965586945,2.11763872537223,-0.0836239388614542,0.00663098926035235,-0.0215609418583684,6.53265588884429,0.0016291964883385,0.00232257512616363,0.00251012269020086
0.3,1.91646486933803,0.625459167544624,1.23416852689255,-0.0324580357752714,0.0191237081058925,-0.000614569949691841,-0.109269195834101,-0.0967615609495768,2.18490687685922,0.0628026728851378,0.109606461220342,0.0587740368121217,6.44806695720678,-0.00288182484707112,-0.000629167290311482,-0.00275281987409213
0.31,1.96202814270146,0.644605094170893,1.28491957295191,0.0409545878461707,0.0741671061074208,0.0432271227420666,-0.101912474867868,-0.0602931727969168,2.1266105827918,-0.110502760857745,0.00861330732386385,-0.0410552531655427,6.48544275628478,-0.00231433465513517,-0.000713187509141702,-0.000101398820329324
0.32,1.95404942585263,0.649293698556202,1.26865539304671,-0.037228108275321,0.0281771207536659,-0.00380052189320088,-0.187784450046977,0.00884084533447388,2.183484386426,-0.0925407676103002,-0.00134504469066028,0.00867782371201197,6.41909756269115,0.000452951632467808,0.00149417600184191,-0.000234407070961325
0.33,1.85189685473622,0.61475158668138,1.25181974075334,-0.0895026271521979,-0.0352648703789335,-0.0403855201982974,-0.234560520288706,-0.17456839635624,2.0703575925213,-0.0300915221075383,0.0342080094291462,-0.043323931534584,6.52763639252265,0.00261883184510594,0.00287189829372757,0.00397267044881251
0.34,1.88487051537056,0.588458206690439,1.25515068564381,-0.0238994183238366,0.0181768762301268,-0.0215827188356733,-0.0984021022217942,-0.18492156136097,2.24689782591446,0.0918962383226456,0.12172107929235,0.0795568586128264,6.37291574506577,-0.003710351058927,-0.00113922583858359,-0.00274342130071736
0.35,1.93479165898004,0.577339668187391,1.32947608722783,0.0244343241982302,0.0519320984866358,0.0238608187389833,-0.156229901805998,-0.107922016150662,2.08764263958713,-0.16807916581374,-0.0325880118050822,-0.063575720953964,6.46703576999345,6.0888848044071e-05,0.000973717423960973,0.00187711359643175
0.36,1.92285062832298,0.622729636528185,1.29623159801895,-0.0686730802576855,0.00384548141342137,-0.0190535016790007,-0.179060785317517,-0.0384884935073109,2.21240816671309,-0.00408714751794284,0.0601846248646094,0.0444813542229825,6.36531715926293,-0.000180323847709393,0.000831834442954289,-0.00120508643104473
0.37,1.89292123360821,0.632883327953027,1.34711722315711,-0.0193937548084515,0.0257161014525439,0.00830208777456716,-0.156395631082961,-0.160943394667906,2.11428087381292,-0.0272692904964019,0.039215577707662,-0.0338712999164366,6.40938069479722,-0.00141055750523928,0.00028239246975089,0.00120679995039697
0.38,1.91506815046247,0.592758530983775,1.32708679296838,-0.0189972552102416,0.0276209573640431,-0.0140474405686642,-0.163042558302122,-0.102106161242657,2.17419822640274,-0.0683497064147695,0.0266923687032344,0.0253214600323887,6.37631663601612,-0.00067070870792136,0.000493093728568237,-0.000538933287893292
0.39,1.9437781173259,0.650156493197104,1.39553477904492,-0.00526307439314877,0.0528210547068906,0.0401642957738352,-0.116492054339128,-0.051783913377933,2.18247060374048,-0.0142062237489475,0.0594870407428239,0.0138236499150959,6.32806045257974,-0.00311392585862282,-0.00143813093171618,-0.00255226417744634
0.4,1.94232163782526,0.650739077499296,1.39771792745019,0.00207786633841749,0.0517918503180234,0.0202063720068823,-0.16596133094249,-0.06633178310897,2.13853632646103,-0.125872729575471,-0.0267469880366083,-0.0412062132270832,6.36290489228762,-0.000698950283309282,0.000615573209768911,0.000991223174045772
0.41,1.91005783745143,0.634253943314528,1.38615498339862,-0.054508392912497,0.00655789603652868,-0.0113426920541997,-0.191471620716976,-0.0773044640012023,2.17804753314082,-0.037769024071072,0.0446262177031413,0.0245743196100522,6.31919934623327,-0.000191747720016062,0.000763063581407081,-0.000629878477511968
0.42,1.87513471105886,0.60580623384478,1.39164520356509,-0.0422663837022513,0.0126376437131,-0.00734935802842463,-0.19111592404367,-0.166919546211346,2.13013727695393,-0.0362455514112088,0.0302326085201432,-0.0285659838946256,6.34848778111836,-0.000304912766257608,0.000667507710487143,0.00169668287800183
0.43,1.89630924779561,0.587866779595809,1.39648510464296,-0.0255313402205327,0.023274906213617,-0.0128537333847571,-0.170765851841334,-0.135477845655956,2.18563138809382,-0.0270042357153008,0.0408766601141321,0.0343567796623302,6.30407343574373,-0.00153649059937985,-1.74319002363654e-05,-0.00102206544281094
0.44,1.90608989215841,0.603059138686012,1.43621298109335,-0.0178171468521862,0.0315821788760957,0.0161356076916582,-0.174143254158376,-0.116300149927857,2.15699110240173,-0.0745372839418862,0.0173844307574709,-0.0197636538719854,6.30116619572836,-0.000924596827085768,0.000139248243767792,0.000168832133534303
0.45,1.88799701378108,0.595363336804681,1.42522725484044,-0.0507264256463661,0.00928592148956449,-0.0186197072685088,-0.205723474674234,-0.135343284963507,2.15626823041741,-0.0608280450254456,0.0131549539678692,-0.00574924001007122,6.29644238521944,0.000372634520670092,0.00107309627358583,0.00114986145756478
0.46,1.88005653189928,0.593345540367018,1.44323057640913,-0.0414110999145827,0.0117198360027906,-0.00840873843094432,-0.184109327029435,-0.158000798572135,2.17213726594476,-0.00497690230050555,0.0525485257038691,0.0186712390097152,6.27026176093065,-0.00142658706975424,-2.01716423724275e-05,-0.00048909463981494
0.47,1.9037352557538,0.59795030740896,1.47490710877324,-0.00479959398928617,0.0419749808457718,0.0148720279142039,-0.162772671255055,-0.130722863155052,2.17045854880103,-0.0665909734748848,0.0222051421431858,-0.00412553829555127,6.2619176725323,-0.00184886272122919,-0.000623514982370121,-0.000509206426917993
0.48,1.93370551173448,0.631173086912115,1.50872751599074,-0.00825655140723541,0.0518867506733448,0.0268032291935988,-0.150920819249513,-0.0709378381186195,2.19385838366796,-0.0659758368094681,0.0166980612877985,0.0134274065734691,6.22135787108407,-0.0021697169503951,-0.00089967300584105,-0.0019023950385027
0.49,1.84961579370717,0.569221334783561,1.45830898714703,-0.0843048787345718,-0.0262994793013789,-0.0411871445343602,-0.289177332793782,-0.20012647961307,2.10074232877741,-0.142922072288054,-0.0572738228082177,-0.0796635549158539,6.3045556190603,0.00441184023970808,0.0035731971322784,0.00573230176001707
0.5,1.82923467966469,0.552683465768851,1.46204169210931,-0.0885340644002803,-0.0335267410902256,-0.0516894635264383,-0.194401843058456,-0.223293201707465,2.23421975709658,0.14383154732358,0.140788611103548,0.103813354188531,6.19430077647859,-0.00260578343746422,-0.000673155314931892,-0.00246518444073706
0.51,1.91244936633577,0.584590492002198,1.56123202150467,0.0684281824079815,0.0892146600643151,0.0617428246904509,-0.121175143871465,-0.154895621583872,2.17719932560187,-0.10787698895973,0.0132718412616748,-0.034628557590114,6.24170628230588,-0.00421352325651313,-0.00302020482532755,-0.00125280647485904
0.52,1.92494571335198,0.595136949682533,1.53996707232166,-0.0447406847609554,0.0309605246117791,-0.00579198712137005,-0.223315905781682,-0.0744073472892079,2.23660903633699,-0.178307071942912,-0.0900482987253107,-0.0176684202527683,6.13771930190588,0.00214011119817026,0.00235095473408084,0.00111189041556474
0.53,1.86116887084673,0.615493093407772,1.5745696809135,-0.0895305406037867,-0.02804752064593,-0.0115609126531226,-0.211689569982182,-0.166860435024081,2.10511215926739,0.0645852862654539,0.10373448252932,0.0188188904696909,6.21270604358981,-0.00135177829136048,1.76494674961024e-05,-0.000343427832518665
0.54,1.88388846702571,0.589060325439724,1.54327913731993,0.0209149614638128,0.0632777991737539,0.0148601909564452,-0.156680338566341,-0.18475616506528,2.22114246203093,-0.0661499241880794,0.0243062159517117,-0.00104762279047384,6.17073212552764,-0.00323284920746379,-0.00217065341456231,-0.000641089373416986
0.55,1.87624350795622,0.549324634071261,1.56757724912047,-0.0582634794277789,0.00543760120305039,-0.020340291518607,-0.255485398034765,-0.165645530664988,2.15703962199077,-0.16458125342875,-0.0827743251668508,-0.0294032901175111,6.16652972880283,0.0029427532516605,0.00285277328460068,0.00235809001263763
0.56,1.83366505859341,0.561707213710569,1.56486122881946,-0.0989362850376996,-0.0395190137487091,-0.0303353385590131,-0.228410200743557,-0.212919126615301,2.16132609084181,0.0839959946767591,0.112278063805752,0.0335422840447433,6.16335967401752,-0.00115865117603909,-4.02567195851602e-05,-0.000150892532453219
0.57,1.87383922606569,0.567163978705784,1.59923645044698,0.0260736033865819,0.0650716962938261,0.0191397898035753,-0.161298830208079,-0.202679538922357,2.21392335606927,-0.0609715352815956,0.0212044511422827,0.00179854037290238,6.13358202327864,-0.0036376419371643,-0.0024289965738322,-0.000973587658284855
0.58,1.92312528001053,0.592262464803953,1.65041255232476,-0.00961386679878954,0.0517384867621052,0.0275508764990324,-0.175757193674992,-0.104039794093693,2.19969551205901,-0.14239070884222,-0.0535845575849407,0.00328001034021488,6.09418877354397,-0.000643025708764336,0.000255226213578221,-0.00145546931515272
0.59,1.89398539067916,0.61635234679699,1.65491299112876,-0.0576904862070683,0.00707950101323501,0.0152740498972622,-0.197911579034903,-0.143314837399697,2.15244206403919,-0.0338205180520602,0.0374266064904929,-0.0193757726414731,6.10238063272776,-0.00102245455182574,-0.000106696604846254,0.00019182465652792
0.6,1.85988073141145,0.5732194430758,1.62481700594399,-0.0383854583635267,0.0198802620384756,-0.0176040038283355,-0.22182384637787,-0.20739578852602,2.15357238844556,-0.0692784085425394,0.00426083811942715,-0.00440402108732076,6.11982722453374,-0.000628853071491078,-0.00019113448274627,0.00103923286476645
0.61,1.88294896993653,0.577007190609977,1.65915713233821,-0.0265442020510965,0.033007381980081,0.0144674556149492,-0.185752189218547,-0.160271444075849,2.20254946276755,-0.0318785917835573,0.0226113683754867,0.0357154246139739,6.06328449921166,-0.00244340195354104,-0.0011689487149118,-0.00237145316362305
0.62,1.86897899591996,0.568851536768325,1.67166921221251,-0.0329044377504059,0.0185441650781425,0.00908796093363278,-0.227747264187894,-0.193675059290039,2.13803436273333,-0.124187417978353,-0.0336607336104993,-0.0546638652008138,6.09847224774297,0.00029968530589412,0.000724913471658984,0.00215627197555635
0.63,1.84258629392984,0.547099172546969,1.65135697107334,-0.0797568534660642,-0.0132142089267576,-0.0355637539764203,-0.241037217229055,-0.21544149885377,2.17706321971493,-0.0213489714971919,0.034471909724669,0.0337074120334473,6.06243845425371,6.39260711708162e-05,0.00026388621955076,8.41268789662141e-05
0.64,1.84343533369291,0.544001571322398,1.68298922351724,-0.0335587633201236,0.0200021866821324,0.00522147868173157,-0.221759711966385,-0.229059988554827,2.16935369641363,-0.0261279653397607,0.0187838139591023,-0.00549804169654314,6.05588722699508,-0.00200727060410463,-0.000866283582930075,1.49556162789292e-05
0.65,1.84652038670196,0.53184022259925,1.68717213910406,-0.0389358853233686,0.010727685655906,-0.0142120851661707,-0.237831561040266,-0.223549317909752,2.15905915061598,-0.112746267682075,-0.0272744259030686,-0.00961171013672342,6.05709640297293,0.000345458101177142,0.000651501316183833,0.00112557626722473
0.66,1.84634360723788,0.54332252847752,1.70662527802839,-0.0665425861226829,-0.000355260553398382,-0.00784963477530858,-0.224095200626127,-0.216304446789472,2.17909701259319,-0.0114895707813899,0.0379967103702223,0.0204133890686036,6.01545538188481,-0.00103853582538916,-0.000487750051053318,-0.000596224167492059
0.67,1.86619412383249,0.560365100476013,1.74102664726526,-0.0113388534688734,0.0405820731659971,0.0185807698671341,-0.197103851316872,-0.203497430574276,2.16746337419021,-0.0557742117313116,0.00572085613125091,-0.00381554797256545,6.02498732257371,-0.00269279899107556,-0.00155985402380347,-0.000688538126616752
0.68,1.84024133172618,0.527533461325874,1.71792868098128,-0.0604152043415623,-0.00299418314376275,-0.0223464778709877,-0.261427237436182,-0.245081829896645,2.15473072870239,-0.148928922180041,-0.0614601530511233,-0.0316220350250667,6.02090013955822,0.00221008528745934,0.00182128399043685,0.00255473464572687
0.69,1.84462564659007,0.544738809136217,1.75723103221967,-0.0714310138523898,-0.00402707108528243,-0.00600349114771785,-0.207976813747217,-0.216574970521796,2.18997703469661,0.0716604074371131,0.092509879558672,0.059658307381157,5.96115911886854,-0.00307635759465001,-0.00188634688879397,-0.00253576203624843
0.7,1.87980134573622,0.567031149674792,1.79424883118777,0.0328753589734982,0.0722020438895669,0.0449166067383059,-0.182966524857362,-0.197170696837399,2.15697870931595,-0.131942648569653,-0.0381915870610586,-0.0359172419556258,6.028444019716,-0.00304166917402189,-0.00218263644094638,-0.000392749533521216
0.71,1.86628534773888,0.551076673775932,1.77549566863101,-0.0695282111318711,0.00286141024011186,-0.013170920348166,-0.23636628352642,-0.211179331710929,2.22432752677869,-0.145687630825029,-0.0658900377233996,-0.0062986975930015,5.91445872697758,0.00197734091689856,0.00173680316601223,0.000922473948837418
0.72,1.85424851144666,0.561664904689464,1.83452952873773,-0.064897466100275,0.00122492355871266,0.0107140976569804,-0.206201348469419,-0.210731076392432,2.12271958991034,0.0665631594522379,0.0927750466431191,0.0303610581708058,5.95581081559516,-0.00355204495825876,-0.00227246081090091,-0.00193684900536809
0.73,1.85090661290764,0.53976435061222,1.78541603039547,0.00651518760844542,0.0504634560345406,0.0105323732850819,-0.229718193084371,-0.244366245571664,2.16038112925349,-0.1705204103275,-0.0738153863084967,-0.0423017050449822,5.99521425320387,-0.000816315130251286,-0.000553483286284427,0.0015196642157856
0.74,1.8852867250345,0.570923285722441,1.85219691768672,-0.0509805130946444,0.0235645056888035,0.0197645147402097,-0.175102344072476,-0.172685242337663,2.24267923896163,-0.0272548386601649,0.0254913985271999,0.0636762411471672,5.84962707608473,-0.00232082264935033,-0.00149619007981687,-0.00394250106824218
0.75,1.87691680368837,0.573611456402933,1.8822850427993,-0.0132631336458399,0.0414664754453007,0.0424617779923157,-0.206541751597716,-0.210608179692477,2.08700608048607,-0.106704500931833,-0.03019012322417,-0.0696340675528818,5.97148924541585,-0.00187649827051672,-0.00117634213889714,0.00130118530816056
0.76,1.80878305729116,0.499348116185205,1.77887241460897,-0.0988293668884287,-0.0318116269369381,-0.0628532795351912,-0.301975794713234,-0.302140742392549,2.17174965360868,-0.133023825784466,-0.0580646131552267,-0.00207744475173003,5.92639709317347,0.00351088569620785,0.00214325806478567,0.0030751251501226
0.77,1.81306235188524,0.507201171944831,1.8625697094954,-0.0745952534453635,-0.00878159289664054,-0.000459610510038243,-0.236456669121769,-0.258314887193596,2.1905265220476,0.115727676724097,0.0966641797056861,0.065216632701537,5.85746457964438,-0.00425462366366719,-0.00257150284822632,-0.00305478469904257
0.78,1.79739891115872,0.477956724960577,1.84045235325631,-0.00865751183343741,0.0177891121245728,-0.00830211293770601,-0.29406982157644,-0.318901013687024,2.08597944773262,-0.229100474927751,-0.113985545120061,-0.0938828588219967,5.98177686496631,0.00166796962530814,0.00121766723691614,0.004845565665732
0.79,1.83497116644339,0.517123621694803,1.86730930112769,-0.0947309404570005,-0.0133927709634323,-0.0190228461118916,-0.207941175923752,-0.233491646455216,2.25810811433837,0.0539322765327703,0.0812809756691256,0.118532013953902,5.78895533557447,-0.00212790275127614,-0.00184642649670599,-0.00470722305216784
0.8,1.848300131415,0.532673827911614,1.93776218831764,0.0083824664507209,0.0527593941597351,0.0551480369944856,-0.227298644225711,-0.25098678700966,2.08220583517278,-0.110601788454326,-0.0507449713351139,-0.0938746926243579,5.93683802152183,-0.00274467981049457,-0.00178163937982343,0.00186399620518033
0.81,1.84621327655577,0.528006235288918,1.88500891481545,-0.0565773866900602,0.00736771847142861,-0.0265191197946896,-0.223377488889353,-0.255706244735692,2.23081453310953,-0.130659930076616,-0.0438824873396368,0.0490267214247471,5.80334338915054,0.00054835147060977,0.000342149196278176,-0.00106391314085286
0.82,1.84874579707114,0.532501530845176,1.96788920779969,-0.0595401652067801,0.0131719327762254,0.035649515081693,-0.216724021817652,-0.245498885239834,2.10852338680432,0.0071983629306603,0.0368357239946466,-0.00925194389583404,5.84271995179997,-0.00278269347135271,-0.00208602901616359,-0.0012374304124803
0.83,1.86971130136365,0.551063013550627,1.94413907964712,0.0118996054557173,0.0624916510515988,0.0290092784867357,-0.19031385721812,-0.225511985664409,2.17254326184416,-0.114776657208818,-0.0415083626919481,0.000734402698195087,5.86105743742542,-0.00326047099305225,-0.00245328059600217,-0.00136656255983207
0.84,1.83360787489755,0.512132921514108,1.9437398458424,-0.0766956161129846,-0.00869779260900362,-0.00706519189823738,-0.25759413634815,-0.29873009759534,2.16970630295435,-0.168195427708865,-0.089143721441859,-0.0350793959641258,5.79035003033151,0.00254721999871983,0.00181764862198383,0.00199925254689774
0.85,1.8113714769042,0.491794269709332,1.96451833175728,-0.0952446027830819,-0.0256719039245173,-0.0170564215382805,-0.258709714434107,-0.287036387676039,2.11296207960528,0.0691433599584867,0.0802765702637453,0.0391571303982105,5.81485647104893,-0.00251438454705524,-0.00189870178361979,-0.00104245305024519
0.86,1.82742960831461,0.507611845547134,1.96113912328009,0.0147313974550718,0.0570195291794276,0.0273935931068624,-0.234899104440004,-0.272472018741454,2.16930633363492,-0.124296924112711,-0.0524826818336391,-0.0132504430656323,5.83992739360729,-0.00297325020565413,-0.00246479272041962,-0.000625847032156632
0.87,1.84182699734196,0.517945243756222,2.00171168313773,-0.0573915774921935,0.0113221307155243,0.0115753552703933,-0.216680453552212,-0.277587218114185,2.19636336260483,-0.137252759056415,-0.0699590265287345,0.00114366969243882,5.72943024355923,0.000455892921357323,0.00045010637682033,-0.000594692658337746
0.88,1.80004831317626,0.4727988077798,1.99393650091355,-0.102935031728101,-0.0359769785242748,-0.020941115863284,-0.290113902402141,-0.332427192231673,2.0541026989563,-0.032046231950432,0.00933568375353576,-0.0314791558606132,5.82673307613147,0.000482167429236201,3.84615464082189e-05,0.00247928519037044
0.89,1.78700021110986,0.462577149809892,1.95638814021896,-0.0503240501398412,0.00621884662700506,-0.0231268526609734,-0.276610369396812,-0.32536554011278,2.19356391441129,-0.0215568129381944,0.00254057710402658,0.0429300936876139,5.75572424410464,-0.00237641765584373,-0.00186953758697845,-0.000926414776942626
0.9,1.80307173819875,0.474330849472069,2.03098300342324,-0.0344228657424675,0.014505842447758,0.0176263805284407,-0.251764643620031,-0.315394037960507,2.11570087745521,-0.128642416575748,-0.0630943131556793,-0.0197904253023234,5.7738957058919,-0.000596251905757527,-0.000436514790870503,0.000116104482132346
0.91,1.75573176471447,0.423318449684009,1.96864605388495,-0.126521141686469,-0.0596739884297109,-0.0552803338392332,-0.331054749996288,-0.403826354098412,2.09861423528867,-0.0977557088012455,-0.0458781799176386,-0.0377620301419007,5.79116585605594,0.00369364076244184,0.00175447894232616,0.00440632779426139
0.92,1.80362638681264,0.468319274507309,2.04431762637438,-0.0453446679514196,0.0150416538022615,0.00599941075838485,-0.225785403286257,-0.284203807934508,2.2335530261443,0.134973184305862,0.0955945668108672,0.111333080864078,5.6601854417365,-0.00681541818657651,-0.00495382369522428,-0.00550823916097871
0.93,1.79249313294816,0.458716911934975,2.0631633237704,0.0101975760570584,0.0274838893403694,0.0258757186939604,-0.278741847736481,-0.369032246660797,2.02529586324236,-0.327898223918713,-0.196429889347243,-0.133588630098397,5.8426082174715,0.00260642423197205,0.00182340119063559,0.00513086566259758
0.94,1.81757956084554,0.475601143111685,2.04137093324608,-0.137700677266872,-0.04770505138811,-0.0327601838117774,-0.212925493026245,-0.318839116107551,2.25615007832941,0.083521631127711,0.106854909518407,0.126013878261094,5.60142140816846,-0.00138724467312054,-0.00199418612021306,-0.00441162870684756
0.95,1.79716427394005,0.450059651366222,2.10839395164485,-0.00873894597217419,0.0393067875871963,0.036649249908645,-0.291715096395934,-0.337634058652938,2.03654034741985,-0.105909232537725,-0.07999844654669,-0.106491039432905,5.79203763818503,-0.00243341450753372,-0.00179219775342007,0.00334100325054441
0.96,1.79899090126268,0.471064058377754,2.05725939774265,-0.0615401706628175,-0.00660973584283911,-0.0313614099325151,-0.224064670824124,-0.346473032587954,2.21026485070458,-0.125050200639258,-0.0492804574664154,0.0802346648574791,5.63789384416502,0.000224338642220424,-2.28988604916062e-05,-0.00230730309989261
0.97,1.82369215697666,0.46966626477498,2.14989342845877,-0.0645363883949167,0.00797119338211353,0.0470426736023882,-0.231060157366338,-0.323025187952427,2.06974952748572,-0.012467596022086,0.0155308158768589,-0.0364548051274736,5.68826788988904,-0.00251929959125525,-0.00243736076671317,-0.000481775515941335
0.98,1.79923892720531,0.454286318714563,2.08234091345182,-0.0396771438069347,0.0153764437036969,-0.0183598952097729,-0.258719424519043,-0.363713791587405,2.11031379200191,-0.140414455624911,-0.0907387905883799,-0.0137595446081156,5.70940984608938,-0.000321806722969211,-0.000329746023309152,0.00153534526793525
0.99,1.80384460077325,0.453664641581727,2.12765427223108,-0.0770653808356761,-0.0143012748832225,0.00414646698541505,-0.233181397069791,-0.354754572663603,2.14731110170318,-0.0406921273406828,0.00198163911548244,0.0406998252829302,5.621938923365,-0.00122034933118484,-0.00124699445662143,-0.00211436938828301
1,1.79625568839718,0.439823905308678,2.14232981880794,-0.0500696460311361,0.00970421698738793,0.0136038459489978,-0.265917509249831,-0.364753435956442,2.06592579628766,-0.0881824915236533,-0.0457174971194287,-0.0475584376745536,5.69060955647672,-0.00120195320860301,-0.00141843766764874,0.00162393957695262
1.01,1.79780963712269,0.448922581975268,2.13205535147201,-0.057618612640073,0.00356939127775328,-0.00955930842550626,-0.23523805721738,-0.363422639856986,2.14428729915797,-0.077450848996854,-0.0402844570728227,0.0423995307126436,5.6246351410862,-0.00127671585740573,-0.00119261671025899,-0.00154020538289714
1.02,1.7718769605111,0.411670582611275,2.14729523603984,-0.0842456371495018,-0.0260632633934766,-0.0042706416828048,-0.289084878418396,-0.415600624206535,2.0591605358796,-0.10635398478201,-0.0602814416809445,-0.0508009646465384,5.66080782303382,0.00107887036438098,0.000308494216957104,0.00261017718808816
1.03,1.75958018420256,0.399497361221384,2.13240229511639,-0.0897654404352202,-0.0281535677650698,-0.0349835071963011,-0.287757358600812,-0.404111796568293,2.12125604009474,-0.00651322878156174,0.00629250215411576,0.0430700376038815,5.61642849198835,-0.00126675930395555,-0.00146504718630311,-0.000379276927913383
1.04,1.8029257512574,0.446141581395765,2.2068901416234,-0.00863545685633375,0.039307799084082,0.0437799814469132,-0.219916423478742,-0.337566955551195,2.12174380117983,-0.0671419776819158,-0.0308455927945183,0.0137605030160683,5.62482911127066,-0.00396853172830771,-0.00350999421318137,-0.00266487207054553
1.05,1.78158271733925,0.423326600846802,2.18147859168609,-0.0720959023648847,-0.0140445915956771,-0.00706370379410986,-0.255622191046801,-0.443027019988323,2.08828508707401,-0.209352860193566,-0.142914094989363,-0.0670617490117612,5.60346556591013,0.00298412902417024,0.00179701827317819,0.00351992089943775
1.06,1.78619744963854,0.402741176360184,2.20362862208201,-0.113632910357409,-0.044933224447494,-0.023956333351288,-0.253619308599125,-0.39121869895097,2.0938442771153,0.0831880651247763,0.0796428449505887,0.0774999694130844,5.57008640443516,-0.00265780192046449,-0.00255489185763229,-0.00252669922040921
1.07,1.74658143342146,0.379503600717836,2.17799361777505,-0.0301937399617742,0.0109063821220717,0.00157095876360951,-0.320276391409962,-0.439680284924585,2.06092772588759,-0.172703610534734,-0.120879140667606,-0.079220617283443,5.65267264738025,0.000141198355482742,-0.000537815378609387,0.00369663605378265
1.08,1.74652302281148,0.386442401190335,2.19781536197392,-0.11256510480862,-0.047463187388326,-0.040977662649785,-0.257686380941366,-0.45038324531818,2.13738642180561,-0.0428240392749479,-0.0209945658785427,0.0714342785590467,5.52571077636195,0.000603619243682782,-0.000109168632357741,-0.00144234069586507
1.09,1.75877895701168,0.370728034978505,2.23783282041621,-0.0673975827820283,-0.0132361010940191,0.0138671541208866,-0.294554452124914,-0.422417377196677,2.04344327470357,-0.0266219361728585,-0.0160794945995804,-0.0429527662293141,5.59310419996914,-0.00201831364970769,-0.00200284567739481,0.00139244431286654
1.1,1.75411032262005,0.389795986344013,2.21837298603604,-0.0523702765015076,-0.00195327140741991,-0.0225391827486443,-0.260352712747733,-0.443293522909093,2.0991306294308,-0.125638191531949,-0.0798378822215158,0.025184969308931,5.56327964699803,-0.000303910538874384,-0.000823005555552237,-0.00010990134474454
1.11,1.79054995530768,0.404980303462515,2.27876796676941,-0.0682459950170958,-0.0048083927375983,0.0273706472177866,-0.214227793547042,-0.41549127625532,2.09159419252782,-0.0363355887583354,-0.0168755788361354,0.0129980821376192,5.51595227731518,-0.00204782838130312,-0.0020444280263054,-0.0018899037464413
1.12,1.80475593794072,0.411303941927651,2.28964860416228,-0.0328227856672064,0.0202338272397659,0.0234200598249749,-0.217290666143785,-0.409963394754102,2.05386324003652,-0.107963094654636,-0.063771771949767,-0.0248668081976795,5.56198708714309,-0.00198504838831581,-0.00207926659673631,0.000104902584743811
1.13,1.80613062114766,0.414986769186151,2.29066400094607,-0.0590532083193606,0.00503665332021078,0.0109996517428431,-0.196785540237785,-0.431625268794254,2.10366829519931,-0.103398124293114,-0.0621013817363217,0.0202381713849022,5.49419581394828,-0.000922013265767617,-0.00132364517411428,-0.00145687561120128
1.14,1.79092863808462,0.382693596803931,2.30622381392422,-0.0764031939488481,-0.0140894119817723,0.0102114623800957,-0.238034177162712,-0.450013683948849,2.02729581402367,-0.0764573366147224,-0.0506637441676842,-0.0290090640448923,5.52902806195839,-0.000615756123479505,-0.00101015529393699,0.000902214113410661
1.15,1.78238894162372,0.381491776841723,2.29358348089151,-0.0601204953639585,-0.00335179131398691,-0.00289858591780899,-0.238560964814522,-0.438181236794854,2.08031901997183,-0.0595171127538545,-0.0323625980374406,0.0263528190361764,5.50298597877899,-0.00191517493756714,-0.00216604315228756,-0.00108741574388367
1.16,1.74758707287485,0.350051334539061,2.29512947027442,-0.0825883415137178,-0.0258464883330456,-0.0100035593833709,-0.279088750514436,-0.502941605430876,2.02832566977952,-0.136837515730221,-0.103311922692678,-0.0404321159224645,5.52076209697118,0.00147596044800058,0.000332767115916437,0.00239377716847109
1.17,1.74504955471537,0.337672522466833,2.29926575962055,-0.103140754151337,-0.043985544386091,-0.0262514172351901,-0.271824495122274,-0.478864349272799,2.07185919492149,0.00852849858124463,0.00496559136833259,0.0429698175734739,5.47176472453073,-0.00137558431455165,-0.00167976537029242,-0.000786396574056552
1.18,1.78127395448248,0.379702809891453,2.35950830608897,-0.0116205829485802,0.0323518941788711,0.0414689483858179,-0.226892256430336,-0.415507801289301,2.0707650432783,-0.0786780310095046,-0.0478725549796678,0.00305586903221785,5.50100432214848,-0.00384175332398587,-0.00385423756303825,-0.002038325173838
1.19,1.78635020815836,0.391177426690337,2.36278546389889,-0.0546152805243237,0.00412694814553887,0.0172198584535304,-0.189435974765389,-0.494642156979598,2.07526005925753,-0.185197882157142,-0.139111351742173,-0.0296874169859419,5.43867339243605,0.000925876804354929,0.000242372568706048,0.000613346110761442
1.2,1.79006045778209,0.348766424639915,2.37508920266264,-0.107169354238316,-0.0421804732963271,-0.00513460516985401,-0.224480205025973,-0.481525634763325,2.00936955256436,-0.000986390298625461,0.0130545064202248,0.0189311314708329,5.45268091313776,-0.00120090072552915,-0.00171337216297509,-0.000645806979010047
1.21,1.74057723682523,0.315711132466649,2.32648836162817,-0.0653067142237265,-0.0128532934209838,-0.016015927897363,-0.304881040696316,-0.510837822056445,2.02611852726927,-0.112824952436219,-0.0912540786148782,-0.0342187615628839,5.49304086679361,-0.000103017185875913,-0.00113056219071697,0.00238939526208743
1.22,1.74311693377655,0.337927685593144,2.371261060058,-0.0814002513385464,-0.0255041827232907,-0.00908248877909171,-0.233406420592011,-0.498433360883652,2.07587058619764,-0.0445582297617382,-0.0430107008299478,0.0550833578747414,5.40475817986445,-0.00131859376946124,-0.00149071465381121,-0.00216358590180881
1.23,1.76807006546728,0.338367567902245,2.40699778907983,-0.0521791824667079,-0.00519317396355541,0.0292374446518843,-0.240144725643304,-0.486337938203625,2.00039676669035,-0.0917236323256512,-0.0585563722874103,-0.040323480243461,5.45660407627903,-0.00156224959625299,-0.00204913893147611,0.000553644621310563
1.24,1.74677559221341,0.323398103493045,2.37245113614305,-0.087870912834344,-0.0265786779461512,-0.0248201336272946,-0.249324838182407,-0.543377918242377,2.03453097257312,-0.116048689701821,-0.0910166281666851,0.00450854627617237,5.42210079207939,0.000938756643841617,-0.000401049616092435,0.000967001270673939
1.25,1.75749996288341,0.314217993471071,2.41276852683305,-0.0844121725266447,-0.0270146770584864,0.00578813654129052,-0.239385669178312,-0.499641345100508,2.02792373424549,-0.00300237146484077,-0.0183129799646697,0.0244259598181329,5.40067665033602,-0.00228709299549577,-0.00225350377873788,-0.00141239488991254
1.26,1.80616735529403,0.375291440004843,2.46534274426782,0.00429955761399966,0.0448167358242401,0.0587496408849561,-0.16960122320935,-0.436205907055082,2.048660432355,-0.0980356582355322,-0.0543889960277324,0.00996945572622736,5.42978854394811,-0.00438088717102175,-0.00464171970367029,-0.00315150110866525
1.27,1.76476805842114,0.329447893014788,2.42690652582511,-0.0918143192484439,-0.0272546653790532,-0.00618481657425163,-0.209153139315841,-0.604398959637598,2.02848643352323,-0.232101391366847,-0.195894414857794,-0.07525050235017,5.36492322030154,0.00418073081832133,0.00229385029857064,0.00386908410251414
1.28,1.72848743010533,0.24147941274037,2.41619072717766,-0.167502187030152,-0.109768779706153,-0.0636815335014312,-0.300602268277077,-0.570905455625473,1.95418232068796,0.0909222875519765,0.0604456764271281,0.055057001830119,5.42256681798844,-0.000167674617079085,-0.00125982648330524,0.000403989848746796
1.29,1.67088072439126,0.230581281087931,2.37208619245706,-0.0589432427761653,-0.0233813217006631,-0.0277212530414541,-0.368802931818081,-0.578581138314744,2.08475637991878,-0.0956828711859032,-0.100358030684997,-0.0342543559291685,5.38441736917099,-0.000707358599818603,-0.00167534684535986,0.00294071756142645
1.3,1.68252058625001,0.268545933863379,2.46705727894794,-0.0987758558083453,-0.0527106379348526,-0.0295034644151884,-0.257445570892774,-0.596018830485623,1.98711248752149,-0.088693164685762,-0.0852867098757195,0.0499762885287925,5.35834097271992,0.000869888854998369,-6.40627230367444e-05,-0.000967303776171464
1.31,1.72324744657829,0.255312094876602,2.4460283364937,-0.0945053366691645,-0.0446572734270496,0.00620495899606549,-0.274025343183177,-0.567806475753656,1.98655592434529,-0.0212127507227668,-0.0247993173154778,-0.0313082910096435,5.37338067960241,-0.0011628326829565,-0.00196864555979528,0.00119637929231096
1.32,1.7038853191179,0.252734301710714,2.44639258747523,-0.0775434024417864,-0.0307122537149818,-0.0350700792360809,-0.280293838909807,-0.599810806938828,1.99283405527285,-0.112798693765092,-0.104759566442023,0.00680171661684417,5.3719688339985,0.000457378342976084,-0.000808552881155415,0.0013421311049972
1.33,1.76728564664796,0.305763179945314,2.52251822437473,-0.0534071363971663,-0.00260824262053547,0.0396103694655583,-0.164508922346099,-0.516637856286191,2.03825756752675,0.00434258920006939,-0.0110292905877536,0.0607681407532844,5.29839281224476,-0.00415871911192409,-0.00400706275609663,-0.0046996754513795
1.34,1.78371301117059,0.306443971641077,2.53417639486206,-0.0252304236340657,0.0132498553173228,0.0433798356112436,-0.176162418189205,-0.574932842770977,1.94183999210839,-0.200763082744635,-0.151827251201002,-0.0844442986229169,5.37683954429056,-0.000117375596244808,-0.000999315939732184,0.00198621591852989
1.35,1.77343026787556,0.275671269995632,2.50394401976275,-0.116256369544509,-0.0488066009607669,-0.023112961008055,-0.171133674716117,-0.615988041200593,2.01965760310744,-0.0458600480022642,-0.0363091824545516,0.0520648570126568,5.26845839678864,0.000329597913153433,-0.00108385452890808,-0.0013684760292716
1.36,1.76975993711417,0.250938671258693,2.54329443689466,-0.05821422195806,-0.0067791645767974,0.028335328552266,-0.230202857314076,-0.543646264712921,1.9405518547466,-0.0280332404927946,-0.0497144759354792,-0.0227213062390648,5.34699112982524,-0.0030220392464353,-0.00316342257992014,-0.000230998417885731
1.37,1.67583531818599,0.207385995427611,2.45715159267044,-0.114711526185003,-0.0750425651942527,-0.0636628827073215,-0.294484215449097,-0.716437747446477,1.93909951437618,-0.217773934063586,-0.181313857203067,-0.0508604854393795,5.35571258571417,0.00553447742031761,0.00235255807181385,0.00542423733148209
1.38,1.75037474221677,0.237830274222929,2.5577626136748,-0.10430774144699,-0.0446847434336029,0.00682727966313087,-0.199536650450674,-0.528955038979001,2.06722469006864,0.200273933248383,0.105926577823368,0.14141474115628,5.19827305291896,-0.00662863947600224,-0.00595575089239013,-0.00696731257807592
1.39,1.74254330757024,0.265678500764191,2.58351383593113,0.0370176207899708,0.036055369184816,0.0607849362879527,-0.232556594588419,-0.589959457505872,1.86681307712149,-0.320395795636196,-0.237361966383978,-0.147523651838566,5.45325342098818,0.00015667314786238,-0.000965843992184285,0.00418898391199313
1.4,1.71099147554221,0.221686286110483,2.49987635952008,-0.19566776056007,-0.117135185921699,-0.0784051829279079,-0.187048625579643,-0.754481818223277,2.11486475851691,-0.0687415306831952,-0.05303677164546,0.0734547186525704,5.16100930953727,0.00529120669516707,0.00135870801998557,0.000234916384282822
1.41,1.70615336298069,0.128832660393422,2.59368202386616,-0.117739022243187,-0.0604075200399281,-0.0108516776662556,-0.340591475353849,-0.582153633559547,1.90805118097147,0.133934368871932,0.00178129370255774,-0.0274825133767683,5.28986353876937,-0.00406085755605609,-0.00316709046815692,0.00182078447513965
1.42,1.68800559787343,0.2438373183149,2.55892763892611,0.00410497392019893,0.000374399047728046,-0.00692691971741382,-0.228172356456542,-0.612390096341088,1.97998671655276,-0.211824690538937,-0.138240558545256,0.0402839279926464,5.31828521553051,-0.0012694764950607,-0.00200670778299583,-0.00152254115023376
1.43,1.76931591522737,0.265569728475101,2.63723342757307,-0.0959373083383594,-0.0194672256571904,0.0531510299600512,-0.108287639712541,-0.669443344642105,2.0194962429686,-0.0665148132032145,-0.0653505756591834,0.000828651275243647,5.14231035315851,-0.000241022493170732,-0.00196771371923613,-0.00253951652001035
1.44,1.77682064478505,0.196970476662999,2.63238509352215,-0.0717313099424591,-0.0231522349729243,0.00633974648953917,-0.18762013085603,-0.619466606431604,1.820625584282,-0.0540498031095283,-0.0888722691640692,-0.0482389118729121,5.31887917964234,-0.00162961837013118,-0.00160079229285838,0.00199958352003615
1.45,1.75688006297634,0.227238733202299,2.57704646087957,-0.0583133705350067,-0.0239296328039709,-0.00342219908103445,-0.1658025204108,-0.649761888912848,2.00217852041557,-0.103933838149481,-0.0669137429481887,0.0555457984184841,5.20811224332709,-0.0010409642528718,-0.00230482101077559,-0.00244368846861702
1.46,1.74204993334395,0.188667545263943,2.64007158590571,-0.0971842552431323,-0.0351905969925362,0.0175707726741914,-0.197702885335358,-0.69525938210735,1.87590531376593,-0.095179267003249,-0.113755227033554,-0.0550281960272457,5.24231799824117,0.00086658982456369,-0.000793975255782746,0.00177497288739765
1.47,1.75508807734905,0.194123865336438,2.62289405509646,-0.0724129329551993,-0.0321800922651702,-0.00430137740083351,-0.16952456345139,-0.627880220943378,1.94460725856746,-0.000995358158541806,-0.0334544905720787,0.0535376879332237,5.20824384388988,-0.00304867108186104,-0.00299970023621823,-0.0023057412413164
1.48,1.70894746674531,0.160976860171993,2.61404730908651,-0.0820492821669769,-0.0487651992514594,-0.00710114410359459,-0.240764573980613,-0.740216834044695,1.86300298755389,-0.198542183975594,-0.16203946297493,-0.0734067565542949,5.2612770448526,0.00306520265794957,0.000463420231884059,0.00381138499884595
1.49,1.73580102156486,0.169958685606939,2.63927352758385,-0.115661599055146,-0.0554035042823311,-0.014668992803424,-0.17478225820559,-0.662115025777827,1.96780273988375,0.0848760659519543,0.0156030200329927,0.0956036594360689,5.14733482016993,-0.00302981696980119,-0.00353521352163373,-0.00382007133350402
1.5,1.74646479951249,0.18306272297032,2.68232165523337,-0.00798999816053005,0.00784931504391874,0.0501538950214318,-0.193435002961906,-0.640601738902756,1.86317222051513,-0.166264235474366,-0.148798790103701,-0.0728780367078659,5.27572305807729,-0.00178924461773711,-0.00238038569893699,0.00112802163012794
1.51,1.72311026445288,0.174216487374461,2.64025301227953,-0.125968711757835,-0.0708761768045351,-0.0339975247875403,-0.147515949459063,-0.788956055893089,1.9602629763475,-0.131019639408812,-0.114369048682112,0.0202837990279611,5.12227890320254,0.00331570663491663,0.000572058294070357,0.000644077714263195
1.52,1.75087045096859,0.118295290201502,2.69973792793233,-0.104381422282962,-0.0500160186824014,0.00931004516576003,-0.213246154959739,-0.649156002393445,1.84986874415191,0.0858043885910649,0.000748768124181051,0.0163656916070559,5.19393363585438,-0.00360371498291199,-0.00365455421719008,-0.00120104365904739
1.53,1.74973973826414,0.2011139237946,2.69065936977726,0.00935019232781908,0.0218239460211052,0.0389353606928963,-0.145574592081907,-0.647876608001886,1.92715086214392,-0.173123117735678,-0.139752762398683,-0.000678701506226315,5.22201219578277,-0.002576122679653,-0.00334715288146237,-0.00173465778800125
1.54,1.74059211008448,0.161505498925761,2.70374323005397,-0.12506359082855,-0.0645774544207201,-0.00140619101857566,-0.114776865207868,-0.822564641983228,1.9246844087189,-0.157543946640768,-0.154399927376097,-0.0371556095648977,5.08597802784527,0.00399335023934143,0.00136919277421593,0.00182563853851653
1.55,1.77437819028672,0.106025780526489,2.73404918151173,-0.103199411229397,-0.0562803622287929,-0.0015057721774677,-0.183408158968704,-0.646619157477411,1.82825358852993,0.121179962783614,0.0425940512526606,0.0519038679662254,5.16708776655274,-0.00463036310860227,-0.00449269627614326,-0.002362089441692
1.56,1.69619005854967,0.126748190312659,2.66089153915104,-0.0316542585652266,-0.0185638022192459,-0.00186939801221693,-0.230920554534005,-0.761669020683158,1.85953664865079,-0.26163385117836,-0.220164464991896,-0.0713385771522462,5.22623711342434,0.00217804850138725,-8.71147381912519e-05,0.00347461707322448
1.57,1.73159692859905,0.133786202057282,2.7318234538055,-0.140465901448241,-0.0785050068880432,-0.0103233833430212,-0.109779975896806,-0.768211241065186,1.94316781093832,0.0490944265052218,-0.00705154630943859,0.0913068949293912,5.03809444970049,-0.000802588877677535,-0.00207549833180078,-0.00383588184399436
1.58,1.78854165039931,0.132937516211781,2.78894591273863,-0.00230493895347292,0.0200059621153513,0.0720944493324915,-0.158289601990295,-0.618446391743724,1.81763804081944,-0.0573392588046082,-0.0783343351548627,-0.0532268370397671,5.21339367359197,-0.00496946948476135,-0.00523740022858661,-0.000807102814530296
1.59,1.71460580353791,0.139324138166234,2.70334845494613,-0.0937571575769027,-0.0533396826901564,-0.0321211112138695,-0.116766602779065,-0.869009655483263,1.9113956445252,-0.266591516902481,-0.239717589219837,-0.0275364960717178,5.07570378023049,0.00545474180565082,0.0024259216292528,0.00282909999843265
1.6,1.72828553352365,0.0272000138082436,2.74940896035213,-0.184886157874747,-0.129804228122461,-0.0355341131354908,-0.208213772964957,-0.778392650202057,1.77519277574933,0.146908625916583,0.051897706712399,0.0424887339458122,5.15091886326653,-0.000739752748178766,-0.00204582428829376,-0.000336914350151867
1.61,1.69026364435988,0.0626281525115627,2.70220633795272,-0.0182539214201252,-0.00996179950218109,0.000164694298703846,-0.262075846018873,-0.711299159042585,1.95700347801964,-0.0990803851115802,-0.123303654143684,-0.0229990923316168,5.12608197308997,-0.00285980389146718,-0.00367507919570218,0.00110057221449064
1.62,1.69853062750431,0.124307686335534,2.81507129592831,-0.0866569411778345,-0.0496856710588715,0.00333551631969178,-0.0926389364421571,-0.841248109749456,1.84474294079544,-0.159844138929752,-0.161587749904348,0.0335795217361036,5.04318090251885,0.00213474356260483,0.000262273208255959,-0.00174744000727102
1.63,1.73507483807728,0.0276995258080242,2.75687209265084,-0.139128187052957,-0.0927123124192426,-0.00358786951804562,-0.183832532672028,-0.807245880186456,1.74750670302219,0.0208436622805969,-0.0346465347851364,-0.0499426793280519,5.14462592940861,0.000260891151474657,-0.00140891464036555,0.00252263375066694
1.64,1.71260882319252,0.0551733950306844,2.74024051232549,-0.0544790712887213,-0.030782179514266,-0.0222214911450674,-0.195792407546141,-0.75086551769344,1.90514113003951,-0.0455442695138051,-0.0877564167483159,0.0513982971150386,5.07826705797237,-0.00242866292107739,-0.00336242299408613,-0.00137429081120199
1.65,1.67620609436501,0.0462517947196298,2.78745716621196,-0.104820894936819,-0.0772438952884767,-0.00626617762463827,-0.165204580522508,-0.888541195875183,1.76459895485976,-0.173963010404432,-0.186127970653518,-0.0518847776009009,5.10129669578449,0.00389048822842307,0.00136996901472696,0.00274535932166338
1.66,1.74236142725308,0.0374851492602996,2.79134045202235,-0.111487390915354,-0.0729453262457792,-0.00528862520606926,-0.13888260014699,-0.762028494963313,1.85663759687322,0.117166020417037,0.0387626856931771,0.0739376123344279,5.02574474427011,-0.0037972731050074,-0.00443275555552196,-0.0032387890802527
1.67,1.70778658883303,0.0423931883582277,2.80158008867483,-0.0268835398306611,-0.0162885677184981,0.0174109056157575,-0.185530940328799,-0.815200052032448,1.75179958582022,-0.220335256416422,-0.215682318379257,-0.0810299449911554,5.15355147158745,0.00105977978160104,-0.000869056750658541,0.00301330203976895
1.68,1.72490339067256,0.0551971377476168,2.80295357291509,-0.134169313329562,-0.0885661777642507,-0.0192080443171064,-0.0613677583683568,-0.878340261921138,1.88218531795138,-0.00260998861340954,-0.0493367382240386,0.0769347259111427,4.9608845362429,0.000587154840109742,-0.00110291301997338,-0.00274219545279913
1.69,1.7705706943885,0.015713201495005,2.86574324437162,-0.048353176058247,-0.0224119617601402,0.0449820782238789,-0.151038415568016,-0.743564980525285,1.73417154560757,-0.0174446716170532,-0.0663899471875669,-0.0464525949111789,5.09974102785371,-0.00341500400002079,-0.00416185954193889,9.33146176617735e-05
1.7,1.71134839699371,0.0495612068376707,2.797677642109,-0.0737600673150871,-0.0474172539592733,-0.0211787835130416,-0.0933811056429665,-0.901750080518878,1.81073315271934,-0.196833050995972,-0.199052960440106,-0.00129067240404668,5.03439214480772,0.00281225613852379,0.000498823986132172,0.00105549382536531
1.71,1.74746040953292,-0.0103244625856841,2.85027334371136,-0.136544920595878,-0.0933679094485353,0.0013729775221764,-0.103641735362132,-0.855295597380006,1.76002367354034,0.0631407939825383,-0.0123557551395619,0.0262853025013121,5.01294344556365,-0.0008980412295879,-0.00214170217181676,-0.00131731355460042
1.72,1.72750273660164,-0.010204769079623,2.82752619233602,-0.0441408618129508,-0.0302666114836618,0.00498821327158076,-0.1729296368502,-0.810953151602197,1.77392197368514,-0.0959577389341343,-0.125021800182357,-0.0335428707633021,5.07394410537741,-0.00137426772616675,-0.00277539264141417,0.00134965596230392
1.73,1.6963575097005,0.00598041031066965,2.84092470108789,-0.109682710211863,-0.0773390244647522,-0.0215762143614773,-0.0910108232002913,-0.93617181919155,1.78588418655126,-0.118076615976685,-0.149939834577958,0.0221302871359487,4.98898689039211,0.00270419107657679,0.00032442617327672,-4.10442252461177e-05
1.74,1.76266616004212,-0.0213994103863617,2.88705524195079,-0.0900133346515441,-0.0587948157280953,0.0276116831477061,-0.0984360624285143,-0.80512538734338,1.75192968863107,0.0738269744783947,-0.00887808411011072,0.0167380105415709,4.99787082430607,-0.00357962013939932,-0.00407497409946382,-0.00208866285981699
1.75,1.73055861550184,0.00230022196282675,2.86171666726528,-0.0336682274883355,-0.0241266847362874,0.00931466523846783,-0.10791126361096,-0.880328572265665,1.7288145252025,-0.199304010500595,-0.195986112831621,-0.0442276605271332,5.05890463869677,0.0009793703697024,-0.00106981760421899,0.00164938373450342
1.76,1.70439083115183,-0.0555672128293058,2.84136195626438,-0.165811714377539,-0.122526938201324,-0.0415700446972253,-0.0904707769935942,-0.994878396656703,1.76179773254465,-0.0368438646762876,-0.0951546606622397,0.0165468464877648,4.97921757204285,0.0037597411427865,0.000634300772392383,0.00117121059099365
1.77,1.77024006382589,-0.0511905709713684,2.91693463075201,-0.0504786916236914,-0.030856199051948,0.0337222712366721,-0.115101941572583,-0.746383103101761,1.8126182398194,0.123138141756478,0.00848389096957717,0.049208391842858,4.95192663288401,-0.006790687016697,-0.0065135890681587,-0.00387850808477767
1.78,1.69519644495024,-0.0110985065344734,2.89640501480982,-0.0339121552190026,-0.0411414854281388,0.00386646908601614,-0.088149595008478,-0.988864952638995,1.65399443121501,-0.346680055724584,-0.308875304275993,-0.0994317745003225,5.05509679831709,0.00533723810324817,0.00224892743835594,0.00452569892762394
1.79,1.74416099131347,-0.082519176830798,2.87304599065551,-0.19552464271763,-0.144901755918351,-0.0375492093534613,-0.0470498731775937,-0.971066869202555,1.78725329156855,0.157784501898957,0.0621080735035755,0.101125398717914,4.917314867909,0.000114487969437665,-0.0022585633658383,-0.00301877505536886
1.8,1.73032482508436,-0.111852767008172,2.91004670530149,-0.0178216074808749,-0.014653179112065,0.0264498316361863,-0.195424585466694,-0.811461292082602,1.75378583028039,-0.0641543306933592,-0.140169103768444,-0.0778051946525194,5.02035594037451,-0.00325474083013341,-0.00396055897190338,0.00242479741725445
1.81,1.6777078944,-0.0303911272815944,2.91882711712415,-0.0994313102284615,-0.0866557807344759,-0.0365205145630111,-0.021924217033864,-1.03554432275041,1.73982612336729,-0.195009714585799,-0.199416698747427,0.0458803551770754,4.90892763419974,0.0045325454521344,0.0017142684153705,-0.000453740317517078
1.82,1.76657079476304,-0.12161903137729,2.93859260351809,-0.138331746933978,-0.0968387485094764,0.021481991911265,-0.0890734240502413,-0.900473824807015,1.65970943604237,0.137077489242161,0.0262905354306123,-0.0039578110581549,4.96044106627031,-0.00239704792154183,-0.00363301514797005,-0.00083585879391235
1.83,1.74717522096778,-0.0564397505515437,2.92574880019803,0.00748886472204416,0.00458978066247205,0.0208702912215884,-0.0767038416554536,-0.853772855929519,1.74509855820903,-0.134966634980726,-0.167694610586253,-0.00155277353219647,5.00045052482969,-0.00262504874792019,-0.00370124200507186,-0.000899181741820339
1.84,1.72005519870831,-0.0718011945375339,2.94460277946639,-0.127958672549986,-0.100713253618186,-0.00780344547314663,0.0203809637394965,-1.09137130006819,1.73115950212422,-0.167444892464319,-0.194013647471106,-0.0252897981826866,4.861864692907,0.005523202151041,0.0023576208257018,0.00156408477876775
1.85,1.78104354923131,-0.163871096152243,2.96595108882965,-0.128631439052935,-0.100745537818,-0.00888720505882807,-0.098206019460689,-0.886215759452553,1.63071967167879,0.172341295715281,0.0522509296762404,0.0376405682445841,4.94843945116137,-0.0036826060928104,-0.00448829982266468,-0.00136382783916096
1.86,1.71365618894575,-0.09307954985689,2.92071911148143,-0.00196290166732455,-0.0119131499516699,0.0138586353115388,-0.0972010831377124,-0.926767755731096,1.70576683822273,-0.207527342760448,-0.221857004240986,-0.0329477238128913,4.99614192967143,3.43816608886509e-05,-0.00191586781241463,0.000888113672177001
1.87,1.71888951402706,-0.108092339202737,2.96578736988112,-0.15158580490736,-0.118366610181906,-0.0157804319817802,0.029563799697386,-1.09310694096396,1.72717728747436,-0.0560446323217015,-0.118914132559097,0.0180964456690736,4.83066672480457,0.00382683453011571,0.00105753613000855,-0.000120352446761417
1.88,1.74862655931198,-0.21466921911845,2.96374987140304,-0.11438675523477,-0.099552769866415,-0.0188333977693741,-0.145385238287325,-0.927083448113527,1.59661421754158,0.0818268418993608,-0.0260434279858375,-0.0219874234044693,4.96657574506609,-0.001785105996777,-0.00308735564917645,0.00191049984018159
1.89,1.69530168210769,-0.120026933101426,2.93950591820412,-0.0388021220998402,-0.0430491523751701,-0.0102923165169243,-0.0693799058819859,-0.96914805216903,1.71515460091893,-0.128579178638488,-0.169912286951716,0.0381592168585276,4.91398267129372,-9.18930124712084e-05,-0.00192342050194201,-0.00134391997686991
1.9,1.757626036894,-0.112381793459756,3.02697845709245,-0.0920996491320367,-0.0707622361222976,0.0416864928022376,0.0540854340784033,-1.02225769074771,1.65722136784638,-0.0324153000955036,-0.10189612478703,-0.00539568353532853,4.83532290634917,8.16141749888482e-05,-0.00138301458236299,-0.00172880417346484
1.91,1.75849346132449,-0.197459660202991,2.97067036993064,-0.0986586108490053,-0.0885271180244913,-0.0190515982296561,-0.059152931909113,-1.02780249646326,1.55079222380852,-0.0647389453662388,-0.116373426776094,-0.0505070455153506,4.96065937417867,0.00161700595390385,-0.000951077446264444,0.0032674355602107
1.92,1.70503626189518,-0.207973217625412,2.92828322320858,-0.120249831923986,-0.105061770611815,-0.0473786050045951,-0.0718094599421979,-1.04912700294167,1.67590828007009,-0.0116434416463428,-0.105786863207969,0.0481968521426635,4.88587090295623,0.00140395778631363,-0.000994818737195291,-6.79575088061193e-05
1.93,1.75920455942939,-0.159813984819768,3.04243791071859,-0.0443858714724672,-0.0450761317056155,0.0476911127376271,0.000694870974372486,-0.92546083697475,1.6630716196431,0.0300606432185491,-0.0647361575673395,0.0233686801340236,4.8461733551036,-0.00390128559065624,-0.00438911499377545,-0.00335736344331249
