time,x,y,z,roll,pitch,yaw,xdot,ydot,zdot,p,q,r,thrust,roll angle,pitch angle,yaw angle
0,2.01841953230695,1.01841953230695,0.0184195323069548,0.0184195323069548,0.0184195323069548,0.0184195323069548,0.0184195323069548,0.0184195323069548,0.0184195323069548,0.0184195323069548,0.0184195323069548,0.0184195323069548,8.85041521962739,-0.00340781762067888,0.00255684868328766,-0.0017567426481238
0.01,1.2193717654818,0.619371765481798,0.0193717654817975,0.0190869674430452,0.0189030478697797,0.0186269432547703,-0.0578596727639776,0.0944612070406918,3.99501394919709,-0.129007063984529,0.10937098638957,-0.027525597169352,5.86528438837697,-0.000111889596739062,-0.000487896950450955,0.000414544275766699
0.02,1.30900650799581,0.70458965349493,1.62479731545413,-0.0509144631216955,0.0459335136989565,-0.0101486520041211,-0.0229616340443554,0.0269427611626108,1.01175076452383,-0.00392950732673674,-0.0158263019431935,0.0097578015203609,7.1708687713759,0.00058429498500113,0.00125610647199324,1.91530383334056e-05
0.03,1.32877462827058,0.68388025699699,0.442829159138753,0.00430009464275786,0.000996645519010138,0.0105407619325536,-0.10684284566801,-0.105752129849368,2.34928998458575,0.0279805281790319,0.0551438860660655,0.00568434501406312,6.92333357711611,-0.00224734918747947,0.00122834391228977,-0.000772749115128488
0.04,1.27260156871973,0.607889519255656,0.979964387463406,-0.00260061648531163,0.00976525458437631,-0.0119153210823506,-0.0362081743304754,-0.0144032596128824,2.09905896878663,-0.103639698257975,0.0379343313383238,-0.0277646478999095,6.74670451548594,0.00103082928924126,0.00155352036189107,0.00187523215337071
0.05,1.35353149715593,0.697286123822504,0.928486178782077,-0.0102556571765939,0.0484987588245703,0.0216089004413473,0.021994016588488,0.0471348332999985,1.97903193543708,0.0669173583974809,0.0889987971892983,0.0663728160682931,6.87404899362821,-0.00332474856301021,-0.00149687225461655,-0.00415929417426426
0.06,1.33749315137383,0.682803846215151,0.862864320572714,0.0277311331288769,0.0368986211922296,0.0265727041571269,-0.111467411304852,-0.0230646071858311,2.1029430783944,-0.137522148927252,-0.0537356000398115,-0.0877838415878436,6.82428071794612,0.000214570994673501,0.00214736351301116,0.00289508755465525
0.07,1.32358838692928,0.694612111969865,0.96395537452695,-0.0215371848273532,0.0142153452157886,0.000169006593918539,-0.0378996740470737,0.105973847771751,2.09970235187299,0.03370687105809,0.115420136364098,0.0891525006355638,6.75677787882199,-0.00241760147400522,-0.000809386200984508,-0.00422834949404758
0.08,1.31714757055629,0.711159812811264,0.942006572150433,0.0176098138242013,0.0516320305915516,0.0391664415708987,-0.044044475521753,-0.0322119922016634,2.02426823290878,-0.0997480633356473,-0.0238257833182952,-0.0862679982784418,6.82768430944131,-0.000376011709204675,0.000810089810245005,0.00222967320731749
0.09,1.33070618287755,0.671390105572153,0.935672350083935,-0.0248537670422408,0.00929275712310138,-0.0178136779619121,-0.101878778939862,0.0553913672472224,2.1272764248432,-0.00565055217949665,0.0492958951831771,0.0600792199612976,6.7456130045072,-0.00111414157548009,0.000824953374217635,-0.00200455696044944
0.1,1.25660309514054,0.657030789059689,0.948036767149453,-0.0322391272855473,-0.00571456432398112,-0.00338805412071991,-0.0978547082532072,-0.0920335588110099,2.02272476825186,-0.0726318354180317,0.0114292548396766,-0.0663057338866552,6.82122017215447,0.00169214414032564,0.00226799919601836,0.00330145357680174
0.11,1.27881374196204,0.617636654128631,0.929735408735719,-0.0436988548517475,-0.00728841405842269,-0.0387292956193655,-0.0466404429725454,-0.0878600806163802,2.13049120620491,0.0533719245677356,0.081333651691537,0.0581049481408892,6.74669327954123,-0.000897543247031717,0.000819620750644364,-0.000918342364294305
0.12,1.33855568007963,0.658524282169404,1.02108863161179,0.0427942190092126,0.0583314595891793,0.0461235453023202,0.0144161776749726,-0.0484434802858484,2.10756099522175,-0.022303468830362,0.0564591386920007,-0.000373854754597974,6.71431541097674,-0.00352471938205774,-0.00154771250339419,-0.00215927953793826
0.13,1.31934884999817,0.630175528480673,0.989309746306001,-0.0231672767237763,0.0135328493798148,-0.0136305689418146,-0.16216216613262,0.0381426123523094,2.06702834046467,-0.157661395752401,-0.066052155030671,-0.0567561980233166,6.7490434845737,0.00264768204527901,0.0030050578983468,0.00333490594652204
0.14,1.2767948327739,0.695329562081351,1.01195580488483,-0.0542913658264755,-0.0137203069886987,-0.0103402429354332,-0.0486336982138809,-0.0313691879794284,2.13294299481611,0.110640798066786,0.131118199654882,0.0790081183796223,6.68503115901753,-0.00249354432593933,-0.00032427962669952,-0.00324778310245478
0.15,1.30031598596032,0.644419420251778,1.03124567636294,0.0350407936766304,0.0477474676842581,0.0230933153935758,-0.0324349112549344,-0.116605280609227,2.07570444502033,-0.113989940181487,-0.0117299922778245,-0.075403300427459,6.72352702131345,-0.000719158731691044,0.00041411297814854,0.00247502062990753
0.16,1.313469487915,0.616326790174388,1.0236290321901,-0.0510025333962406,-0.00366215892329108,-0.0326171951115498,-0.130795513921894,0.0360853303149499,2.13598153244414,-0.0371880888442704,0.0207731768993509,0.0494923543780101,6.66499134401031,0.000777207904121857,0.00168167845055818,-0.0007997948275613
0.17,1.24659795617007,0.652699864887661,1.03980489216421,-0.0445571324065112,-0.0133334046250745,-0.00502902682100304,-0.0874912258403231,-0.142395860038509,2.07372015655558,0.00442422061806461,0.0480891911043824,-0.0389413620989893,6.70449929492223,0.000174434367607585,0.00144901558107387,0.0020819421460477
0.18,1.2683913908511,0.583449141678745,1.02781567069091,-0.0252997691292569,-0.00109710405130419,-0.0396470430459968,-0.0658152953389662,-0.13677544118338,2.13218560136043,-0.0179771308896089,0.0416276877332064,0.0235395514670057,6.66326361391066,-9.79967507044232e-05,0.00112279952274509,0.000758638377210331
0.19,1.32395857398774,0.632843349295106,1.10503612362088,0.00789609211340249,0.0393923400916439,0.0280122030367276,-0.0155828072002617,-0.0367065967361485,2.14242240701236,0.00568848302938505,0.0649790122658954,0.0314377728456685,6.6074884709372,-0.00298216345294827,-0.00124200905282118,-0.00281078724044217
0.2,1.317470270883,0.646535233769604,1.10271004525064,-0.00175101421749678,0.029065993961438,0.0106486665838651,-0.10938574902193,-0.0211245184734381,2.08824441452339,-0.128102626451283,-0.042593088828257,-0.0607435097166354,6.64886284420367,0.000646401593431805,0.00160158946349632,0.00236977706143475
0.21,1.26489093663203,0.639423993425105,1.08239082460156,-0.0698872218430374,-0.0284057860285354,-0.0384419680773941,-0.122798532287828,-0.0576366775490468,2.13337522475461,0.0061617448062251,0.0577482271233446,0.0370787502086497,6.62178684720078,0.000760944129908835,0.00157078820060749,6.60664338989341e-05
0.22,1.2615251292795,0.626534649440785,1.11314311984944,-0.0165842666568256,0.0133512307480477,0.000737928915657965,-0.0396801736411423,-0.163690200787314,2.13297834867034,0.0120552232895179,0.0553321133603174,-0.010920618792184,6.5938465426421,-0.00153870961974149,-1.16125300943298e-05,0.000480477263438739
0.23,1.3294431306145,0.616739379479875,1.15407443683757,0.0170118816705487,0.0436148985673457,0.011304132369736,-0.0448069888366897,-0.0363663064496562,2.13869074851602,-0.0550723143814203,0.0202202992368634,0.0236356784129844,6.57626979232202,-0.0021340623114368,-0.000560074404379612,-0.00165336639462465
0.24,1.30381639219221,0.645612689340395,1.15317833933462,-0.0274726648972671,0.0118232828584067,0.00792989964016428,-0.119459112554545,-0.0187760380076854,2.12595314889166,-0.0946634245102896,-0.0158955365169309,-0.0362267223504188,6.57089506214848,0.000765541879015118,0.0015159593486728,0.00133825235804446
0.25,1.28672406352907,0.667012477197521,1.17354588034519,-0.0328791967894676,0.00822191330597032,-0.00425660377162475,-0.0600414604473837,-0.062055429992568,2.14407410182988,0.0316448881658305,0.0745428147317366,0.0361628247478396,6.53887458498319,-0.00203618483389562,-0.000460432876731034,-0.00151129733490332
0.26,1.30727297602646,0.64487285759106,1.19009961777226,0.0155108953811195,0.0422264732975012,0.0211969180847584,-0.0602234530216342,-0.0753002420042371,2.12690347043844,-0.0847218951463981,-0.00384435347480487,-0.0261346718826022,6.55410793090692,-0.00138373818587921,-0.000142790578437998,0.000234436952534632
0.27,1.31473643316918,0.647040140020063,1.20277993725671,-0.0249361544530645,0.0184755914142238,0.0035003203345099,-0.0969073701723713,-0.00302352157576541,2.16603310052146,-0.0524532154251735,0.0140659943709355,0.0164550421347764,6.50038536579705,-0.000713200349621061,0.000414435584674059,-0.000946942066591613
0.28,1.29062872766745,0.668728616112819,1.2259711462727,-0.0190769959839112,0.0186432291955425,0.0141529751380564,-0.0792264457527365,-0.0649758130861718,2.12029514024406,-0.0314925573048971,0.0293637164797353,-0.0142899360217639,6.51895061749066,-0.00131004666569169,-2.9503508957386e-05,5.14371653069182e-06
0.29,1.2619494807709,0.606653838036472,1.18668479234303,-0.0438671063240834,-0.00796009422335665,-0.0312739534902326,-0.136625690210699,-0.115919830953088,2.12593595352233,-0.0833465781698137,-0.0146877962643021,-0.021743955548212,6.53300539106686,0.00161201353576885,0.00195189263091943,0.00250877083959465
0.3,1.27807429133976,0.62567319971568,1.23418038412012,-0.032343827332634,0.00654183004193112,-0.00106242373541691,-0.0521188982547969,-0.0966104051898531,2.18718314916234,0.0620651156769499,0.0894405614321745,0.0587298682978582,6.45092300213038,-0.00284556253725648,-0.00103999390482219,-0.00272833925473764
0.31,1.32431976393492,0.644790498827925,1.28427447486351,0.0408056454257123,0.061944068821388,0.0437716197190306,-0.0442637906528774,-0.0598641013945845,2.13083482708456,-0.108645242302021,-0.0132616737350867,-0.0405219858845201,6.49807909680464,-0.00232956514291793,-0.00111242162381973,-0.00014371142461917
0.32,1.31694516730567,0.649607317131769,1.26789418209601,-0.0365302275480068,0.0151208594605661,-0.00338915437059615,-0.129040258274906,0.00994319149699163,2.19618869204337,-0.0933290669031626,-0.0229995052458056,0.00776065325303486,6.41870558020306,0.000448122463611072,0.00114155423344218,-0.000208779953744666
0.33,1.21605081961278,0.615006470587605,1.2508619125703,-0.0897445879663548,-0.0483702703957629,-0.0411070692862018,-0.173213727055067,-0.173349459701526,2.07199512749186,-0.0303088458793324,0.0143198040447669,-0.0428046283662764,6.52779369557613,0.00263067642947961,0.0025313984038748,0.00397971289565458
0.34,1.24987542884056,0.589149545628746,1.25264530555326,-0.0240197954761949,0.00566996774533017,-0.0218152689385176,-0.0344008068513507,-0.185582992551192,2.25082273975211,0.0921940018755675,0.102119081849582,0.0797018641253224,6.37538858301862,-0.00368892154074177,-0.0015440173149858,-0.00273742857850689
0.35,1.30105803795401,0.577056401674394,1.33209325502962,0.024737849098499,0.0394299600584957,0.0245412870624403,-0.0936175212727339,-0.107995155848294,2.09207861130186,-0.166797487985379,-0.0547607540818281,-0.063431745054717,6.47469322352657,2.85841129085306e-05,0.000640413388110415,0.00184370993698994
0.36,1.28896706056323,0.622813501359902,1.29573330815666,-0.0682240264941776,-0.00980576263447838,-0.0191914659965737,-0.114150280055883,-0.0373723970295771,2.22112550708618,-0.00571801464457611,0.0405720582521898,0.0437417989740003,6.36337633160088,-0.000151033592791277,0.000485074045806701,-0.00116390124604063
0.37,1.26052983388492,0.633288871673922,1.34609037038455,-0.0199299620590298,0.0129622814471421,0.00797728216400188,-0.0897492027203196,-0.160174854813159,2.11492184906596,-0.0257785818708139,0.0189336574026186,-0.0329991978933857,6.4171843015051,-0.00141235998236768,-7.14502303974154e-05,0.00118332692255368
0.38,1.2834783638872,0.5932775655345,1.32584868812681,-0.0184150027257844,0.0144588860287712,-0.0135707383326832,-0.0955030438256341,-0.102235806390573,2.18395149647353,-0.0685697095686597,0.00599036445621085,0.0248206276011729,6.37751037716133,-0.000679427229030234,0.000169664459847504,-0.000535043195320517
0.39,1.31290161240189,0.650226319959214,1.39675244769303,-0.00527226040292365,0.0393731750083657,0.0400448899021336,-0.0477195354782588,-0.0510084450652593,2.18519436207952,-0.0142526222323439,0.0398533013683652,0.0138963808666516,6.33574539692095,-0.00308763649548993,-0.00179763063430207,-0.00254417590052582
0.4,1.31238918626887,0.651195611335154,1.39593256391403,0.00211376295044432,0.0386506435986289,0.0206519384782077,-0.096097882602613,-0.0654193804637617,2.14724357404879,-0.124651240509812,-0.047912664904435,-0.0410346826903998,6.36948933079353,-0.00071940190234511,0.000298756264965357,0.000968057861041645
0.41,1.28115707774195,0.634747314648967,1.38510762253977,-0.0540138036189636,-0.00731720570872534,-0.0113001039050797,-0.119801467907855,-0.0765375611708329,2.18604546061256,-0.038764257947731,0.0249719870285402,0.024060192040293,6.31900758199845,-0.000181408662006822,0.000456830549979594,-0.00060667367503148
0.42,1.24730602789963,0.606191185596391,1.39047942397318,-0.042583991510608,-0.000755290533824435,-0.00764661467331159,-0.117477027002217,-0.16601630375598,2.13300095343093,-0.035651651740106,0.0108883682294857,-0.0280825643072174,6.35346519457951,-0.000299369135660238,0.000352732945125229,0.00168910591070095
0.43,1.26935246648941,0.588437108551451,1.39612826504209,-0.0252831941935211,0.00988743827725788,-0.0126981666633343,-0.0958579472271548,-0.135445471148767,2.19343873044866,-0.0268772158903713,0.0210678982547655,0.03419075175336,6.3053315417243,-0.00153817730779348,-0.000326156632653403,-0.00101861648884241
0.44,1.28004682213752,0.603245974683792,1.43762695702087,-0.0176819293599563,0.0178923643569862,0.0162218686786651,-0.0983771215849213,-0.115711571176121,2.1606668268836,-0.0743286694115532,-0.00230228261770477,-0.0196945521059202,6.30608461564314,-0.000924518110807708,-0.000158152853324038,0.000165347755974974
0.45,1.26278248820789,0.59576635880732,1.42427955858739,-0.0506212081644941,-0.00447517721541074,-0.0185922593450463,-0.128168350486356,-0.134554718318942,2.16360046284489,-0.0609001046222614,-0.0062134934164766,-0.00583657116204776,6.2974870273198,0.000373932191039075,0.000787254031918278,0.00115388987121666
0.46,1.256006612952,0.593830082686521,1.44318237149216,-0.0413900109877775,-0.00203155979038467,-0.00859145428095765,-0.104990350949024,-0.157563821576051,2.1763009384626,-0.00489693246676054,0.0335268430020577,0.0187460782831502,6.27273661679823,-0.00141917831898297,-0.000312939474087941,-0.000481954149624163
0.47,1.28061403167738,0.598332678440186,1.47505370416114,-0.00470452626262197,0.0282489402845204,0.0150632498438261,-0.0826713790236129,-0.130289777008403,2.17584670216986,-0.066098700823356,0.00279503644023915,-0.00397277597790443,6.26729950674508,-0.00185163180690701,-0.000912557922146344,-0.000519960222064016
0.48,1.31140291763572,0.631542926276263,1.5092581761265,-0.00801328854860524,0.0378865526286139,0.0271150753333418,-0.0697296876585655,-0.0701940662318702,2.20103110393258,-0.0659733053939324,-0.00269549353617372,0.013191285397548,6.22599965953252,-0.00216457803382036,-0.00118815544361316,-0.00189915285394241
0.49,1.22850238204544,0.569652387002793,1.45770536116379,-0.0842423289785974,-0.0404041103370826,-0.0412076405151314,-0.206009325917141,-0.199114871330676,2.10790840232113,-0.142691848807032,-0.0767393152204475,-0.0796097919650209,6.30317344208755,0.00439499105798956,0.00334978979721454,0.00572951430408647
0.5,1.20934614276737,0.553258611139371,1.46059562852756,-0.0884112852650162,-0.0477630293289521,-0.0523579398757868,-0.108495468357903,-0.223002235557302,2.23755623302684,0.142669139475192,0.123817173056212,0.103728872581885,6.19250282962966,-0.00257088941790928,-0.000969042334618602,-0.00243000779194042
0.51,1.29371711937243,0.584812988369473,1.56336528076258,0.0680962372456825,0.0758946133826962,0.0621338118231794,-0.035636449305117,-0.154626186896812,2.17991434716325,-0.105843053118314,-0.0066558352102539,-0.0338536339681723,6.25435563318387,-0.00422309311931812,-0.00331134589699415,-0.00129428676300139
0.52,1.30664900696215,0.595306290451475,1.54235598298012,-0.0438989881281842,0.0162898751894852,-0.00492728028182362,-0.136545646083278,-0.0730502087546284,2.25032867319933,-0.178841333228986,-0.110022051978813,-0.0185637622095445,6.13442977650587,0.00211308236200402,0.00213312329778944,0.00111675035400003
0.53,1.244613659529,0.615663640703982,1.57327481364304,-0.0896665756355824,-0.0428569240797234,-0.012241328511544,-0.123428473498023,-0.165612483265056,2.10451179814087,0.0633990717292065,0.0866846656466794,0.0188879569267788,6.21508081696055,-0.00131044221866657,-0.00023499783405137,-0.000314507632003028
0.54,1.26782104577218,0.5898830462942,1.54013764282697,0.0205020732423681,0.0495484448555605,0.0150498532431668,-0.0655834400361673,-0.184535902812422,2.22830114543811,-0.064296811819086,0.00572827480264236,-0.000420124684602757,6.17882723983405,-0.00324274840877853,-0.00244047917502432,-0.000671395886082704
0.55,1.26164681862384,0.549513635747313,1.57166334156723,-0.0574594667128077,-0.00902583976226693,-0.0197717970337183,-0.164227365472552,-0.165072732592199,2.16729198568118,-0.164976376635149,-0.102159357020298,-0.0300562436469808,6.16217484998366,0.00291230954693337,0.00265719812329144,0.00236346640736137
0.56,1.22002162679485,0.561933770226167,1.56419388222947,-0.0990258534017122,-0.054421386870029,-0.0310227873156536,-0.135079937997615,-0.211690798834003,2.16080321661516,0.0825668697639677,0.0958074151659513,0.0336250229892917,6.16445468326163,-0.00111599186446099,-0.000280697755296958,-0.000122816387236693
0.57,1.26111965813692,0.567937372274961,1.59792085909143,0.0255651364812833,0.0512527186275587,0.0193000624130008,-0.0660828977260988,-0.202531568947824,2.22032634461122,-0.0589888463038566,0.00281891330444202,0.00241172296795149,6.14092075209301,-0.00364697721289,-0.00268317463122346,-0.00100142611124818
0.58,1.31166420750239,0.592371422350502,1.65487728536202,-0.00875405969581848,0.0370221058657061,0.0283153713484797,-0.0806482782013991,-0.103496097039572,2.20864325941233,-0.142632315673141,-0.072623207238605,0.00268442312424041,6.09443570972637,-0.000668741814988043,4.82813955243712e-05,-0.00145605611361483
0.59,1.28348891870228,0.61654715528777,1.65368878465184,-0.0577280160072773,-0.00799802450006484,0.0151393956665377,-0.101078713316861,-0.142133805213063,2.15490842054421,-0.0347327219484102,0.0201623228873095,-0.0194122397459319,6.10596141424626,-0.000994739445704748,-0.000317738483437827,0.000203119460449321
0.6,1.25054738112526,0.573940810361465,1.62175736281507,-0.0386942694788117,0.00540413704141472,-0.0175711082594612,-0.122883129151946,-0.206713372208713,2.1612170637254,-0.0682107008371668,-0.0132459552677116,-0.00416948344857501,6.12265639301665,-0.000636542125812049,-0.000401130414955855,0.00103001969604324
0.61,1.27463489801565,0.57756759934251,1.66123421194797,-0.0260504982364565,0.0183326685247863,0.0146427460357242,-0.0855827706567851,-0.159834008784831,2.20877907503353,-0.0320957573706039,0.00505110848188707,0.0355111644531892,6.06456049332252,-0.00245294908658924,-0.00138173969963253,-0.00236442932100937
0.62,1.26181311099199,0.56927509964887,1.67244565356326,-0.032937494696473,0.00374561404153668,0.00923273657878619,-0.126468176834768,-0.192676086447724,2.14252747605011,-0.124313700487776,-0.0514079153106922,-0.0545194133030458,6.10121385643427,0.000303098894453502,0.000544664972100871,0.00214668443936329
0.63,1.23651457645535,0.54778821459838,1.65050747199644,-0.0797430517194594,-0.0281918790520493,-0.0355808689169556,-0.137517683284957,-0.214677997111946,2.1836900374906,-0.0214773164577464,0.0179167210399108,0.0334829431163469,6.06109506987354,6.6692904474376e-05,7.05615561060156e-05,9.65684706159602e-05
0.64,1.23870575748824,0.54457102072977,1.68401259656136,-0.0335485915380606,0.0053970916625505,0.00505381106513043,-0.117007294499747,-0.228375917802945,2.17292521510325,-0.025767996201705,0.00165026006479255,-0.00523723617674736,6.0589780672517,-0.00201413072965341,-0.00105762344774374,1.46034156837599e-05
0.65,1.24282027613409,0.532347016240257,1.68899263314219,-0.0387408160726306,-0.00421110716033829,-0.013950016036999,-0.131813930200863,-0.222845688264909,2.16596297511811,-0.113009971513164,-0.0444157443099972,-0.0096221884496252,6.05617536688408,0.000341150704082189,0.000486677228962666,0.00111713968891374
0.66,1.243803607058,0.543884358736777,1.70774295868218,-0.066586367139966,-0.0153986110361188,-0.00789801207720897,-0.116420799814408,-0.215513538272951,2.18219366035612,-0.0116521700071936,0.0218247544090361,0.0202167001818033,6.01629639961422,-0.0010321117320259,-0.000673522756355589,-0.000582397290514046
0.67,1.26486979116632,0.560958228538742,1.74117446200035,-0.0113538290402038,0.025828982072202,0.0185880287585388,-0.0884700959102728,-0.202807674279473,2.17255689431074,-0.0553059070460941,-0.0113347113199306,-0.00352167377005585,6.02902173932316,-0.00269916180229474,-0.00173537668660485,-0.00069613939245929
0.68,1.23997714145262,0.528104186117077,1.71974471123969,-0.0601695866292232,-0.0182059219623398,-0.0219923013797947,-0.150897737567032,-0.244328480659028,2.1622032697112,-0.149186083308242,-0.0782072186916987,-0.0317915862150039,6.01837775618535,0.00219893291469022,0.00168165802534392,0.00254816610999281
0.69,1.24584850548019,0.545289622549779,1.75719790879021,-0.0714535559125291,-0.0192138663772138,-0.00624360952744226,-0.0960200943332288,-0.215664766572913,2.1918673070757,0.0711096610224036,0.0771391352976822,0.0594958817101872,5.96275105686932,-0.00305951181104205,-0.00207170547116912,-0.00251393345065037
0.7,1.28203142542194,0.56769015733008,1.79485919763476,0.0326927528414535,0.0574851129366531,0.045136332211904,-0.0703415618392903,-0.196501262149378,2.16286796339376,-0.130850300866901,-0.0554185102156845,-0.0354389721161221,6.03494518865491,-0.00305394378106661,-0.00234007577506178,-0.00041536977227098
0.71,1.2694985993384,0.551649495501409,1.77794488865508,-0.0690128546768119,-0.0127151714250705,-0.0125653271792321,-0.121107877303121,-0.210258924707765,2.23335263466177,-0.146305452578535,-0.082184618319197,-0.00679798437892937,5.91009205395787,0.00196039596393565,0.00160152865233913,0.000920023791459844
0.72,1.25963503152349,0.56203938046609,1.83297537236292,-0.0650668851407862,-0.0140838820596745,0.0103968852294471,-0.0909950336554067,-0.209533340498771,2.12257605662146,0.0659249783025907,0.0773916345387277,0.0302855887431933,5.96042635526008,-0.00352742526949454,-0.002431368687654,-0.00191455236079188
0.73,1.25650179400459,0.540610519553078,1.78490130038307,0.00629599638795475,0.0354428831773062,0.010768551513707,-0.112011186208416,-0.243775066766449,2.16956446166119,-0.169319692760969,-0.0901932499836733,-0.0418167550831786,5.99735145686252,-0.000835838295652088,-0.000679757696522223,0.00149226332363019
0.74,1.29242293458494,0.571497934612618,1.85567077444317,-0.0504059821988918,0.00804878128444574,0.0202552811893795,-0.055704515111782,-0.171921319481909,2.24746712635271,-0.0281067410125639,0.0102368727906101,0.0630714596719317,5.84844881039355,-0.0023278949671736,-0.00165783108078004,-0.00393127454743871
0.75,1.28575877362749,0.574093281504079,1.88072978905002,-0.0135806284054685,0.0263111767676142,0.0424418445897414,-0.0874656915017915,-0.20959896563014,2.08941619742982,-0.106560095234263,-0.046811636215229,-0.069399637023568,5.97827343379408,-0.00186609670380986,-0.00128713588179477,0.00129794580309327
0.76,1.21811622072353,0.500179925795131,1.77822984260161,-0.0986626301430664,-0.0476199461116351,-0.0625888482911194,-0.179005576807467,-0.301252436473288,2.18261092256856,-0.133003318048426,-0.0727863443679599,-0.00216652096923556,5.92072835568898,0.00349435918487671,0.00204048215593676,0.00306714675618051
0.77,1.22457061630201,0.507857868442376,1.8640350405705,-0.07451057453153,-0.0239287720208007,-0.000759266646211916,-0.112597041144667,-0.256962801739876,2.19085117985609,0.115095534066938,0.0822764153957731,0.0650260133963239,5.85923840523822,-0.00424803794182377,-0.0027274451299496,-0.00302853917773865
0.78,1.20987054912413,0.478702912555095,1.84238367626799,-0.00890913187901804,0.00270724985372758,-0.00818590962618707,-0.169231330632887,-0.318117864748072,2.09304396552765,-0.228524026765594,-0.130506348456331,-0.0933101940962865,5.98118996957199,0.00165752028815747,0.00115433025213261,0.00481726616664872
0.79,1.24842148402238,0.5177758131241,1.87072893192588,-0.0943426894891531,-0.0294084193280653,-0.0186745088916246,-0.0804228604026786,-0.232684035628811,2.26140321438731,0.053114310780748,0.0682124070679615,0.117896491180629,5.78587875345578,-0.00212982147740664,-0.00198984211214443,-0.00469120952475893
0.8,1.26364175893628,0.533253316320015,1.93799604338809,0.00803228500406537,0.0380331749392073,0.0549898433044824,-0.100752635044573,-0.249825313443168,2.08414736051786,-0.110037490675539,-0.0669056271933795,-0.093527290934374,5.94419204148984,-0.00274712593835875,-0.00188210519874138,0.00186233127571212
0.81,1.26194295326448,0.528838240508687,1.88656631043698,-0.0562130117564324,-0.00869848283032443,-0.0259821190323259,-0.0932566595704031,-0.254808982978286,2.24148874390408,-0.131177072703459,-0.0584630455223695,0.0489739885515527,5.7975845652326,0.000535353419911824,0.00026139390743602,-0.00108282775130997
0.82,1.26687755416683,0.533100338168378,1.96868089389276,-0.0597274294904605,-0.00236032024571766,0.0357065744632835,-0.0870055337052312,-0.244238547141239,2.10710822837725,0.00701292890564166,0.0230362847368274,-0.00967419285934209,5.84757215454757,-0.00277751248895432,-0.00220322721065221,-0.00121592739006642
0.83,1.28820894018131,0.551974819939465,1.94297875118578,0.0118683870891438,0.0471959897348975,0.029087834869467,-0.0583785903975284,-0.224787307370086,2.181358256133,-0.114497710665096,-0.0567387392156443,0.00119130116524881,5.86314863795938,-0.00326821218304858,-0.0025386154875504,-0.00138298299456964
0.84,1.25382610662289,0.512862103032288,1.94671779049514,-0.0765208304617787,-0.0246692555256531,-0.00648009013292472,-0.123170888709741,-0.297840503260969,2.17518149668966,-0.168453809280774,-0.103237713753833,-0.0354476017820691,5.78702360334875,0.00253132462353133,0.00174993686708372,0.00199147550855024
0.85,1.23366151666337,0.492364810800289,1.96257507053249,-0.0952465487429608,-0.0412751197067765,-0.0172742998231394,-0.123926718181507,-0.285754318024047,2.11483594662279,0.0683466931897665,0.0669188046720094,0.0389627372210434,5.81639644395886,-0.00250226277971889,-0.00199025833307073,-0.00102104087244537
0.86,1.25022274059735,0.508512391794515,1.96257401688639,0.0144199527369292,0.0416374981314525,0.027407295106272,-0.0978940232198002,-0.271555412090297,2.1762915163635,-0.123543410057266,-0.0668288590100283,-0.0127879801806495,5.84146610888942,-0.00298431633453009,-0.00253271219923634,-0.000641680694491745
0.87,1.2662871881641,0.518609355253238,2.00642931611737,-0.0570175774236378,-0.00454699653152857,0.0122070391189996,-0.0778878366654412,-0.276675504792729,2.20108019779279,-0.137669715510505,-0.083479865833684,0.00078798404075171,5.72632994424506,0.000434112484399214,0.000375003022438058,-0.000603470901441045
0.88,1.22646170098135,0.473374512052335,1.99223126185711,-0.103050586191252,-0.0515967075591405,-0.0210394042284042,-0.151147148443555,-0.33131737059292,2.05580077359054,-0.0329287574602148,-0.00441393194500789,-0.0316919474851991,5.82789447567965,0.000499636753067572,-8.53158835423559e-06,0.00249508344203811
0.89,1.21395433228591,0.463489929552696,1.95652312647835,-0.0505860935659165,-0.00958220953121659,-0.0233074076576216,-0.134103176580307,-0.32441672635367,2.20071745996216,-0.0209860955739529,-0.0101441184984364,0.043255084325223,5.75384188390439,-0.00238649880791011,-0.00192930038401086,-0.000930509194832759
0.9,1.23216519742156,0.474951719233573,2.03653079048175,-0.0342006312943141,-0.000938852076944118,0.0179311425388258,-0.10934132948222,-0.314173848784075,2.11851952761002,-0.128801840689721,-0.0763071629129685,-0.0198832915300434,5.77249980459285,-0.000619312964687657,-0.000498228227673684,0.000110409449344174
0.91,1.18577588819049,0.424214489205621,1.96972379169248,-0.126521787878934,-0.0753989668338205,-0.055224411923301,-0.186072194826262,-0.402899890199187,2.10222220433289,-0.0988382292714471,-0.0591935602858578,-0.037908588326046,5.7880928621241,0.00370865120976613,0.00173289080320593,0.0044104427011141
0.92,1.23535072247723,0.469122853543781,2.04504026337153,-0.045668237546509,-0.000827447495197087,0.00574260307307133,-0.0791758095717116,-0.282784288840513,2.23675233226782,0.135452105398912,0.0838451545543849,0.111402241788863,5.66088944626977,-0.00682278865987977,-0.00502866066496499,-0.00549428245895426
0.93,1.22592252370926,0.459345528481131,2.06856741692552,0.0102891815239103,0.0121907488879477,0.0261820350176453,-0.132663082758701,-0.368084721311679,2.03056234330069,-0.327700916749591,-0.210246603637753,-0.133277342935856,5.84044777813668,0.00258028243629872,0.00181384768838411,0.00510644322786447
0.94,1.25157914450948,0.476453077720278,2.04281374884855,-0.137364346058761,-0.0638625958676988,-0.0322612841488682,-0.062635941218399,-0.318098373724307,2.2578201779616,0.0819333525907461,0.0953440103578721,0.125446075274031,5.59864927124647,-0.00137511585093679,-0.00204861028064989,-0.00440736165685915
0.95,1.233767476653,0.450672660749311,2.1076532070382,-0.00949433602598404,0.0239657009314268,0.0363166721301333,-0.142785352493549,-0.336348180897537,2.03995775601624,-0.104816164635616,-0.0931726060117504,-0.10639459084213,5.79603184137629,-0.00243794269503979,-0.0018025513012774,0.00335483504043161
0.96,1.23592603908083,0.47178964045349,2.06196418524368,-0.0608922964519527,-0.022683538598374,-0.0309425878209944,-0.0712779564947204,-0.345564684441722,2.21785994336718,-0.125682175797341,-0.0607643693122093,0.0805090962576087,5.63066927390127,0.000195068783038689,-5.40445565641258e-05,-0.00233678312016727
0.97,1.26314302106483,0.470427001196706,2.15079120399737,-0.0648609278762531,-0.00752223606846422,0.0473046825773623,-0.0793785204265565,-0.32172814385472,2.06703875885996,-0.0132368879107278,0.00327084483210113,-0.0371023826451392,5.69292157422761,-0.00250303575516999,-0.00246561294446951,-0.000460359264547528
0.98,1.23904573217109,0.455275460905172,2.08205029652648,-0.0399120734312187,-0.000490158167493037,-0.0184840179857522,-0.103968363191579,-0.363125906564445,2.11936262818944,-0.13991871592517,-0.102839845077069,-0.0133149943782358,5.70556755629608,-0.000332840930889507,-0.000320176387356401,0.00152267704268399
0.99,1.24574865472939,0.454431070062581,2.13146314348912,-0.076800058291501,-0.0301790153812801,0.0045755220104842,-0.0768406098876541,-0.353491315275772,2.14757197191639,-0.0411406587716493,-0.00872223779729049,0.0404061337935699,5.62080433867485,-0.00124044115746467,-0.0012801122667911,-0.00211803945399914
1,1.23977726352028,0.440810603088359,2.14191740793055,-0.0502826998532004,-0.00568982379767888,0.0135662694292172,-0.109056068566511,-0.363832214408589,2.06960205175371,-0.0888113985817401,-0.0580305084530679,-0.0476498481270423,5.69122076585799,-0.0011909089142684,-0.00141035567234537,0.00163228270917701
1.01,1.24238623379942,0.449759351164061,2.13505501584322,-0.0577569576502754,-0.012535739911533,-0.00939504757007371,-0.0757265596105805,-0.362469993892895,2.14905134228193,-0.0772007631422544,-0.0510145735471688,0.0425560745120964,5.62095612677464,-0.00129214472669676,-0.00118977187250892,-0.00155283956481321
1.02,1.21853294999371,0.412566188120154,2.14928395452117,-0.0841893737469356,-0.0416025003804781,-0.00406706036426469,-0.128889257479667,-0.414338883731294,2.06022317867314,-0.106808652604138,-0.0712167124135307,-0.0510882458731003,5.65999622364805,0.00106848612676112,0.000309181712073938,0.00261533788159691
1.03,1.20742610994218,0.400524407820346,2.13312778091414,-0.0898302332081845,-0.0438362258637782,-0.0350633686235381,-0.125022023903996,-0.403090572029136,2.12545521442391,-0.00718509736982159,-0.00470170922346855,0.043155249713074,5.61374944517336,-0.0012603285222118,-0.00144889963812366,-0.000378732441337016
1.04,1.25262468512626,0.446972679297565,2.21096897211735,-0.00895677150574355,0.0235314176328138,0.0438794521675794,-0.0568216265782074,-0.336117655789272,2.12379414339815,-0.0666415649610155,-0.0412613285648786,0.0137635683449527,5.62470848164196,-0.003988935108214,-0.00350579779915072,-0.00266539806596752
1.05,1.23255227085974,0.424316043232943,2.18482104020013,-0.0718988806414317,-0.0296485498524661,-0.00672670038974364,-0.0904199000140311,-0.442329198564013,2.09196070720322,-0.21013064564457,-0.153794144778305,-0.06709088351107,5.59962282416335,0.00297668964470211,0.00182402001663297,0.00350687347090358
1.06,1.23911577550647,0.403496191691574,2.20301973741224,-0.11378704878326,-0.0607847801339405,-0.0237982308494294,-0.0873300117093352,-0.390060280836972,2.09443192736037,0.0826002419196954,0.0696452533770757,0.0771850239408351,5.56993114745136,-0.00265063414150237,-0.00253506359039003,-0.00251829400596334
1.07,1.20078249335473,0.380466469398258,2.17993448284063,-0.0305580693938543,-0.00465852182911805,0.00134323264352001,-0.152054244132796,-0.438564588301842,2.06639497933592,-0.172115469186904,-0.131150359638649,-0.0790438491277052,5.64985089635357,0.000126943213398104,-0.000492532645639535,0.00369913438138692
1.08,1.20247972672323,0.387204364192181,2.20365626213433,-0.112145594861292,-0.0631771496324961,-0.04060325076121,-0.087221351172148,-0.449307664463772,2.13858118590823,-0.0437302476588162,-0.0303199448659384,0.0714557461367417,5.520702800985,0.000588548064467096,-9.30202126298908e-05,-0.00146049827784018
1.09,1.21663033271925,0.371676420521538,2.23836280769642,-0.0678746163221801,-0.0286604974082093,0.0138364070922609,-0.124218283544934,-0.420939310172562,2.04352692657447,-0.0269714243747944,-0.0264604656691859,-0.0433558762976425,5.59421769509443,-0.00200831905974666,-0.00195191783438327,0.00141354409847599
1.1,1.21297765691981,0.390723365643004,2.22212787885263,-0.0524115880541988,-0.0178430056783403,-0.0225892390586397,-0.0874355214941004,-0.442403495805493,2.1044845862795,-0.125442496592583,-0.0888360661775547,0.0256164118097846,5.55768644403602,-0.000322556322247266,-0.000777820811008784,-0.000127111746905612
1.11,1.25136593099511,0.405863377070698,2.28271681855462,-0.0682008043359414,-0.0202051322373761,0.027800711278217,-0.0408665622255674,-0.414210678201833,2.08974941551423,-0.0369593366093548,-0.0261243259816191,0.0126074664332316,5.51596247117826,-0.00205915369163086,-0.00201902640821077,-0.00188984777613985
1.12,1.26685668460235,0.412384562572357,2.289765544227,-0.0330906164657415,0.0046819819853709,0.0234120741217435,-0.0426531583572353,-0.409422940685649,2.05745805281297,-0.108364812799465,-0.0737323582941755,-0.0248829900595434,5.56081073338696,-0.00197987849091633,-0.00200867522225928,0.000107822998625968
1.13,1.26980161655745,0.415795104711002,2.29337797366333,-0.0591469062053016,-0.0108589172800819,0.0113267587895898,-0.0200160739393159,-0.430848003682983,2.10577373241438,-0.103272810607088,-0.0703239521094642,0.0202736070618806,5.49150095289614,-0.000940261759036147,-0.00127838196992592,-0.00147221278624045
1.14,1.256603063203,0.383598670579328,2.30658138772007,-0.0763836457646288,-0.0293440610837511,0.0104461082835386,-0.0607095592659096,-0.449081176508353,2.02834330678469,-0.0771305966588116,-0.0598334949945554,-0.029360646575012,5.52848745757892,-0.00061857613290117,-0.000953869575450177,0.000908784078524748
1.15,1.24929522007893,0.38249236605568,2.29449301927981,-0.0603196178455054,-0.0190395607465034,-0.00289520400691137,-0.0586812440593263,-0.437365397135667,2.08350969629298,-0.0597679433889744,-0.0410638007185694,0.026466906898344,5.50041919986548,-0.00191679988359204,-0.00208858453747716,-0.00109222910576306
1.16,1.21658344041013,0.350938973577843,2.29839168057953,-0.082745432105868,-0.041396404338225,-0.00980405058332517,-0.0980285183104333,-0.501816038363898,2.02982145359535,-0.136848287898205,-0.111183624624628,-0.0405579942831499,5.51739440566407,0.00146421302544263,0.000397790616913397,0.00239028477285934
1.17,1.21556853218642,0.33872513032314,2.3009643530438,-0.103049916233608,-0.0592483621227665,-0.0261331657157681,-0.0888899002942123,-0.47757456198288,2.07261152913625,0.00786298237517621,-0.00336499028268053,0.0428636106352188,5.46961815222781,-0.00138162410288893,-0.00161128503207183,-0.000786968954702733
1.18,1.25357935815227,0.380744829953435,2.36242794728029,-0.0119800441364312,0.0168435505851302,0.0414326707660714,-0.0431444792250898,-0.414225168186129,2.0723911229051,-0.0787590984076084,-0.0560379304527336,0.00302809848062321,5.49966870390818,-0.00385018550608097,-0.00376790568440519,-0.00203477433332651
1.19,1.26021635307891,0.392102490073822,2.36728880479724,-0.0546541531174972,-0.0113519934752991,0.0175619125780095,-0.00390125124802881,-0.494062260807822,2.07692723308102,-0.185535837757274,-0.146568219430609,-0.029637968157572,5.43450082862494,0.000914079223086731,0.000314140098221729,0.000595812071989168
1.2,1.26586534244802,0.349577615262969,2.37445815466276,-0.107237171731615,-0.0574207203681749,-0.00477728112008317,-0.0383323978250152,-0.480660487425567,2.00851317087411,-0.0015703782009977,0.00503151260785963,0.0185204021754734,5.45269795982152,-0.00120043862475359,-0.00162372200807053,-0.000642797222590173
1.21,1.21768972078541,0.31670637889824,2.32689277487142,-0.0655871784108633,-0.0283851182684614,-0.0162183515117163,-0.11599891740486,-0.509892826758744,2.03015715828529,-0.112805016219038,-0.0984942658832326,-0.0341767232721362,5.48935109250471,-0.000103688599656982,-0.00102013706169055,0.00239566676687424
1.22,1.22237276530385,0.338737922294077,2.37672393401037,-0.0813118232899358,-0.0407485481395887,-0.00883172114262758,-0.0432715755057091,-0.497027479243595,2.07562571027645,-0.0447344398490926,-0.0494402585063383,0.0551846678668289,5.40079133692911,-0.00134214300529198,-0.00142165626750771,-0.00218020487669304
1.23,1.24894476023518,0.33954008896729,2.40873001825151,-0.0523793844782207,-0.0201665815592861,0.0293849514636614,-0.0496080916875626,-0.485187861659822,1.99974897025248,-0.0925247647270243,-0.0665368259523908,-0.0407013639055229,5.45595866225141,-0.00155802523566693,-0.00193435265327226,0.000564528146083779
1.24,1.22904130288213,0.324426242087046,2.37494041223677,-0.0880981517203235,-0.0422075546476888,-0.0247419243866399,-0.0560702023161676,-0.542741179713264,2.03709957737871,-0.116094125396572,-0.0971805387096182,0.00470610955590532,5.41708345971113,0.000936486304532143,-0.00028889294949255,0.000953321217307745
1.25,1.24194056660032,0.315109855315726,2.41527306318641,-0.0844527448762425,-0.0419585854057786,0.00606630865567277,-0.0457394695737091,-0.497969345266435,2.02636814599719,-0.00311153990865942,-0.0245622373489058,0.0241021055517792,5.39947907662759,-0.00230800532170335,-0.00216635894575468,-0.00141048524460778
1.26,1.29192486811409,0.376553628864277,2.46737206764321,0.00418568674672539,0.0298009014412786,0.0587027553780179,0.0253638776838424,-0.435306850020981,2.04993942393309,-0.098809734784957,-0.0615411840935361,0.00998717065442145,5.42840453323626,-0.0043867916881517,-0.00451742163931422,-0.00314965876407858
1.27,1.25240090823194,0.330376916178915,2.43047410157832,-0.0921639308066583,-0.0426695214087941,-0.00580657037260932,-0.0114877463298885,-0.604245197958736,2.03030729963814,-0.23236453544326,-0.201600694674074,-0.0752464000236113,5.35920252009099,0.00418832687887107,0.00241520090613699,0.00385087095283246
1.28,1.21858082656775,0.242110755856433,2.41482269546793,-0.167429990420462,-0.124647424984072,-0.0633228399286486,-0.102683063532839,-0.569251800490326,1.95207181357237,0.0909464922403855,0.054625462300555,0.0546229419706797,5.42277271356541,-0.000181482493302271,-0.00114723434268559,0.000406977286535787
1.29,1.16206951766714,0.231826301029129,2.37416832562524,-0.0590745360330459,-0.0383827855667201,-0.0282321927760313,-0.16633791515048,-0.577217092895256,2.08881693032532,-0.0961407866074065,-0.106426011206944,-0.0342103261982281,5.37869925204978,-0.000703461757222805,-0.00152239897066714,0.00295945341725257
1.3,1.17709639373714,0.268815352226697,2.47652974169798,-0.0988806390681435,-0.0677938680040706,-0.0292719734047743,-0.0561390287777046,-0.594541411642501,1.98422062734345,-0.0887130961082523,-0.0897264316616614,0.0503381774666058,5.35222361426548,0.000853435521080275,4.28978730370644e-05,-0.000996353845844687
1.31,1.21816070590758,0.256530098101451,2.44751894875724,-0.0946601944136469,-0.0591242454194355,0.0064880027326349,-0.0716175455955201,-0.56610089266694,1.98333179812407,-0.0217895186102294,-0.0309776208926758,-0.0319587667777698,5.37307580140593,-0.00116661052340712,-0.00182674677023832,0.00121261670021111
1.32,1.20059238009117,0.253878612750365,2.4496719540687,-0.07770738952862,-0.0459115671104235,-0.0353164380878043,-0.0753130313485034,-0.599066623008484,1.99490006182822,-0.113159820985398,-0.109496278304255,0.00711490778406074,5.36565704552971,0.00046283801345916,-0.000653795216544143,0.00133710059351558
1.33,1.26614276992859,0.306580592379801,2.52755662007574,-0.0535975077704165,-0.0172550910784622,0.0399935251905479,0.0403122506217326,-0.514925122820119,2.03396188790354,0.00456620237479745,-0.0152648924965345,0.0606249164062475,5.29695630007672,-0.00419110047626979,-0.00389681110062647,-0.00471132732217089
1.34,1.2838312634531,0.307764243439357,2.53554320097131,-0.0253162018544443,-0.00123197647241405,0.0433960056322062,0.0298587459112294,-0.574661974603095,1.94228376884597,-0.201960174147501,-0.157696541427924,-0.0847192706306199,5.37370286757189,-0.000106474428302647,-0.000830132439479537,0.00199760449607002
1.35,1.27531368647618,0.276514740419994,2.50554100500014,-0.116516684238465,-0.0639753654703385,-0.0227127054221075,0.0377865259608878,-0.615809212380942,2.01858310728307,-0.0457224812978278,-0.0399125006945201,0.0522568813915656,5.26493982046527,0.000325290299322612,-0.00093351827714716,-0.00139690052185079
1.36,1.27406452367772,0.251726724077853,2.54310725225482,-0.0583278604225538,-0.0210797349554247,0.0284813611879367,-0.0218193460283497,-0.542007454513378,1.93934688934949,-0.0281345966206284,-0.0539271214419811,-0.0233585919619596,5.34603581572879,-0.00304073097741283,-0.00302026781704423,-0.000209502241444788
1.37,1.18140063253075,0.208531473829286,2.46103736642982,-0.114719063367956,-0.0895804653165165,-0.0638422328762259,-0.0821602257402985,-0.71605569850376,1.94058923828593,-0.218726626365339,-0.18572418781747,-0.0504401235422518,5.34807614426503,0.00555807924948536,0.00252897647150626,0.00541227730420244
1.38,1.25846227848502,0.238723556630468,2.55995125587658,-0.104586401445599,-0.0593321272922035,0.00739997411270976,0.0131254909861268,-0.526493466610169,2.06110274060498,0.201085281078754,0.102751944636401,0.141110731750489,5.19911259018838,-0.00667113566931505,-0.00580986650054035,-0.00698135379263721
1.39,1.25241498686589,0.266984951062756,2.58695486283986,0.0369280268511022,0.0218417177622151,0.0602313094540755,-0.0202003277392017,-0.589256171993833,1.86920328737925,-0.321770401557741,-0.241657548270023,-0.147838449731502,5.44676729038425,0.000166969957212402,-0.000777369302349058,0.00422701909485176
1.4,1.22202012143101,0.222521058503448,2.50511847487106,-0.195782968935558,-0.131828859517356,-0.0776702692139152,0.0313674373435324,-0.754730543187276,2.11109549934135,-0.0687180828712736,-0.05573911871136,0.0742007167649881,5.15685945856047,0.0052944583057533,0.00152627163505313,0.000165420760883402
1.41,1.22086944291428,0.12924018043844,2.59062270632177,-0.117964954879979,-0.0744774381801049,-0.0105255220013421,-0.124422847970854,-0.579530297625291,1.90657221084197,0.134164547542515,-0.0014801045156588,-0.0289971143742261,5.28998441046935,-0.0040756578728421,-0.00298896390044512,0.00187441192302154
1.42,1.2036392904922,0.24454602288636,2.56626841728162,0.00422845504158842,-0.013860248405455,-0.00787684442668571,-0.00952946874066185,-0.611383211903933,1.98087360587084,-0.212586953979142,-0.141069478939545,0.041394289270797,5.30871162730465,-0.00127878985386333,-0.00181556815973159,-0.00153292544007696
1.43,1.28680335717401,0.266416960322135,2.64281509315727,-0.0963943597334082,-0.033590592560747,0.0541918910292949,0.111269170229348,-0.669081959700949,2.01064255055764,-0.0667641207595143,-0.0677161083990053,0.000558888490923906,5.14173684401404,-0.000247479645602286,-0.00179986268055706,-0.00257670582431561
1.44,1.29591531949691,0.197814704419318,2.62996323664479,-0.0718577344835369,-0.0371176758483812,0.00637313499542022,0.0312952888526394,-0.619225852479198,1.82076775300957,-0.0544064450621932,-0.0918804179453246,-0.0490702705203375,5.31572102486319,-0.00162693469023961,-0.00140013927735878,0.00203570160155608
1.45,1.2772115992725,0.228069768535828,2.57987289168465,-0.0583638656600675,-0.0381484502698065,-0.0036146993448923,0.0570319519864681,-0.648979587528705,1.99954128117777,-0.104055306416916,-0.0685733681427268,0.0562692033770472,5.20353010847167,-0.00105648890542153,-0.00211267452487997,-0.00247022958090361
1.46,1.26521836570599,0.189712391709192,2.64181036406575,-0.0974469794201159,-0.0488831532031323,0.0181324691537352,0.0248524630608103,-0.694377473761008,1.8720397072541,-0.0957556270698598,-0.115736490140717,-0.0556356833755822,5.23948163468088,0.000870091351838057,-0.000609686225075718,0.00177596236951795
1.47,1.27950811353403,0.195217235719112,2.62404779985624,-0.0725188856198141,-0.0460249035605738,-0.00433267007756295,0.0552806704759798,-0.626993626455806,1.94180874520229,-0.00108517387053469,-0.0356073642649758,0.0535117201090705,5.20464600307294,-0.00306332545227175,-0.00278782251075893,-0.00230480411722895
1.48,1.23580633618624,0.161982891811298,2.61666178098965,-0.0823117750749008,-0.0626840603346485,-0.00712207192442928,-0.0147511361113435,-0.739284828371457,1.85996234690656,-0.199123454879279,-0.163056743276974,-0.0734278331319513,5.25623695068278,0.00307733720074612,0.000666463817515051,0.00381236250404164
1.49,1.26438731188112,0.171049201758054,2.64130893731889,-0.11571761966957,-0.0688707452133359,-0.0141661595247662,0.0526786855919148,-0.660747163242676,1.96248240447755,0.0851744419690235,0.0142383436250602,0.0955719013178144,5.14514382699245,-0.00305880496909508,-0.00334166520342133,-0.00384374578233497
1.5,1.27712927444117,0.184231502679577,2.68462305435542,-0.00820476129575672,-0.00580232967088254,0.0498874094531254,0.0346132113069838,-0.639459666611788,1.86048755317824,-0.167329015408132,-0.150392429249393,-0.0734170809166405,5.27065085741828,-0.00178638499064308,-0.00214364322905572,0.00116353374668916
1.51,1.25558271558272,0.175205268777503,2.64399809347201,-0.126197033281716,-0.084596331654831,-0.0337325979990898,0.083617605462675,-0.788946838718263,1.9559470789148,-0.131149696554444,-0.11421684691373,0.0209830595872932,5.11722109187485,0.00332099353805119,0.000768830152144249,0.000598390132798114
1.52,1.28576475739949,0.119059736271626,2.6984937078779,-0.104562093474306,-0.0630334052545962,0.00992774879776957,0.01687391618432,-0.647084972678553,1.8442873820364,0.0859970948049676,-0.000593461294950991,0.0153466106212013,5.19359186095901,-0.00362786147697341,-0.0034358603815927,-0.00118377748369881
1.53,1.28593394070898,0.202363775539084,2.69402447168539,0.00931523033941002,0.00821249503746786,0.0382655350647591,0.0873935462748932,-0.647151581922808,1.92545827252671,-0.17417725131853,-0.140130797588088,-0.000353396247643328,5.21435518195054,-0.00258409833008387,-0.00309897703489204,-0.00172096585315387
1.54,1.27931831984177,0.162382151882266,2.70769475268899,-0.125540601212666,-0.0778181505162149,-0.000774238824692934,0.119776070086446,-0.822714884889825,1.91784554077025,-0.157919617443324,-0.153609062327838,-0.0369199241908925,5.08234796121775,0.00400952689256523,0.00156787994294831,0.00178484141019492
1.55,1.31505641428339,0.106689829023165,2.73069323357926,-0.10329782203097,-0.0690643056691439,-0.00099255331307669,0.0505560076190857,-0.644905938339299,1.8232884408739,0.121716070884445,0.0415818865311952,0.0509847740780082,5.16698910268323,-0.00466253198568859,-0.00425204331961751,-0.0023445572117971
1.56,1.23840473060051,0.127877878910796,2.66438574530867,-0.0316822226177214,-0.0320628572323973,-0.00262843856186853,0.00645867221259722,-0.760937562222188,1.85800451029287,-0.262941187550319,-0.219457302839592,-0.0710084343186991,5.21670899825273,0.00219672405900316,0.000169428759209463,0.00349352116244774
1.57,1.27642472840028,0.134657141267683,2.73605448158339,-0.140816479200397,-0.0913104916712212,-0.0094194460044441,0.128121299955022,-0.76739060684984,1.93269438051162,0.049769180587867,-0.00577275747713079,0.0916482951797297,5.03708483843053,-0.000826873733379735,-0.00187289206842414,-0.00389512703366774
1.58,1.33488150970469,0.134072612555633,2.78693401056733,-0.00234974026938781,0.00738053402128025,0.0720618070475292,0.0794718743261948,-0.616942587480739,1.81420752306695,-0.0583176478374318,-0.0788573094412874,-0.0545306393311061,5.2101846910515,-0.0049865331525124,-0.0049651504753678,-0.000746455038652867
1.59,1.26294043597067,0.14022482394491,2.70824511464092,-0.0940397703779339,-0.0666003012592994,-0.0325003737795929,0.125204074141275,-0.86950657699081,1.90886439997017,-0.267551527909212,-0.237422103758371,-0.0263046405767634,5.06598149689002,0.00548829628631649,0.00266079341378413,0.00278926984668842
1.6,1.27941023920074,0.0277897264000673,2.74794934220253,-0.185317022892311,-0.141902885717963,-0.034226071525356,0.0319703966712968,-0.776050156306556,1.76403471602044,0.148371103079377,0.0525314217202036,0.0415851784955436,5.15404481270545,-0.000774631630328583,-0.0018122130200604,-0.000355873153050315
1.61,1.24227022296386,0.0642291461536199,2.70210396709574,-0.0178285402848147,-0.0228452374737893,-0.000676047638815548,-0.0169148919337978,-0.709771938926935,1.95593215719819,-0.100528470353423,-0.122418353105391,-0.0234480593783878,5.11750948750933,-0.00286779963412199,-0.00337096605219506,0.00115978082567834
1.62,1.25474315894188,0.124487477324185,2.82379541837469,-0.0872233387879116,-0.0623873484863044,0.00342046505804993,0.151100861596832,-0.841221326980954,1.83501159817265,-0.160337633793493,-0.157808139064,0.0347783970412287,5.03645470668585,0.00215135647054752,0.0004703080265952,-0.00180837611399238
1.63,1.29144542773465,0.028542634677203,2.75450104912245,-0.139516115440173,-0.104200691445364,-0.00263084122575608,0.0603097042539875,-0.805539738555549,1.73851654473745,0.0215420480576303,-0.0346157471314786,-0.0512898564198691,5.1451249447398,0.00024342449891364,-0.00114312392310614,0.00254113306218755
1.64,1.2708038505239,0.0565623103066506,2.74089860645487,-0.0540800863924928,-0.0438318856445518,-0.0228680150671622,0.0526054947606196,-0.749592240077869,1.90097619445977,-0.0465123652395245,-0.085276043441359,0.0517362112151951,5.07079661355433,-0.00244268574783566,-0.00305632968975769,-0.00136052755369597
1.65,1.2380267844743,0.0469576772923435,2.79296129589031,-0.105487941306508,-0.0892681234319034,-0.0060326913801875,0.0815854065098849,-0.887896750490431,1.75528305816145,-0.174589681653524,-0.181997705584267,-0.0516478447798008,5.09560874837361,0.00391959002618231,0.00157738584763285,0.00272357980386807
1.66,1.30455278802121,0.0385857471134083,2.79027336869393,-0.111653304959518,-0.0842870684395012,-0.00466648074389292,0.110029888946013,-0.759903521776886,1.8467597914802,0.118257487612741,0.0391136930588162,0.0734183350678261,5.02551163226052,-0.00384760319393501,-0.00413957574218322,-0.00324448420626822
1.67,1.27278065034752,0.0437436696045007,2.80367712143225,-0.0267841433287755,-0.0291765966391719,0.0167787488248052,0.0651125230140553,-0.814320000758589,1.74716261588456,-0.222379206728477,-0.211871622369548,-0.0812013023870576,5.14381523352882,0.00108172574161207,-0.000565244970140813,0.00305187585444065
1.68,1.29214878266831,0.0560675016349543,2.80677887701636,-0.134773568470246,-0.100033662836382,-0.0185803176324951,0.189782197211697,-0.878164262909931,1.87015908670034,-0.00182673508584878,-0.0450602894295362,0.0776916962539383,4.95876337268233,0.000578753923771031,-0.000882170208249609,-0.00280723991461649
1.69,1.33920821522818,0.0166632212069044,2.86262551081949,-0.0483484287854213,-0.0336832142321433,0.0452983475041035,0.100734237642291,-0.741467903550629,1.7270588195424,-0.0178754895816732,-0.0651200238732995,-0.0478879198935803,5.09684698406304,-0.00344292469324629,-0.00384401093929339,0.000145794290272941
1.7,1.28244887049002,0.0507335638059084,2.80136655135373,-0.0738433608294338,-0.05981791462124,-0.0217563824809568,0.16155890761462,-0.901975663176034,1.80497296298841,-0.198226632493315,-0.19390257756359,-0.000236957127119236,5.02450487692596,0.00284061328570661,0.000782240194082276,0.00103414150683652
1.71,1.32092147587309,-0.00954140022415928,2.85026218278798,-0.137233220057599,-0.104180042155281,0.00246891012045549,0.149773342934862,-0.853711563759561,1.74642650517441,0.0643144520270804,-0.00862164211447947,0.0257729016746271,5.014018972079,-0.000921810488013225,-0.00189226894700764,-0.00134446912307492
1.72,1.30204929437236,-0.00876529286256467,2.82573341620947,-0.0438066695160597,-0.0416934432431573,0.00457375648904696,0.083968422495321,-0.809479260480863,1.76873098609197,-0.0970624885314017,-0.122323979311092,-0.0341766070423037,5.06663833505247,-0.00138664053780461,-0.00243807046779437,0.00140008008465357
1.73,1.27437806626696,0.00684603306979059,2.84575486346141,-0.110096976908801,-0.0891219239729425,-0.0215469729788345,0.166664533277974,-0.936074432775399,1.77507568761146,-0.11877055755059,-0.14372113716514,0.0231372822391007,4.98254786770004,0.00272744061175508,0.000589623606518396,-8.8574019452853e-05
1.74,1.34205699980203,-0.0204798239658598,2.88523172540418,-0.0904716942847724,-0.0691178047995709,0.0284463926825475,0.158397173351079,-0.802939110652229,1.74001735411723,0.0747004522739934,-0.00542728087857209,0.0156706523959519,4.99738758797716,-0.00361859646871525,-0.00379403676977084,-0.00207761223918836
1.75,1.31161712429661,0.00373752136319694,2.86246123732077,-0.0334542432601366,-0.0355514802023934,0.0085759591587967,0.152434016147897,-0.879675412749363,1.7226102220926,-0.201051706022097,-0.191754088612859,-0.0440532165689659,5.04934727484143,0.000989643264898853,-0.000730166705480217,0.00167798328250622
1.76,1.2884522764547,-0.0545984317561322,2.8435380742356,-0.166460698157877,-0.133616170568702,-0.0408082264888491,0.170406114222606,-0.994729856126866,1.74874915914159,-0.0364820043115322,-0.0886244584999924,0.0170890104510656,4.97691486502867,0.00377597833193528,0.000901360675442225,0.00111172235774406
1.77,1.35580262687154,-0.0502110967396276,2.91360640757674,-0.0504747275924282,-0.0410191869583298,0.0341834572975864,0.146065556004608,-0.743470074877691,1.80265256011995,0.123649079840483,0.0124244491990528,0.0478853751349118,4.94934470885811,-0.00685407723710259,-0.00619848554936101,-0.00383718877458005
1.78,1.28348169248176,-0.0100199918667266,2.90042486008119,-0.0339911392992575,-0.0522581715757951,0.00276696090477436,0.175294167898563,-0.989054015301476,1.64700528921617,-0.349395090464385,-0.303036373829356,-0.098616290610802,5.04291021396915,0.0053972765711179,0.00256853215555354,0.00454225433176571
1.79,1.33428407843244,-0.0816836614016154,2.87273980248276,-0.196401746836751,-0.155268877308692,-0.036015489926068,0.216732376537572,-0.970331166155856,1.7698679205105,0.160421554451423,0.0679239435333717,0.101410640078053,4.92086851342373,7.40434204306771e-05,-0.00196127009358199,-0.00310295743996422
1.8,1.32218971668508,-0.110641482868661,2.90607106558017,-0.0171516349966862,-0.0251195807014272,0.0260924775577593,0.0700869386678182,-0.809168309447615,1.74799852657178,-0.0658993456049838,-0.134701936160914,-0.0796529611576476,5.01157694052597,-0.00327835538603689,-0.00361649413004402,0.00253313949136352
1.81,1.27310993833545,-0.0299927933693367,2.92563908350693,-0.0999292912123272,-0.0970702543312214,-0.0371744722025484,0.244921210190614,-1.0364952708517,1.72742601928312,-0.196245294156408,-0.191946914536479,0.0481133416035898,4.90032006660749,0.00458304514936446,0.00200048402703842,-0.000525758524581583
1.82,1.36301032728499,-0.121072084578527,2.93467903699035,-0.139163645136094,-0.106322108621615,0.023129155126345,0.176789175398414,-0.897747738807623,1.64328032455978,0.139198883160349,0.0312938591289802,-0.00554534461489242,4.96316113802921,-0.0024494198817285,-0.00330829624763108,-0.000837368564865265
1.83,1.34537054326697,-0.0547358585394508,2.92481413971417,0.00828991940427592,-0.00596304600853407,0.0197203395157937,0.192407844240729,-0.852600360719913,1.73827256059553,-0.137279509459583,-0.160889744719841,-0.00165075587180413,4.98896921009588,-0.00264781433528914,-0.00333902564740434,-0.000834868127486459
1.84,1.32150952453139,-0.0710296998034728,2.94856492758151,-0.1290095966175,-0.110493689028902,-0.0075020049978359,0.290084569850279,-1.09265236253956,1.71706723808163,-0.168508123533753,-0.18556932725364,-0.0239899871363855,4.85687072657967,0.00558919586592839,0.00263352483530727,0.00149145176895477
1.85,1.38377613801252,-0.163467733666015,2.95979725491226,-0.129116650428177,-0.10979080110203,-0.00763697240421462,0.171003438473128,-0.883196781529305,1.61642800372937,0.175057110780228,0.0573472098731492,0.0360396914882423,4.94992811472341,-0.00375728064378445,-0.00414268049530011,-0.00134589180795017
1.86,1.31862743992753,-0.0914905831232158,2.92155502975218,-0.00112248461529624,-0.0223169592727241,0.0125475591427817,0.175295267291679,-0.925534159948632,1.6969974476792,-0.21069456158452,-0.213900423575496,-0.0326335924521097,4.98340333361331,3.75326414556152e-05,-0.00154909130455104,0.000942052861711717
1.87,1.3268706450701,-0.107232005909545,2.96875100170444,-0.152840777989651,-0.127569081962561,-0.0149642773026837,0.301934452532641,-1.09426598046929,1.71028368070168,-0.055941409951256,-0.11000109689776,0.0191766079390324,4.82848897405157,0.00387245501936283,0.00133970380634148,-0.000207109896773268
1.88,1.35764480666216,-0.214177805440714,2.95742379771149,-0.114518899331542,-0.108307658004392,-0.0179959753131845,0.127453531350455,-0.923816243094094,1.58370532704305,0.0836062109628916,-0.0202055317333734,-0.0238887048697753,4.96494220120878,-0.00184343015710658,-0.0027276924805808,0.00196324089205787
1.89,1.30719091224252,-0.118589715925835,2.94169205482264,-0.0381202451088784,-0.0529858861528316,-0.0113721484891716,0.206089776955008,-0.967966695087203,1.70253538634796,-0.131178808575929,-0.160953600166468,0.0392104952064377,4.90336309056415,-8.93977305266506e-05,-0.0015644257294302,-0.00133698806124773
1.9,1.37198200663551,-0.111441634212605,3.02799606986187,-0.0934149366041881,-0.0793915218052688,0.0424875569418782,0.328184929277018,-1.02253790763274,1.63946720876353,-0.0324645441031431,-0.0929014142122618,-0.00531309671907683,4.83280621836933,0.000108031473219539,-0.00108469974189321,-0.00176804277028241
1.91,1.37365122834339,-0.196610129086319,2.96588587316971,-0.0987390538651892,-0.0971178169199628,-0.0188961237849658,0.217129217236106,-1.02595101649035,1.53876606203015,-0.0638262178988247,-0.109476427645493,-0.0514028099238946,4.95617826451954,0.00158809803931206,-0.000586918509942993,0.00330580368889641
1.92,1.32317391254763,-0.206448015302599,2.92799068890456,-0.119833536333517,-0.114451058096737,-0.0474174364706175,0.20648658366168,-1.04791988371264,1.66070151656877,-0.0129823706471089,-0.0962286693800354,0.0489464933432089,4.87997956540886,0.00140916990977319,-0.000641107393390853,-9.80706901560791e-05
1.93,1.37987877646503,-0.158684892751561,3.04146179672036,-0.0452341215530995,-0.0533292553008133,0.0481084811992175,0.277403946327333,-0.923926501522345,1.64561673690443,0.0300300622249378,-0.0554634119079515,0.0226629074935276,4.84203579803099,-0.00391510419657235,-0.0040660851133747,-0.00333968250281172
