time,x,y,z,roll,pitch,yaw,xdot,ydot,zdot,p,q,r,thrust,roll angle,pitch angle,yaw angle
0,4.01841953230695,2.01841953230695,0.0184195323069548,0.0184195323069548,0.0184195323069548,0.0184195323069548,0.0184195323069548,0.0184195323069548,0.0184195323069548,0.0184195323069548,0.0184195323069548,0.0184195323069548,9.03311898427246,-0.00530990550968388,0.00650835638045528,-0.00176017132858924
0.01,2.4193717654818,1.2193717654818,0.0193717654817975,0.0186052206370292,0.0186617191570476,0.017903881030651,-0.0612694120579083,0.0977579179365628,4.17948380034311,-0.206455798914786,0.262852572324816,-0.0275983183675423,5.78857640113991,-4.44710511813231e-05,-0.000500343666520458,0.000455823730815526
0.02,2.63963564053198,1.37197446871298,1.70097409402854,-0.0823565954062957,0.108219391153894,-0.0103753229382342,-0.0212711781587713,0.0250685873381084,0.936079273576627,-0.000767374884640906,-0.0141741216484425,0.0109433105528705,7.11405212817963,0.00018181240385033,0.0019159980259202,-2.11446726447307e-05
0.03,2.65997473679163,1.34844260939964,0.414495129272039,0.0050186555119836,0.00254201413705026,0.0110073077485734,-0.254812746298884,-0.178253009131144,2.31015018643128,0.0108455335300934,0.0823031796921782,0.00483386211015085,6.98139482718783,-0.00317623094571715,0.00319673748711938,-0.000760784488657571
0.04,2.54060503718282,1.24171028869674,0.994078840275346,-0.0100566345084549,0.021703203959118,-0.0130990387994105,-0.0484337048751793,-0.0169133206618593,2.15770255460859,-0.142260130464963,0.116180815586598,-0.0275043275237502,6.70344307941885,0.000677114063610039,0.00255451206138047,0.00192475171446478
0.05,2.6796512883209,1.36181218178146,0.952890532280549,-0.02629693932413,0.0814204993682539,0.0227675774485852,-0.00925750630428357,0.0292890664891971,1.93694347643275,0.0512855199687619,0.130347561954057,0.0675214404537989,6.8608382264127,-0.00388015802141089,-0.000647923946298564,-0.00426727790381241
0.06,2.65548876024353,1.34094016634716,0.852068918450158,0.0201905472431376,0.0549361722026216,0.0251817499927805,-0.188906387623183,-0.0629775229390508,2.09589834808672,-0.162058791453894,-0.0182011506019951,-0.0900770946933754,6.81748451458865,-0.000327721211608866,0.00364923986941066,0.00306007148212984
0.07,2.62152237081822,1.34334715758343,0.979647338415121,-0.0314170923269984,0.0307612970896855,0.000956364573608537,-0.0877081419769891,0.0828058459045927,2.09478349461907,0.0106469265876765,0.177192431524964,0.092692454400558,6.74846801164595,-0.00304957144529033,0.000205046514054387,-0.0044303713312908
0.08,2.626936670103,1.36719999118548,0.949346474858527,0.00660757458494594,0.0782127775957706,0.0385642668231352,-0.0926846210397086,-0.0593985561220314,2.01702401855065,-0.128565165869898,0.01880699754329,-0.0905312853626688,6.7997961421282,-0.000750389586860189,0.00185929026821365,0.00245340116511649
0.09,2.6410189067505,1.32526995879137,0.942187176070749,-0.0369682343862548,0.0292213325525876,-0.018857225484079,-0.17079055250597,0.0220159315396338,2.10294629810024,-0.022102056236016,0.0948452173082416,0.0648659641831262,6.7450215902198,-0.00173738446414324,0.00201518696875888,-0.00218110643939595
0.1,2.5574593345897,1.30854021311662,0.95270424160625,-0.0408251958234706,0.0150806662596645,-0.00167566996394967,-0.1589405126903,-0.12561475398585,2.02204094553253,-0.10089589039878,0.0619909580290292,-0.0700183202540709,6.80212042155973,0.0012554748448675,0.00326164720306293,0.00340017414745047
0.11,2.58361892496386,1.26861821942178,0.939582635190987,-0.056058493379712,0.0162875502688977,-0.0385882098439272,-0.112108680511684,-0.116720259713054,2.11046070648838,0.0339796641769051,0.125453019927394,0.0602427769491023,6.73875939128975,-0.00143818492892346,0.00185118465330463,-0.00102123330775528
0.12,2.64160329867574,1.31136660366022,1.02136371190077,0.0328928032343772,0.0791979907624577,0.0459841865513766,-0.0575136565836932,-0.0830801967509864,2.10037801406891,-0.0477827083978864,0.101592148961396,-0.00255307823946346,6.70141147978362,-0.00407455863285134,-0.000357149236283066,-0.00206418445974467
0.13,2.61921289944321,1.28022336508762,0.996435971085913,-0.0351799620766546,0.0354206018930074,-0.0157196017187047,-0.229771179548484,0.00271258841109334,2.05445515094113,-0.182666492317501,-0.0137967608854715,-0.0547085527963732,6.72917708166945,0.00227797947096169,0.00393514901329495,0.00333538456655219
0.14,2.57739427088926,1.34584862637411,1.01915789851974,-0.0660419683063369,0.0113961129606786,-0.00720473623565093,-0.12195379409104,-0.0687291836672272,2.11326896115924,0.093132531258193,0.173390173053447,0.0790908074491748,6.68043400213812,-0.00313903366090135,0.000663809834836361,-0.0033948515705286
0.15,2.59884328585333,1.29324272791837,1.0339889849893,0.0254200929793541,0.0686163294938502,0.0212525283225865,-0.11284067172258,-0.155044221104092,2.07001474296743,-0.144063320252128,0.0327906096052291,-0.078534829524332,6.70329745028746,-0.00107964561547148,0.0015610506620478,0.00269896106775478
0.16,2.60911254403826,1.2643003025504,1.03127245374618,-0.0647119691435151,0.018885247706771,-0.0330807682150754,-0.20618316129719,-0.0018656313840742,2.11517035075299,-0.0544739830068987,0.0729656453063789,0.0542942143898386,6.65440061564761,0.000255067773693887,0.00255027096881246,-0.00100231160477271
0.17,2.54324102453493,1.30158369144337,1.0421194532329,-0.0542499866087203,0.0122657397049962,-0.00231441018756778,-0.169371486077046,-0.18524944860379,2.06175448534343,-0.0211948047214692,0.0889786593297779,-0.0431967986953493,6.68932532343291,-0.000288443241688649,0.00240083204171132,0.00215778085395866
0.18,2.56259350416703,1.22920871604468,1.03366295469584,-0.0377836086240482,0.0205040599319723,-0.0409204956788324,-0.155377937652671,-0.175669003930006,2.11395995501312,-0.0400936403730586,0.0867984915427127,0.0251588900567586,6.65372560369384,-0.000514969896625516,0.00213474798771531,0.000743394629220156
0.19,2.61493859760081,1.28031372246405,1.10676856603054,-0.00380981140745904,0.0628017629957141,0.0286457054894191,-0.100759741409299,-0.0795823452641845,2.13141891384655,-0.0158324411150371,0.112250809916288,0.0311358504147849,6.59392582584231,-0.00352748862489538,-0.000294017813259935,-0.00283524972975755
0.2,2.60959481387651,1.29228125421467,1.10685001472971,-0.0133291355184571,0.0536089972571893,0.00913874416741377,-0.197334005397877,-0.0663448772597374,2.07380376256835,-0.154776324376928,0.00265679860517582,-0.0612483654919565,6.62981664943412,0.000293197375751435,0.00252746219618761,0.00245675564693258
0.21,2.55480670903532,1.28422333539258,1.0885779388186,-0.0831982559136589,-0.00422860465471664,-0.0372629653531474,-0.216459368190959,-0.10370734157877,2.11244775930628,-0.011880140071624,0.102948306774022,0.0389745625966361,6.61160567143306,0.000262448396122651,0.00244868664767096,-7.49891894957948e-05
0.22,2.54890579647999,1.27073099565011,1.11615568515892,-0.027127856858531,0.037545041021622,0.00185454820116614,-0.136652428982904,-0.211470377902023,2.11952338890553,-0.0133288323756006,0.0985438058121084,-0.013898055025878,6.57865070554353,-0.00197959017747883,0.000922534378236964,0.000566132252508397
0.23,2.61582211502076,1.25946926012763,1.15751463260842,0.00370364777566656,0.0674906621759968,0.00934424563906045,-0.142028641196677,-0.0825060316050075,2.12145321753611,-0.0776373742492192,0.0661837079568593,0.0254585383550051,6.5624608721815,-0.00255049423418648,0.000362266090192249,-0.00166059885676783
0.24,2.58906004720351,1.28921536302843,1.15607848112598,-0.0400018576507771,0.0369206643408271,0.00813779643124718,-0.218681386779435,-0.0704976909582392,2.11006395009573,-0.116897256233543,0.0297798644110786,-0.0363467825120753,6.55441889847348,0.000341146249510434,0.00235725685878142,0.00132859517892265
0.25,2.5702573246073,1.30841717537478,1.17911620327067,-0.0451144660037655,0.033641888262809,-0.00351667346592534,-0.163458660940504,-0.113661327083536,2.12523498108505,0.00955833020802354,0.117671841956341,0.0359966076145188,6.52654218664446,-0.00250207936457409,0.000412059382880655,-0.00154182779783888
0.26,2.58902770846976,1.28558143664028,1.19322920447002,0.00284567677758519,0.0666971561508384,0.0200929182975728,-0.166527849644601,-0.127277087487894,2.11178941338636,-0.109373002127202,0.040466476318457,-0.0267779706603172,6.53526180652539,-0.00175126191299243,0.000749997329425798,0.000302944386579607
0.27,2.59485828568796,1.28731255115232,1.20731598971792,-0.0384447601740842,0.0438491763544217,0.00306396743664953,-0.204109721302757,-0.0581486249491607,2.14472240164907,-0.072677187149754,0.059920168530122,0.0179447866164668,6.48772828799195,-0.00115842978308631,0.00122557499403681,-0.00100427624939889
0.28,2.56937829769552,1.3079621914589,1.22904161175937,-0.0311718454005818,0.0447911089866148,0.0146682092158472,-0.18997017552226,-0.12128139886926,2.10477075861724,-0.0555802220228173,0.0720777886737393,-0.0154763393762248,6.50190994313591,-0.00171291096938159,0.000794624284000089,2.89958386566202e-05
0.29,2.5389299410461,1.24459086336161,1.19165752577515,-0.0574889167162355,0.0172759668050785,-0.0317884097768797,-0.251881419786232,-0.172777237711083,2.10432499248617,-0.105247899011507,0.0291972433369593,-0.0212140526336828,6.51666771781309,0.00127275270305342,0.00272950955604468,0.00250656000466091
0.3,2.55285477959147,1.26331846993414,1.23653441619193,-0.045230769809899,0.0325012811687399,0.000182708037395882,-0.170021824966612,-0.1549309803434,2.16623244835911,0.0424070133803926,0.131615235996129,0.0587169076776762,6.44213385685094,-0.00333391883377783,-0.000232031892704267,-0.00279117819298957
0.31,2.59780772826621,1.28135201398547,1.28497628554858,0.0284100334463657,0.0873007378139923,0.0421915418134364,-0.163062873618016,-0.119042668994432,2.11821463177006,-0.135296406622729,0.0299514217414527,-0.0418649823985453,6.47683993900472,-0.00266039454697916,-0.000257299899904766,-3.04050540245468e-05
0.32,2.58918246777492,1.28554379930369,1.27281610624266,-0.0514662374673438,0.0413870055402926,-0.00446960490069788,-0.249863510934902,-0.0524524153371165,2.17140756650399,-0.11266129860966,0.0231837388570464,0.0102070868444741,6.40519408123966,6.1018566128691e-05,0.00186243303980345,-0.000281885765683597
0.33,2.48586705379592,1.25009912711326,1.25318965321429,-0.102149356307881,-0.0207492676960948,-0.0390983721798866,-0.298493573097332,-0.237704093244254,2.05263443779521,-0.052418896963255,0.055110827896297,-0.0443073450850767,6.5091075132015,0.00225713392991545,0.00320834310410816,0.0039583119773014
0.34,2.51813639648411,1.22220164615127,1.25664804286601,-0.0374364939664841,0.0314370093958192,-0.0211736120717219,-0.167694415599445,-0.247330910465386,2.22406883283824,0.0708239802754362,0.141846869558275,0.0792601607900814,6.36966390860854,-0.00409292029901411,-0.000728861621500897,-0.00275268257605272
0.35,2.566179704455,1.21074452039036,1.32838238558709,0.011051468423539,0.0648288098725992,0.022761302360181,-0.223010327354945,-0.172377969707605,2.08014488525709,-0.190663684912299,-0.0102250864169662,-0.0637727592198857,6.4547623984419,-0.000257510588864669,0.00136680972282621,0.00192647933965333
0.36,2.55443488396943,1.25551709077545,1.29996530897441,-0.0825104535847396,0.0179870636758652,-0.018744865188258,-0.246867895547813,-0.106050405194477,2.19526367079268,-0.0235395417696248,0.0828747547202656,0.0455531973510938,6.35282948766712,-0.000590874739408676,0.00115824916903793,-0.00127321617215797
0.37,2.52352435764937,1.26437565871341,1.34573359061939,-0.0323096927319196,0.0399302889229843,0.00874023232123478,-0.226841466694668,-0.228214933725358,2.09805994802743,-0.0512828496491373,0.0588922843192455,-0.0353079712740939,6.40021356929851,-0.00171988676253681,0.000657142843140906,0.00124751889955091
0.38,2.54447947572208,1.22314858693012,1.32948672728864,-0.033738524065708,0.0409146613188632,-0.0147848515188871,-0.235124260465799,-0.171108643210791,2.16029470235687,-0.0878800667876526,0.0488909410200465,0.0261918759344523,6.36400193444695,-0.00100813388452872,0.000845115394500711,-0.000552645311711915
0.39,2.57208468426825,1.2801267831271,1.39682224342173,-0.0184356846722514,0.0671551939778858,0.0403087514949445,-0.188718176440206,-0.122882609073489,2.16604142708831,-0.0355069986209693,0.0804449292514384,0.0135467830388186,6.32197570826055,-0.00350625202921295,-0.00108858761497939,-0.00255768212919771
0.4,2.5701129381711,1.27937525383247,1.39789709005057,-0.0119049066042784,0.0658048662391215,0.0192446452739125,-0.239742957250836,-0.138056412318969,2.12819235269354,-0.149325919680763,-0.00560123934643784,-0.041312756382198,6.35045122792691,-0.00097725571958997,0.000972843786436086,0.00102895775224458
0.41,2.5365051634843,1.26231577456575,1.38958138554248,-0.0694258029005427,0.0208003172867895,-0.0112765016175513,-0.266882387021292,-0.151478302936849,2.16046374091796,-0.0564522866966211,0.0665402934397396,0.0253915350196299,6.30728031285166,-0.000547155077298146,0.00106480906949183,-0.000677158028045469
0.42,2.50058133486653,1.23256928671228,1.39147864459429,-0.0554804165371444,0.0272392883544174,-0.00689634221859887,-0.268626706555309,-0.24254284195925,2.11291596483178,-0.0585555218040204,0.049753658571837,-0.029556311873254,6.33609545222328,-0.00061791497567181,0.000988584094060419,0.00171708437164581
0.43,2.52095363776828,1.21319497586342,1.39746507224707,-0.0402510365458035,0.037115569524407,-0.0131958647620234,-0.250258168122452,-0.211442020123089,2.16749414646372,-0.0474134492911781,0.0615929154678226,0.0347962680805003,6.29482099134991,-0.001835497450701,0.000305636534059174,-0.00103403416286193
0.44,2.52946436784589,1.22805908555867,1.43611181023384,-0.0319771764867516,0.0459551802875301,0.0160489326624259,-0.254066448255586,-0.194523606893202,2.14187936361547,-0.0948962587557579,0.0378849014215783,-0.0200096724869932,6.29083453199347,-0.00124598716950909,0.000446860090743944,0.00017556579234742
0.45,2.51067260703746,1.21910906565129,1.42579636517797,-0.0649225933044391,0.0237654267169557,-0.0187450377689675,-0.287293258493128,-0.215150827106985,2.139505976872,-0.0818518775018606,0.0335521885632899,-0.00559453239694007,6.28329373278487,7.70847261527648e-05,0.00136291549793978,0.00114307709111147
0.46,2.5015714510443,1.21610929187854,1.44316399316178,-0.0560306228260085,0.0262458568255428,-0.00809884868950181,-0.267736230086161,-0.238631488579799,2.15269935073138,-0.0251982715396794,0.0722371808044971,0.0185362286064709,6.26098948226773,-0.00172249946220634,0.000271454041314147,-0.000503352817384188
0.47,2.52415824636069,1.21967569231371,1.47453523006919,-0.0192301468347497,0.056330916767121,0.0145293697897251,-0.247449767178641,-0.213111632827492,2.1548945199529,-0.0870909662582393,0.0419244742058293,-0.00442461207417197,6.25259352589056,-0.00214189937799552,-0.00031689998225667,-0.000489657700961832
0.48,2.55326866997122,1.25185486127665,1.50940032914257,-0.0229030747166747,0.0664027665408258,0.0261859169794849,-0.236406960823866,-0.154734948557639,2.17825148336244,-0.0863893362907473,0.0372361299083385,0.0138516948191853,6.21287395712694,-0.00247340415060289,-0.000609052430771231,-0.0019061808316704
0.49,2.46799572253292,1.1890385121092,1.45803511794102,-0.0990561770843222,-0.0113701423374881,-0.0411616099193985,-0.376429656000095,-0.286084304149975,2.08431022823579,-0.163811470448142,-0.0371862466437423,-0.0797329588573073,6.28527023438657,0.00417366689032778,0.00379989136796348,0.00573141610878183
0.5,2.44636783185174,1.17120021017117,1.46265918267715,-0.103562607499298,-0.0186376166406847,-0.0504790574685905,-0.285727578438205,-0.310112646633925,2.20706203851833,0.125997195357723,0.15882505329799,0.10380262789354,6.18736156852856,-0.00293286794031469,-0.000412699421046771,-0.00252367899491418
0.51,2.52831454809225,1.20175115786985,1.55778363313226,0.0544415679033535,0.103272871840518,0.0610774440886039,-0.212000568348315,-0.24267831712858,2.16324971543593,-0.130519739408745,0.0316350666336044,-0.0358826466921445,6.23640254054254,-0.00445648156794434,-0.00268592296398132,-0.00118079686996782
0.52,2.54049692605517,1.21131798361711,1.54146687294694,-0.0607075007829968,0.0454519011432926,-0.00727395257430995,-0.315074575680555,-0.165040516918835,2.22232838009336,-0.196869236300622,-0.067604034957641,-0.0161289914102256,6.12361390312118,0.0018705538496694,0.00256941065614944,0.00110003532747263
0.53,2.47486663368594,1.23121968847894,1.5731835876424,-0.104038878339766,-0.0118439046405706,-0.010292680995524,-0.304008805745484,-0.257603160914932,2.08393041103696,0.0447639785515439,0.121302131545748,0.0185850546900257,6.20361411594947,-0.00164023545843696,0.000229202275842831,-0.00039587034370851
0.54,2.49709720888646,1.20326414950336,1.54275051476071,0.0058038090099998,0.0776112005733253,0.0145104484852784,-0.25313266217776,-0.277674138394046,2.20385928337376,-0.0871172186668632,0.0416373025387085,-0.00216167095190056,6.1619962507863,-0.00344599133576508,-0.00185850754333005,-0.0005845978370487
0.55,2.48794255133773,1.16192234493702,1.56770539875804,-0.0739608198424911,0.0198101373539732,-0.0213398063517131,-0.351594484281793,-0.260496685480846,2.13876349118256,-0.182410754092178,-0.0611503819711943,-0.0281998279068108,6.15294603469598,0.00268844302291119,0.00303890539954069,0.00234250144322757
0.56,2.4441580288163,1.17393906202133,1.56286141430166,-0.113497209387699,-0.0232919143348782,-0.0290175197946437,-0.326446003983543,-0.308896576162525,2.13903169469654,0.0646026803077441,0.128973296847459,0.0332252761615578,6.15347463878517,-0.00143169691525545,0.000156052870879234,-0.000200798439542657
0.57,2.48354436639919,1.17775538594449,1.59720786688683,0.0107885196938089,0.0793851553288838,0.0188200326367149,-0.262186721424401,-0.299636377713758,2.19475326742019,-0.0816922062992739,0.0381259020699544,0.00073471562230033,6.12738106934389,-0.00383120356606183,-0.00213168906253761,-0.000920639587402012
0.58,2.53160736302871,1.20162452931944,1.64969930817796,-0.0255653217947781,0.066298591053444,0.0262289500962449,-0.276079112945399,-0.202740252357761,2.18420935752491,-0.159829837638358,-0.0324091636930028,0.00440549070783176,6.08511618527475,-0.000904830588756155,0.000450386674716117,-0.00145889150001241
0.59,2.50113155854383,1.22544446550062,1.65347546251634,-0.0724162269083113,0.0234276319484888,0.0155377542250003,-0.299198154072069,-0.243475273167651,2.13448504534394,-0.0541743427654131,0.054653939411995,-0.019435601673057,6.09389148990702,-0.0012567589167681,7.8993680105223e-05,0.000174263523826601
0.6,2.46604633137291,1.18077450483444,1.62386773445672,-0.0544078170793488,0.0347507433179281,-0.0177320699346051,-0.326055425042019,-0.309109504647642,2.13548294418845,-0.0884158244913384,0.0214302586420844,-0.00477198975499681,6.10765756023706,-0.000809089022236537,3.63556533659192e-05,0.0010555633185844
0.61,2.48786495738372,1.18311206198591,1.65867762425316,-0.0421940238554064,0.0479485893784091,0.0141246002556276,-0.291047848114506,-0.263731001920944,2.18115921149529,-0.049051147668535,0.0413259526615007,0.0360655528996839,6.05723054679908,-0.00269582476530426,-0.000977564396029203,-0.0023813515894571
0.62,2.4727092650942,1.17380299518831,1.66907237500307,-0.0478506156289921,0.0342168907475276,0.00878997971495797,-0.334103000087188,-0.298536858965727,2.12194513373038,-0.144552360184309,-0.0164415289800897,-0.0548724046414625,6.08772888321282,0.00011667361942739,0.000904166761921041,0.00217195998174366
0.63,2.44518275386015,1.15099222895031,1.65080291592963,-0.0961221679139526,0.00194728284846451,-0.0355088243794915,-0.349780222539106,-0.322081020332751,2.15547371576578,-0.0384676133668166,0.0518444451738253,0.0340471534660849,6.05161028685303,-0.000139962630993877,0.000440283066928619,6.1027272150566e-05
0.64,2.44465251636201,1.14665997873805,1.67971732462071,-0.0487188049553325,0.0353449689230129,0.00544031675909631,-0.331958642353764,-0.337133049121679,2.14830775277277,-0.0446930554535097,0.0355507797906871,-0.00598643186432265,6.04887197252254,-0.00221080867614726,-0.000686624728955671,2.06355386180824e-05
0.65,2.44680406127209,1.13273430437259,1.68534037308663,-0.0547826791771046,0.0259468057745171,-0.0146938153921411,-0.349282187035191,-0.333124568202013,2.14083223229426,-0.131118595560491,-0.0100427218365114,-0.00949307794995724,6.04650846571735,0.000177284635036459,0.000815074130044156,0.00113571668483729
0.66,2.44522521688111,1.14356364503554,1.70457220704109,-0.0824335654944164,0.0151332938045184,-0.00774595317918252,-0.337145038392168,-0.327399819514347,2.15718902220565,-0.0285170938851858,0.0546395838893384,0.0206349259415062,6.00774101263631,-0.00124571310216188,-0.000326876664634061,-0.00061710882433211
0.67,2.46390273278155,1.15934866974248,1.7372771199029,-0.0267779302781828,0.0559529654564865,0.0184503793190783,-0.311241268743952,-0.315848093629914,2.14919050895374,-0.0746516864688871,0.0221303344986999,-0.00425914610791105,6.01819495771406,-0.0028624397913821,-0.00138540363081773,-0.000670631248169281
0.68,2.43687707986783,1.12495497009363,1.71653465009566,-0.0767213028147716,0.0123793749392855,-0.0229462204605045,-0.377483593730658,-0.35947045010314,2.13568179343527,-0.166143469928064,-0.0441983659547414,-0.0312411220754219,6.00891289318259,0.00205083518411762,0.00194733927551411,0.00255955397584166
0.69,2.43953080993576,1.14133026825825,1.75452797934105,-0.0872000590478126,0.0117683866685355,-0.00558329050451351,-0.325509180323524,-0.332114902018959,2.16656035306415,0.0548883060132882,0.107938805858065,0.0597685758081007,5.9566255520679,-0.00328207091562691,-0.0017341555501553,-0.00256649970036849
0.7,2.47385707371545,1.1620535248161,1.79026637266745,0.017245869505582,0.0873907283492843,0.0444186342874857,-0.301256351394744,-0.313944535350492,2.14143141434463,-0.151157092673027,-0.022211178321763,-0.0365751516395644,6.02053269123656,-0.00316996998296195,-0.00200527848985668,-0.000348881402773877
0.71,2.45931222742554,1.1447306464059,1.77503590679084,-0.086305368377644,0.0183426151708684,-0.0141599320370398,-0.357162392984582,-0.330814185005607,2.20324063079178,-0.161326281526996,-0.0480991712311846,-0.0053612294855938,5.90591280178825,0.00180043125533471,0.00184005898441071,0.000918598727544999
0.72,2.44495273477855,1.15447046473114,1.82992541560785,-0.0803412114390372,0.0175522997883613,0.0112638728199951,-0.327033267931612,-0.330100952743143,2.1029441042421,0.0487148067714148,0.107323845075637,0.0302905938062038,5.95072646024798,-0.00372432921263253,-0.00214362289985853,-0.00196605525779583
0.73,2.44141643059049,1.13093951953301,1.78351278628205,-0.00987432195340918,0.0655973928442488,0.0100150326994307,-0.353108982258879,-0.36635614422082,2.14277881138805,-0.188367049587764,-0.0583607513470354,-0.0429219924623174,5.98460684777881,-0.00091147236786634,-0.000406126701041377,0.00156605589141111
0.74,2.47422880603423,1.16060754033111,1.85070345129172,-0.0675297948873748,0.0390866606554444,0.0189733524489214,-0.299904032653491,-0.296346426292922,2.21946945715762,-0.0418038601562791,0.0422019503236045,0.0646696702699043,5.84783977611231,-0.00252315405918711,-0.00137934372265288,-0.00396070781168115
0.75,2.4640658601069,1.16250381268587,1.87660160674798,-0.0284827078953893,0.0576399068131301,0.0423739330070085,-0.331454764723921,-0.334444049697802,2.07338388451814,-0.126177923511314,-0.0152527166975702,-0.0700144031069972,5.9628342644317,-0.0019845857689814,-0.00106921609521541,0.00131509485268903
0.76,2.39524989323719,1.08672466615134,1.77893298617691,-0.116255414369001,-0.0163399804260025,-0.0633005738948024,-0.430580711152829,-0.429700399870827,2.14862458962676,-0.147913921233354,-0.0425067884732057,-0.00177387372669646,5.9141145829756,0.00339631439880899,0.00221648145878877,0.00307878486829423
0.77,2.39732221601579,1.09301498311022,1.85774367248853,-0.0902440608912862,0.0070976423273277,3.23533070530986e-05,-0.36628139625968,-0.386511550107727,2.16516841661011,0.100123180331825,0.110290699800832,0.0653060268949925,5.85609796599754,-0.00442714227740734,-0.00245397114289648,-0.00308687176180208
0.78,2.38102493450672,1.06173759018226,1.83595431798469,-0.0245937044035665,0.0330303560633458,-0.00857112267470962,-0.42466052644653,-0.448800803474688,2.06998047545644,-0.247365612659973,-0.0988578832022864,-0.0945692206362505,5.97016993013288,0.0016247534970788,0.00129341778565004,0.00488592939149855
0.79,2.41749969294372,1.09995401633485,1.86587649255232,-0.112003171083334,0.0023292922962776,-0.019513883532926,-0.341129122099452,-0.365556507496036,2.23193384707091,0.0415115554969808,0.0957675988766922,0.119400078648127,5.78667166181867,-0.00230430313277325,-0.00175409227265426,-0.00472939078682197
0.8,2.42879074475901,1.11458706532109,1.92909539944541,-0.00639527570807296,0.068521024910784,0.055253409201547,-0.359791744178178,-0.38302172067875,2.0670754605116,-0.129522266411158,-0.0367782985801786,-0.0943441141948254,5.93087096043607,-0.00282769824263856,-0.00168490846404402,0.00187585546411275
0.81,2.42634392930921,1.10793203599722,1.88492589777121,-0.0742897797223548,0.0228534043797733,-0.0274188067428062,-0.359588825318578,-0.39085280772017,2.21005404068099,-0.144782790250113,-0.0284692377883703,0.0492857667323728,5.79564076807104,0.000457333028736172,0.000402779876335095,-0.00103928974246681
0.82,2.42606536393713,1.11167974233076,1.96254036102528,-0.0752858682518756,0.0294741882656716,0.0355572436913373,-0.35238018035758,-0.380118820638146,2.0870823584256,-0.008013679948499,0.0499352483229758,-0.00871232153880651,5.83979237454321,-0.00292037404120608,-0.00200598937310275,-0.00126377893037736
0.83,2.44678970051126,1.12894430985397,1.94016026736362,-0.00441600434894428,0.0779154090501022,0.0287030607211897,-0.328192479765976,-0.362886101353493,2.15596548665238,-0.131624536157736,-0.0273823751781011,0.000183892437915271,5.8545285002137,-0.00331871748123168,-0.00236181293307473,-0.00133215760692621
0.84,2.40892010286613,1.08805053834825,1.94158661280757,-0.0937912838756344,0.00722089631979438,-0.0080198139167047,-0.397866635120216,-0.438174149141917,2.1471369520636,-0.181858812006438,-0.0743938965484757,-0.0343352880003746,5.78416780755122,0.00244913596145613,0.00184324784889048,0.00200493964366253
0.85,2.38448333140994,1.06682495335054,1.95859486717762,-0.111198654030158,-0.00943634075332606,-0.0166755624594553,-0.399375082840283,-0.427294129656473,2.09183651188194,0.0540416356524012,0.0925034257423498,0.0392985918077178,5.81026908377905,-0.00261869980239826,-0.00184255500721699,-0.00107041005324698
0.86,2.40027783584194,1.08064834429609,1.95713713728394,-0.00177649097576854,0.0723938544526269,0.0272411421857813,-0.377581255847876,-0.415183990269356,2.14934144411726,-0.140096362026131,-0.039442116882103,-0.0138344737028388,5.83417460643551,-0.00300368329177286,-0.0023850586376322,-0.00059364484014783
0.87,2.41324107469885,1.08904338168296,1.99813229516345,-0.0743489205409562,0.02703933253063,0.0105235334756663,-0.36145383702862,-0.421562485732089,2.17430058659527,-0.149874847636828,-0.0555558821471185,0.00184288641535852,5.7264850609314,0.000350984057091913,0.00048006857713127,-0.000582740471367849
0.88,2.36892776253345,1.04352071094848,1.98713397210519,-0.11867260266854,-0.0196111952523245,-0.0207583378150158,-0.435116729892541,-0.477088643583885,2.03499279987293,-0.0476866259468239,0.021673321867208,-0.0312026872668789,5.81950666154776,0.000413912303539372,4.55926746535735e-05,0.00245498209051977
0.89,2.35535262408671,1.03150656125643,1.95268114539335,-0.0674188572423669,0.0217885967541048,-0.0229319060194194,-0.424795511730614,-0.473496729049277,2.16928277896216,-0.035629819395732,0.0141803487432348,0.0424310425347219,5.75175976973787,-0.00240079866083081,-0.00181407548788519,-0.000913995539594551
0.9,2.36986322988586,1.04070159878462,2.02520262786903,-0.0508617388697629,0.0299722347458228,0.0170732880791941,-0.400201128815747,-0.463558427851252,2.09525952557652,-0.141306929339846,-0.0499697869627046,-0.0195151579315865,5.76991468481965,-0.000672176228556461,-0.000408104830098859,0.000126478841433113
0.91,2.32096527189068,0.989213297311762,1.96324813318143,-0.142550886970302,-0.0436316195375387,-0.0553377304204369,-0.482065767481629,-0.554500127467213,2.076337948481,-0.112154815570524,-0.0333874149789288,-0.0375206946425877,5.78289365532747,0.00363869579743003,0.00172323095083405,0.00439599163153453
0.92,2.36711326519039,1.03271848013065,2.03767093022746,-0.0622182695456985,0.0308908011011157,0.0062622900920498,-0.378345133323974,-0.43683904443052,2.20808200099382,0.121364796208452,0.105729206545121,0.11113214803933,5.66298997470774,-0.00684144647846876,-0.00487728726523539,-0.00551393535669666
0.93,2.35503326015585,1.0202694511793,2.05680218937059,-0.006201939221646,0.0426827414634587,0.025356528993956,-0.431224366953001,-0.521216524565928,2.01056423973427,-0.340920753095644,-0.182843479361219,-0.133705517271844,5.83325955194385,0.00258470448884832,0.0018051674824843,0.00515966784770543
0.94,2.37854138036221,1.03733047672404,2.03838368840402,-0.154330055317046,-0.0314908066587343,-0.0334166894800918,-0.369176033887996,-0.474751091299713,2.22873467747148,0.0715989260348267,0.11822725359832,0.126653591854633,5.60238935931448,-0.00147181654630179,-0.00199726085480235,-0.00441292064299003
0.95,2.35572161936761,1.00996942081104,2.09672244232202,-0.0245484936856191,0.0551421362395784,0.0370483785023855,-0.44636376350695,-0.494081124346525,2.01995301981975,-0.121528976215929,-0.0694434023126479,-0.10650106830258,5.78762579605247,-0.0023961756747632,-0.00177472897390824,0.00332450123191085
0.96,2.3579078015012,1.02794367218792,2.05573566887771,-0.0792922083053742,0.00853786229953718,-0.0320837002800697,-0.383117875167112,-0.505266588512116,2.18789417680275,-0.134749277459288,-0.0367076922203165,0.0798995137591667,5.63387492391664,0.000177470950650253,-3.46454127304667e-05,-0.00226002014491827
0.97,2.37905545043856,1.02638607245248,2.14235238520355,-0.0796800941929392,0.0243467872538715,0.0466090251591419,-0.389139592169703,-0.480968689431678,2.0484643183923,-0.0263895862260322,0.0260030506689457,-0.0354227895740109,5.68795733206948,-0.00256165881866171,-0.00244617043821379,-0.000511486285110742
0.98,2.35439346652359,1.00981146239297,2.07581262677363,-0.0567769400702741,0.030806190074291,-0.0182856466944924,-0.419525472801239,-0.525225369345879,2.09184784281995,-0.15358006388431,-0.0796657173117294,-0.0143654821121177,5.70377976723763,-0.000278987874217091,-0.000348867209413261,0.00156038306386255
0.99,2.35690007048528,1.00681987303841,2.12292397943691,-0.0939369780549885,0.00145141383403749,0.00338362446620472,-0.395663189783025,-0.517252877436271,2.12347613140096,-0.05056114316461,0.0126101633595065,0.0412550670125419,5.62163506372422,-0.00126799901377802,-0.0012600883964902,-0.00210626723870274
1,2.34754161842085,0.991877084322216,2.13439490762284,-0.0655678036904546,0.0254669415932895,0.0136491602700423,-0.428886055290777,-0.528458037482511,2.04731116068034,-0.101901969934604,-0.0351872681718485,-0.0473586878792773,5.68711977266191,-0.00119441991320767,-0.00144971523388636,0.00161296939240335
1.01,2.348295895523,0.999162790713718,2.1266683714913,-0.0749103026274032,0.019180695292037,-0.00994751512637399,-0.400792168121945,-0.529660695076624,2.12215794656025,-0.0885829569404399,-0.0300185171703454,0.0421943812275537,5.62283315220373,-0.00124865676579143,-0.0012170874597394,-0.00151248924699969
1.02,2.32004155197357,0.960196895719949,2.13977877208656,-0.100396926103963,-0.010312589928028,-0.00464917995586516,-0.455550304618357,-0.58243962571224,2.03799830913955,-0.116991079759593,-0.0501676218997922,-0.050184227561415,5.65814850820058,0.00105996921024813,0.000257648493918993,0.00259850451161707
1.03,2.30645405829692,0.946666175424676,2.12572531982781,-0.105970901701554,-0.0125681269394274,-0.0348771928061448,-0.456340986676928,-0.573875796240978,2.09891135858335,-0.0186495308711864,0.0157475813295739,0.0428538464874246,5.61461425954009,-0.00123941741170067,-0.001505876903672,-0.00037387330493181
1.04,2.34839392718041,0.991057095080974,2.19937108777998,-0.0253264021156194,0.0548702243412981,0.0434703725330799,-0.388893007961907,-0.508190980158485,2.10107213570726,-0.0778549529378526,-0.0215201745668162,0.0139027996425533,5.62429250061323,-0.00392907935256799,-0.00351715383202761,-0.00265441673047025
1.05,2.32572097013787,0.966651368315452,2.17470364159583,-0.0883330650535272,0.00145009295471896,-0.0076077612656419,-0.427519492502893,-0.614494962634664,2.06729839452379,-0.219394903981431,-0.132046337933523,-0.0668085354631152,5.60126106965741,0.00298021989245825,0.00170828996134719,0.00353344008258406
1.06,2.32757055116886,0.945515729000553,2.19559657733509,-0.129855695851767,-0.0289129426915866,-0.0242400473065204,-0.425990820381795,-0.564796372945708,2.07200830804474,0.0717046423520137,0.0877052475158097,0.0778250442729166,5.57058407080138,-0.00262164451471936,-0.00260213418095102,-0.00252915389430938
1.07,2.28718900358693,0.919810111403341,2.16998172205273,-0.0467401090726214,0.0261731363954956,0.00186970574715012,-0.494011886026508,-0.615743667122937,2.04039168386834,-0.183114988594468,-0.111907951906293,-0.0792409100927619,5.6492965199235,0.000213257754515531,-0.000599486713645632,0.00368696984083097
1.08,2.28596516390538,0.924238646526237,2.19148691349394,-0.129070684379816,-0.0321799653792742,-0.0416062747927262,-0.434386402222454,-0.627603307573763,2.11332350729275,-0.0512000012550873,-0.0118083019981826,0.0712630922026293,5.52634946119159,0.000602780725418166,-0.000181291965572354,-0.00140452776943487
1.09,2.29541423692443,0.907977746547915,2.22752394198215,-0.0828173122586474,0.00255387624191684,0.0137987837712511,-0.470819710023902,-0.600993852282315,2.02330964527196,-0.0384845816390744,-0.00806561404902237,-0.0421142710965034,5.59314498860801,-0.00194613227166205,-0.00207234772623798,0.00135802818508384
1.1,2.29040550833966,0.924454460801301,2.21172774574581,-0.0694890610316125,0.0131413764526608,-0.0224917079183271,-0.439198527010264,-0.623790597488743,2.07836303539129,-0.134080720508234,-0.0712821645399653,0.0244904685709521,5.56124098888587,-0.000237164312803269,-0.000892473993718934,-7.71374087465405e-05
1.11,2.32446707143099,0.938457486953131,2.27040650104994,-0.0839178050944615,0.0107205151167813,0.0265701968155918,-0.394035684819071,-0.595988419872603,2.06941692283873,-0.0452909003969381,-0.00858653263760326,0.0137324358321985,5.51850034313064,-0.00202704298030535,-0.00211097318665034,-0.00188542778061147
1.12,2.33700486061991,0.943735143666507,2.28055558780285,-0.0487656565688051,0.0356859176538108,0.0233856530826645,-0.398170797019126,-0.592325769067609,2.03624228742584,-0.118682138689765,-0.05544532223547,-0.0247313707828901,5.56089008812113,-0.00189321506651151,-0.00216294094068457,0.000103370379308699
1.13,2.33691248891638,0.945394284248726,2.28377760886905,-0.0758630298715539,0.0204533031058156,0.0103836485181858,-0.379990851265777,-0.615577315579705,2.08204246384576,-0.111094336259568,-0.0542347061757712,0.0202488184734972,5.49513990557473,-0.000863773178051083,-0.00140136650143069,-0.00142657667219293
1.14,2.31938694381247,0.911691617353598,2.2969515774916,-0.0919468964806812,0.00131147838858451,0.00977874545087633,-0.421842668030048,-0.634739855891125,2.00744420362009,-0.0856263845397174,-0.0427865571276473,-0.028319944690807,5.52975399795015,-0.000563770266305659,-0.00110948947210781,0.000891996251019285
1.15,2.30963337168018,0.908758460100637,2.28587511040648,-0.0764228724211152,0.0119900135194746,-0.00296741715015304,-0.424312410446601,-0.626073423562482,2.05996850030286,-0.0687274782722908,-0.0252008439040675,0.0261829320414403,5.50314548883977,-0.00181020028506169,-0.00225637328077148,-0.00107347566587623
1.16,2.27313886546844,0.87482810082072,2.2866320590377,-0.098831452471608,-0.0106176794108699,-0.010405078961579,-0.466289443131302,-0.691749337139101,2.00650497229868,-0.144044840527206,-0.0960158630549166,-0.0400893181273734,5.52133005401607,0.00154331343125198,0.000219218347411707,0.0023982895014985
1.17,2.26880503019098,0.861131742220661,2.29000979435505,-0.1187914694095,-0.0288212063836609,-0.0265251573644507,-0.460702787110888,-0.669961791071328,2.05057613745464,4.807219367986e-05,0.0115877875869497,0.0431152725731912,5.4735758143271,-0.00129596345131211,-0.00178081369162218,-0.000778838194583735
1.18,2.30352023490271,0.900951666761635,2.35045117391393,-0.0276295386735018,0.0475085979477994,0.0414305955484595,-0.416150240968933,-0.608132903340456,2.0510850097171,-0.0869453668935046,-0.0412201108446464,0.00326426484004772,5.50180891122157,-0.00371639320268297,-0.00393432775143123,-0.00203982127859619
1.19,2.30740590314751,0.91037498685745,2.35436420281343,-0.0706782769634622,0.0192051062556328,0.0166433148636471,-0.381739454845569,-0.687331908029472,2.05415909268436,-0.191435298283786,-0.131460484003148,-0.0296671822343795,5.44090324620421,0.00099256010668753,0.000115018599685184,0.000642417305071572
1.2,2.3079839669677,0.867620441479139,2.36465621340667,-0.122547753415339,-0.0267277430782698,-0.00581265408822349,-0.417035408065574,-0.675585788230157,1.98987175302444,-0.00948829005301174,0.0190407014272727,0.0196057573716318,5.45523340904816,-0.00110331693561656,-0.00183839970510841,-0.000644625473279678
1.21,2.25742275236358,0.832383522110793,2.31743427158951,-0.0815211678990265,0.00212432510367715,-0.0157288083127921,-0.499005544431032,-0.708578024720354,2.00548499077733,-0.120119654560301,-0.0855072261576081,-0.0341365191154277,5.49334440135969,3.6435411389109e-05,-0.00125720310484491,0.00237553293464378
1.22,2.25877439697289,0.851524108355087,2.3624116625802,-0.0973023951031335,-0.0107776036719378,-0.00959607196647076,-0.429547893893934,-0.696841189488066,2.05394205406605,-0.0499906389938383,-0.0371264879266247,0.0548443997117428,5.40816270361955,-0.00123375416581047,-0.00159712838606219,-0.00212538324129305
1.23,2.28136588767007,0.850938682880182,2.39659574162599,-0.0671507144170388,0.00988028191857067,0.0288902521653625,-0.436670602593752,-0.685599318584425,1.98161757406202,-0.0996004525655736,-0.0522887586685278,-0.039455876170192,5.4585207219438,-0.00143664320088277,-0.00218979987527708,0.000533087273529826
1.24,2.25880482571748,0.834210261928958,2.36323081004274,-0.104102107395572,-0.011587608004223,-0.0249488326679615,-0.448516214406375,-0.744922750986337,2.01360458922878,-0.121891017102299,-0.0857673601340456,0.0041345612807586,5.42428152966571,0.00106892288238224,-0.000546908455930381,0.000993081866995032
1.25,2.2671403997751,0.823302280497643,2.40175238713169,-0.0997534353383134,-0.0122576442287407,0.00515904712892626,-0.438919519447691,-0.702243525576456,2.00748520772722,-0.008799139471611,-0.0134537852626996,0.0250408513077974,5.40474393949693,-0.00217627896067366,-0.00236755540810252,-0.00140897818194453
1.26,2.31465149223864,0.882250455361135,2.45604969170115,-0.0109997281476528,0.059497215996764,0.0587883076597022,-0.370267850326927,-0.640148590628542,2.03115360492125,-0.104629359318422,-0.0485305815646707,0.0101037968476358,5.43064637375534,-0.00422670994804358,-0.00476162159528441,-0.00315135373488411
1.27,2.27146363574636,0.834643575795289,2.41758157396145,-0.107513278179567,-0.0121920303369795,-0.00680791158938291,-0.413554329179821,-0.809431054739986,2.00550567316311,-0.236812746838124,-0.190141832530779,-0.075179175004715,5.36974755432472,0.00429081681187178,0.00209836141779097,0.00389649939318577
1.28,2.23179505729339,0.745772326524082,2.40359371794108,-0.182732827004813,-0.0949215521117394,-0.0644870667310503,-0.504232405915408,-0.778232924732072,1.93503254488187,0.0846617259525285,0.0636311011077025,0.0557076457229723,5.42602164038838,-3.22700810351266e-05,-0.00140971334722596,0.00041126542346217
1.29,2.17391163290122,0.73177210667165,2.36270309226449,-0.0744991103886998,-0.00909519823132286,-0.0269522715732409,-0.57546961908067,-0.7908552664662,2.06144912092704,-0.101177381584591,-0.0960432676819068,-0.0340316659630958,5.38821645925039,-0.000517530877912107,-0.00183554218493964,0.00289812437324529
1.3,2.18413214148216,0.76570828865789,2.45665210745473,-0.114253829544665,-0.0383316207620849,-0.0299701567867796,-0.464642845654818,-0.806372534272289,1.96722901211471,-0.091677778465461,-0.0811410831493324,0.0491385691467659,5.36204619839606,0.000986960711861209,-0.000217742444806731,-0.000903614927936331
1.31,2.2223471605174,0.753279432539566,2.43407449196606,-0.108773543512008,-0.0300567511206584,0.00552209218079319,-0.482185392636619,-0.779961742749632,1.9663152135029,-0.0273351297564532,-0.0207023218747475,-0.0298866565095731,5.37832556460512,-0.00100211688648779,-0.00213966746437584,0.00116381255148302
1.32,2.20158886422414,0.748241791301159,2.43502817672097,-0.0933202242577217,-0.0163336486623546,-0.034623531007231,-0.490450318202087,-0.814321744609909,1.97342050963301,-0.116803419305078,-0.101224432498574,0.00618374328058111,5.37545726327935,0.000641688783613943,-0.000985359865505945,0.00135293381326663
1.33,2.26297220804219,0.799190529964705,2.51131180159497,-0.0682599715383741,0.0116784803427871,0.0387463440549439,-0.37523971145189,-0.730902819310593,2.01903188599545,0.00115205224696325,-0.00784367225610294,0.0610685680008997,5.30340396789616,-0.00401655520360356,-0.00412481544994601,-0.004668807361461
1.34,2.27756640885686,0.79862933086026,2.52299322742695,-0.0396365489848641,0.02756168025188,0.0433722733317709,-0.388618623110095,-0.78942310745548,1.92376873539007,-0.205676041357852,-0.146636989602403,-0.0837156409120978,5.38011154959949,5.6191023957668e-05,-0.00120949447327383,0.00195712061817896
1.35,2.26503361229744,0.766654327434523,2.49274962819492,-0.131800327339994,-0.0340964439012066,-0.0238331227221634,-0.386344663456094,-0.833238011473288,1.9994741551862,-0.0491122868289248,-0.0341498983955491,0.0515270516253504,5.27457921571644,0.000504519655785342,-0.00126547698184988,-0.00130806002095274
1.36,2.2588426157187,0.739807128510744,2.53033144761377,-0.0727199101508258,0.00721446220108454,0.0279280245578131,-0.443814505773205,-0.762152517326897,1.92264659824978,-0.0314490323304302,-0.0470812877297295,-0.0213602327812184,5.35152235090632,-0.00284804050115657,-0.00331201661530045,-0.000272062287841127
1.37,2.1646812714895,0.693237792029377,2.44743402650044,-0.129484860234582,-0.0611458213900976,-0.063330923682059,-0.512721569559418,-0.937440593723428,1.91841101635581,-0.220918662410125,-0.177282196638386,-0.0516515729678259,5.36011752251638,0.00570103847438211,0.00209449967614322,0.00544600772960203
1.38,2.23587758419609,0.722306177890605,2.54541490647308,-0.119108092896232,-0.0302884094498219,0.00552939542594628,-0.417363384112728,-0.752678549952006,2.0474293256307,0.196752897003642,0.105975689143168,0.141958742815985,5.20584042096817,-0.00640955121258684,-0.00606346428133492,-0.00692964819169742
1.39,2.22733256071509,0.747072964924888,2.57126507350779,0.0225564682776497,0.049524460763944,0.0617485846365797,-0.450048468695068,-0.812086420327249,1.85021616247897,-0.32206157556888,-0.232191714079099,-0.146645277872669,5.45413901857016,0.000346780890120238,-0.00119693502968696,0.00410980779726724
1.4,2.19427243279345,0.702280219720572,2.4894000869087,-0.21025288706162,-0.102527165463614,-0.0796329826904629,-0.412018288777392,-0.980410105048306,2.09092741092854,-0.0709285165513922,-0.0516760942224049,0.0718663201205337,5.1707556811207,0.00544978306538714,0.00110359300380711,0.00036658934342703
1.41,2.18456493205562,0.607867846998069,2.57591322263165,-0.131846877292836,-0.0465520766771991,-0.0117088999773448,-0.560354051152791,-0.810608333030733,1.88878958642971,0.130162774951398,0.00123472309360634,-0.0246013674774512,5.29998250524298,-0.00381347821202099,-0.00330700824234592,0.00172633168552138
1.42,2.16857005289229,0.717505442505512,2.55030595714637,-0.0108628520434882,0.0129785373873878,-0.00542865424904992,-0.451420638544261,-0.841746791561945,1.96527233167578,-0.211668831448034,-0.134147833872056,0.0383669268078478,5.31662796835105,-0.00105667065700986,-0.00222188469527274,-0.00149787585522865
1.43,2.24648087350264,0.739092189042801,2.62713983062356,-0.109220250002645,-0.00468960856400064,0.0513701744588129,-0.334684930303663,-0.897161787394305,1.99507963188441,-0.0680167331020572,-0.0641750175294017,0.00144804248360939,5.15331963047076,-6.96697784090608e-05,-0.00218820628851211,-0.00248307540972621
1.44,2.25069321979011,0.67085581086716,2.61350709721346,-0.0857989289915719,-0.0096361119931487,0.00625081792177037,-0.411510180424809,-0.848892397234622,1.80698875597817,-0.0568564069661681,-0.0882156492362766,-0.0469486095106919,5.32546524428844,-0.00138423351797326,-0.00179206750883892,0.00194458720646066
1.45,2.23046083273664,0.697846089751532,2.56784066325878,-0.0730272526663056,-0.010803418355386,-0.00332276114027993,-0.39423223201979,-0.882254403475955,1.98474660509005,-0.103562473625309,-0.0650887689759278,0.054469800550599,5.21137866438843,-0.000827029231950097,-0.0025217074536857,-0.00239573553507123
1.46,2.21247163517067,0.657104366622922,2.62746802636223,-0.11033933440867,-0.0212412336496943,0.0167006976940093,-0.426393737090642,-0.92687382782595,1.8550621476315,-0.096250122937703,-0.113134137115751,-0.0539133384385992,5.2518639192165,0.00105522632020768,-0.00102928836503336,0.00176420148394679
1.47,2.22396843280669,0.661651935037294,2.60802333163148,-0.0864946982556729,-0.019052040062895,-0.00441225517845917,-0.3990714853336,-0.863496152584971,1.9295415804717,-0.00275648671329841,-0.0334745997334753,0.0534044848066412,5.21413192114915,-0.00277826115234068,-0.00318663717647818,-0.00229277584562364
1.48,2.17612459183383,0.624901669582372,2.60282863648246,-0.0960801663077311,-0.0355158327001652,-0.00722805714763085,-0.472337617847537,-0.975851964262276,1.84395397330355,-0.197085406055104,-0.160529598847739,-0.073036136808514,5.26803835091436,0.00326019569910676,0.000192389404896068,0.00379989537013565
1.49,2.20078021474577,0.632848225490482,2.62529098224429,-0.128810920114327,-0.0419828413473818,-0.015533845130352,-0.407589870804773,-0.899904729988827,1.95069692046943,0.0835048080288045,0.0141812731655397,0.095462349463916,5.15591476135326,-0.00278956632208423,-0.0037251993324489,-0.00377197444566398
1.5,2.20960727624955,0.643583068151141,2.66842298182951,-0.0217660262177977,0.0207164847979914,0.0504405490262802,-0.425852558734606,-0.879804376310075,1.84645896273652,-0.165907950574414,-0.147656423702912,-0.0717595019773881,5.28077743231213,-0.00151695200390364,-0.00261040191339261,0.00106357157768095
1.51,2.18498008330759,0.632059670880253,2.62824064311311,-0.139549133698758,-0.0576572739576127,-0.0344785388121526,-0.38509111666877,-1.02843178400339,1.94117321391599,-0.129027235410809,-0.114436017023941,0.0190192800765959,5.13172593483734,0.00350472953116771,0.000297682984372759,0.000725655244905545
1.52,2.20874690951837,0.575742274356987,2.68337678100496,-0.116997290121059,-0.0368995447949455,0.00811091177572508,-0.44788847876284,-0.891003772222333,1.83374695537914,0.0843074323829665,-0.0012556729686153,0.0182013616392051,5.20342610986469,-0.00332784203590994,-0.00385098228471738,-0.00123103669090807
1.53,2.20796634073217,0.654837078848093,2.67872629407202,-0.00465249564640345,0.034091652512006,0.039985425525684,-0.382792860662474,-0.891750183090425,1.91216390670165,-0.17087585909274,-0.13894012086447,-0.00120920509537298,5.22421321517534,-0.00229188878495788,-0.00357926009005092,-0.00175845501884896
1.54,2.19607650468421,0.613208474322609,2.69122018634555,-0.137644094059917,-0.0512246550055767,-0.00249485967793549,-0.356083402597699,-1.0650389242055,1.90252781048617,-0.154955750691609,-0.154884338696602,-0.0375514587653442,5.09912262986233,0.00417289001020464,0.00107215713886459,0.00189442325774816
1.55,2.22617700337717,0.557803265181581,2.71589528118686,-0.115766111366973,-0.043512098592434,-0.00257883266887966,-0.421263307251409,-0.892889001092635,1.81593769612118,0.119664628665667,0.0395335066128677,0.0534721236186484,5.17517318591918,-0.00431467098397138,-0.00468366519441617,-0.00238606500061854
1.56,2.14849984025565,0.57410333205246,2.64974626832118,-0.0455557534316725,-0.00655076716246548,-0.0006632394079839,-0.472393607328701,-1.00961066589124,1.84210257264358,-0.257547715741722,-0.219450779764972,-0.0717364082721349,5.23201657838367,0.00243917235627503,-0.000381821195327086,0.00343506229244699
1.57,2.1809999520769,0.57938343711342,2.7177265168325,-0.152522856141339,-0.0654660813447478,-0.0119485051031015,-0.353976863689884,-1.01545695407484,1.92586359826738,0.0510027849974055,-0.00995973689936623,0.0905822584363033,5.0494411214036,-0.000576711381042939,-0.00232028874900936,-0.00372575893512775
1.58,2.23495693471549,0.577987043064452,2.77237015287657,-0.0147400740828864,0.0322534693898686,0.0720376937858508,-0.399325120738388,-0.86860449588965,1.8032706562865,-0.0566934093474368,-0.0799720358246298,-0.0507799967002103,5.21972181646803,-0.00463368287518123,-0.00545208542848819,-0.000921399739352336
1.59,2.16119270990144,0.580256738204572,2.69114310967982,-0.107037586104647,-0.0412876311520394,-0.0314514637184045,-0.364743718809626,-1.11937879976656,1.89342495618342,-0.26117621293823,-0.240126949525082,-0.0298480324779166,5.08590920823166,0.00566990161842967,0.00210020397927275,0.00290442130189904
1.6,2.16978370031688,0.467925099591172,2.7327421751094,-0.196144551686991,-0.117135349329537,-0.0381020391943018,-0.453792020212027,-1.03001055225714,1.76043801755039,0.146992810877861,0.0475940733366495,0.0442059626741862,5.16297429332226,-0.000465835759189986,-0.00230446002558427,-0.000298495586548488
1.61,2.13169560542833,0.500477882912075,2.68840422897041,-0.0315480160862523,0.00156987788787499,0.00151293737139941,-0.509187054094868,-0.969075589764761,1.94001024985529,-0.096141039955009,-0.125639236791166,-0.0220644407286435,5.13402486590387,-0.00249295569207098,-0.0039236111390463,0.000988773313016196
1.62,2.13875248952362,0.557141660661954,2.80167865091911,-0.0989168130333721,-0.0377877090808267,0.00311937789943502,-0.342483074072841,-1.09403511714515,1.82979335324082,-0.15293305993328,-0.16361257306373,0.031323003533061,5.05244836389005,0.00233047539528485,-1.58118122078208e-05,-0.00163253091594492
1.63,2.1713287121152,0.46258191810637,2.74006599327105,-0.149584236026835,-0.080531647840312,-0.00543344996581546,-0.43319776722892,-1.06253801999817,1.73244461213682,0.0206505948608808,-0.0377503229255617,-0.0473840844830764,5.1572109675531,0.000557434687835752,-0.0017075604574342,0.00248686477965346
1.64,2.14779232339303,0.486875835799012,2.72524069805931,-0.0680831930379686,-0.0192231714574887,-0.0211989259454702,-0.446678709160782,-1.01180904863219,1.89151013626272,-0.0411849121301352,-0.0918967390552191,0.0507609940228794,5.0863647608843,-0.00205500337298548,-0.00360796033162495,-0.00139696603301924
1.65,2.10964261685593,0.473622259676702,2.77340491744112,-0.116214168008613,-0.0657872873665297,-0.00683213962699986,-0.417751982519982,-1.14497524906744,1.74857599319974,-0.166529584202155,-0.188432576723936,-0.0522479061062819,5.11334350210019,0.0040705411677016,0.00106420640246058,0.00278666217150133
1.66,2.17299588498654,0.465816099917876,2.77527032022747,-0.121980404381422,-0.0611615131589354,-0.00652422707966357,-0.392134784594353,-1.02328044751431,1.84518417781593,0.116829588297819,0.0342377471222471,0.0749387311266794,5.03516695715358,-0.0034315978194873,-0.0046928637619313,-0.00323042408472275
1.67,2.13681466771893,0.466778756536856,2.78688110353289,-0.0400544759115603,-0.00488891578047681,0.0184432728852115,-0.439161369863706,-1.07749592662499,1.73614316294394,-0.212984506507929,-0.218802681360081,-0.0807286974195462,5.16310778317657,0.00138532871586935,-0.00116602686901097,0.00294451079835052
1.68,2.15221710641026,0.477324145504324,2.78730139859966,-0.144741199293924,-0.0772941265902055,-0.0204476026506949,-0.318772604239698,-1.13866523202845,1.8691724689856,0.00315574474998924,-0.0536637490704678,0.0755994228520925,4.97274780931652,0.000813605103048207,-0.00138924486308269,-0.00262284819454344
1.69,2.19432282058501,0.43779385366519,2.84925965658941,-0.0590309713991271,-0.010994982292835,0.0443684031397912,-0.406168448043382,-1.00809562738191,1.7209161128932,-0.0154826390129566,-0.0706835307614379,-0.0437973991192683,5.10995052030397,-0.00303313358040359,-0.00443761702945563,-8.50783243455785e-06
1.7,2.13486085696407,0.467137905657447,2.78326907215155,-0.0862665674709714,-0.0366131078498666,-0.0202289472775588,-0.352571780571892,-1.16660212798709,1.79809245404854,-0.188293975605056,-0.203017719342923,-0.00332534595547526,5.04433792357797,0.00309918789743372,0.000186712250182905,0.00110226271199937
1.71,2.16726196206418,0.40636292072422,2.83427681197322,-0.146221775376833,-0.0822331085802643,-0.000759994701386849,-0.362836822915012,-1.11949085932525,1.74699237290259,0.067543704583716,-0.017539822232603,0.0274053020479059,5.02589413970677,-0.000624607827272622,-0.0024349507545697,-0.00127224395794366
1.72,2.14576052178961,0.404829914970256,2.81181397540379,-0.0554428854905561,-0.0194603620100019,0.00569869165522355,-0.432274900025476,-1.08044614067797,1.76161655908407,-0.0916369473494243,-0.129925711508836,-0.0324574183354572,5.08400246892535,-0.000981862543355286,-0.00307195821980529,0.00125793083597497
1.73,2.11334049161702,0.416649806929566,2.82606650345007,-0.12112429920064,-0.0667525876694989,-0.0217745398638618,-0.353406556990699,-1.20385008184504,1.77371283176689,-0.108828420984428,-0.155042627777069,0.0203102370947399,5.00130824398562,0.00296837475781093,1.44428992187487e-05,5.051558943054e-05
1.74,2.17627685542401,0.389157461703505,2.87038526377309,-0.0992669257645548,-0.0481050312387226,0.0260104406896699,-0.360026725099946,-1.07411427792103,1.74120130380557,0.0778425561092783,-0.0144809398972995,0.0188105109360929,5.00892423516672,-0.00324982679330734,-0.00435718727098659,-0.00211547060793859
1.75,2.14308783436289,0.409983378973398,2.84695269024101,-0.0449934196080631,-0.0137013246874387,0.0105988572159711,-0.37127289339722,-1.15208515528085,1.71701721972186,-0.192286513706708,-0.200766087815393,-0.0446632236072373,5.06852782087138,0.00134573777186337,-0.00139473273699221,0.00160146888328123
1.76,2.11437754153586,0.349476422564866,2.82516014501786,-0.17610074869548,-0.112021208038717,-0.0430765969837941,-0.356554163008748,-1.26545528327801,1.74946279232064,-0.0285005751750833,-0.101504506208338,0.0156593752527559,4.99570584696109,0.00402447908750258,0.000295167743820692,0.00128111153068095
1.77,2.17730613205765,0.35314360471159,2.89961458909658,-0.0600424782682233,-0.020685358360586,0.0328268086149186,-0.379065825859145,-1.0216510540758,1.80368756668379,0.127702568089154,0.00127202127998602,0.0516725076992511,4.96121116884698,-0.00638779092144912,-0.00675620862710322,-0.00396165661335869
1.78,2.10214712035416,0.3882247920678,2.88314379251832,-0.0447552272405018,-0.0314058805287329,0.00570299956409272,-0.355402993687232,-1.26228871266115,1.64153928715761,-0.336300099639086,-0.312407126096713,-0.101058744840425,5.06590191652534,0.00562733685390732,0.00187221810638827,0.00450845208183813
1.79,2.14730270825945,0.31692292930187,2.85567092434783,-0.20452339479805,-0.134217897309511,-0.0405175008466957,-0.316367171770356,-1.24531812931037,1.77824533554581,0.162969943488908,0.0539312416477684,0.100898137166516,4.93271635150988,0.000453456454018856,-0.00259418339401866,-0.00287105657771501
1.8,2.13096357936291,0.285762868411937,2.89232708508209,-0.0283240284372615,-0.0048353548246937,0.0270814254421494,-0.462151420053253,-1.09067007853376,1.74080749541321,-0.0561692213551735,-0.14761839143944,-0.0745346946001047,5.03424786755517,-0.00284691026789725,-0.00424176179018756,0.00222793154767617
1.81,2.07874348688158,0.361692485637289,2.90424362652995,-0.109195535980523,-0.0776165980934649,-0.0355724983719301,-0.293491424530391,-1.31140449880985,1.73320371896972,-0.18399290239938,-0.205001668172105,0.041839830118809,4.91938075127763,0.00479340927373037,0.00136698178792213,-0.000312011698782986
1.82,2.16277523806145,0.271849914450142,2.92239996574543,-0.146374794607127,-0.0866643378094356,0.0184264423380148,-0.359874357211854,-1.17896177350434,1.64904311920899,0.141724877210645,0.0186106895244019,-0.000814467685314107,4.97587499942352,-0.00201601343800456,-0.00396852666388399,-0.000844629051520107
1.83,2.14227164072973,0.333605419965691,2.90871522378566,-0.0033177824858745,0.0138213884085053,0.0229153112891689,-0.347174493978222,-1.13571882817201,1.73697623170759,-0.12479864261352,-0.175358068623309,-0.00159428431715724,5.00882556267535,-0.00220795392420019,-0.00399027045427446,-0.00101043768214442
1.84,2.11380605962538,0.314687720209135,2.92966532863892,-0.136455266843969,-0.0915015507094193,-0.00848993619997068,-0.254824022576247,-1.3691431454938,1.71927388561792,-0.155793385075334,-0.200130893831014,-0.0275143442168017,4.8788193097958,0.00575418718177535,0.00197449842693452,0.00169748743641239
1.85,2.17043114369161,0.223558724684855,2.94702485026588,-0.136579098052957,-0.0910731666443491,-0.0112267447407811,-0.370696981827902,-1.16946663622614,1.6255318011036,0.176306704255945,0.0425523585041731,0.0406103215934974,4.96202905480762,-0.0032477042234208,-0.00479300128391793,-0.0013989546357847
1.86,2.10294234504118,0.289384494738018,2.90613491065032,-0.0127261860691469,-0.00341570650535943,0.0160601115871653,-0.371044172472978,-1.21171455213059,1.69640938643621,-0.194774165769655,-0.228685238135484,-0.0335454036397669,5.00608031585461,0.000422426046689235,-0.00224044427704358,0.000797613178042826
1.87,2.10600554548357,0.271884988337949,2.94964279887746,-0.159022363443165,-0.109099385591955,-0.0172725245026361,-0.248821820168973,-1.37381246669714,1.71813591397687,-0.045334221861532,-0.12666687572511,0.0163177854250426,4.84814309568532,0.00407917607221096,0.000667008484276949,3.04306058305088e-05
1.88,2.13147434113377,0.166102892398425,2.94504962234359,-0.122435446150954,-0.0904591351525686,-0.0204106649560237,-0.420215503312725,-1.21465676198571,1.59009867932388,0.0872756657346825,-0.0366357865800478,-0.0186493190203822,4.98319785767462,-0.00133875304925683,-0.00339357496196536,0.00182179183405833
1.89,2.0785361694975,0.254962152651821,2.92467340512714,-0.0489857339211303,-0.0353456799544458,-0.0086362356679082,-0.346422023347241,-1.25722375524484,1.71065715311332,-0.114879958546131,-0.17735399137117,0.0364236674644926,4.92309975315465,0.000283402597050161,-0.00224336469109512,-0.00135094532152013
1.9,2.13808497895754,0.261075331336806,3.01181429698237,-0.0987333932833764,-0.0616377676243961,0.0402791775448518,-0.226193824784141,-1.30587162821519,1.64865896451337,-0.0216393550150406,-0.109800441514376,-0.00540108972539511,4.8503532260036,0.00036751530824122,-0.00176605907042982,-0.0016682066185907
1.91,2.13525729637388,0.176390733274431,2.95217379300076,-0.106604019701703,-0.0797771838902916,-0.0194179951001006,-0.337482479877047,-1.31702488792509,1.54584784449953,-0.0573446715890548,-0.127134642855424,-0.0490788660496945,4.97695360485779,0.0020397396920264,-0.00128512120432524,0.00321193954208752
1.92,2.0810324973914,0.161327093657731,2.91223327338921,-0.129584576097412,-0.0976203320919769,-0.0476068286033278,-0.352149080973121,-1.33964395103121,1.67213560666291,0.00134884170489447,-0.1148006133041,0.0471580666408544,4.90181275134823,0.00177374926261832,-0.00133618734645954,-1.16839776238604e-05
1.93,2.13284885270963,0.207233339136144,3.02699385642768,-0.0510971135978875,-0.0366463822205068,0.0469243617928699,-0.280583877561471,-1.21471993152783,1.65969062781289,0.0412036738441392,-0.0739934148144227,0.0247082771716336,4.85647599969678,-0.00355037003417686,-0.00472942622928009,-0.00339622044276878
1.94,2.14421894942598,0.236213377251651,3.02534404689812,-0.0427140951612481,-0.0300175072290947,0.0347812717744316,-0.217834616993629,-1.34986357853107,1.57526679262279,-0.18208823215264,-0.212177760541069,-0.0538363557884166,4.89508624980257,0.00216716690374243,-0.000877170389774564,0.000880555859899616
