time,x,y,z,roll,pitch,yaw,xdot,ydot,zdot,p,q,r,thrust,roll angle,pitch angle,yaw angle
0,1.01841953230695,1.01841953230695,0.0184195323069548,0.0184195323069548,0.0184195323069548,0.0184195323069548,0.0184195323069548,0.0184195323069548,0.0184195323069548,0.0184195323069548,0.0184195323069548,0.0184195323069548,8.81892998056724,-0.00336981862990841,0.000571754644206968,-0.00174784408762178
0.01,0.619371765481798,0.619371765481798,0.0193717654817975,0.0193289994155044,0.0189078744666493,0.0188737671783795,-0.0572723697241877,0.093893370840222,3.96322435116767,-0.127463524242733,0.032265544934465,-0.0273361016065507,5.8847689825366,-0.000135414983531436,-0.000336212779959929,0.000399084873146978
0.02,0.643298968644595,0.704331201659353,1.61065423670152,-0.0502597805076975,0.0146365582639218,-0.00988478986168494,-0.0233374489577698,0.027575374230101,1.03112523282016,-0.00544881102618183,-0.0107366313437009,0.00935418753196083,7.17677938075007,0.000610164401816924,0.000965558145363406,2.51223016993201e-05
0.03,0.663310456096351,0.684116626066922,0.449232330687122,0.00374002213595203,0.00259894610996318,0.0104034720523087,-0.031134406164174,-0.104983107591329,2.35269038101299,0.0290224650252731,0.0431472877823982,0.00581011709977841,6.91168005012361,-0.00223649130328339,0.000118000124871637,-0.000768630690731505
0.04,0.63773449735924,0.608459316123361,0.976204652784429,-0.00213557365248278,0.00446167781655553,-0.0115033701507783,-0.0351791293575503,-0.0156201295888547,2.08727176429606,-0.103211020521951,-0.00600647566667771,-0.0276754511853487,6.75601632360499,0.000998235643395647,0.00124395108186355,0.00185257528753453
0.05,0.688467057628823,0.696797405127946,0.923732077016338,-0.0101331081550169,0.0301629796159888,0.0213289534458962,0.036425716132447,0.0478735425114459,1.98810594594068,0.0655176347081959,0.0757560783192333,0.0658617704076032,6.8764623315828,-0.00327857933410742,-0.00191757922762409,-0.00411975515671622
0.06,0.677922992195162,0.683106217790797,0.865419751132085,0.0273671643036698,0.0307954047051496,0.0268518767538706,-0.068644516738192,-0.0219285160691441,2.10351713520202,-0.135436352250771,-0.071434464430936,-0.086937875453948,6.8308319922252,0.000169984285784479,0.00136617391471382,0.00284616825580379
0.07,0.675669520786051,0.695120920820033,0.959615707455292,-0.0211475831863655,0.00621950359043925,-9.52202692311443e-05,-0.0186179522193292,0.105818966620976,2.10574736271739,0.0315879348392847,0.083594553263768,0.0880983645709114,6.7542360122082,-0.00236468228380123,-0.00123495156318795,-0.00416397662763505
0.08,0.659803175578644,0.711024728661845,0.941539391591715,0.0170181948783191,0.0378344083291257,0.0393988888988039,-0.0205485824174515,-0.0313390848401517,2.02166393087004,-0.0968914234143663,-0.0422023014182519,-0.084892464280056,6.84000556519441,-0.000418588553779147,0.00034049569171513,0.00215729839853501
0.09,0.675063343172347,0.671778048163816,0.933076003610698,-0.0239960730771987,0.00072322946262502,-0.0174428025838417,-0.0659581549096275,0.0555723014020149,2.13813333406994,-0.00772444839670798,0.0290146518321847,0.0585319717313142,6.74037769006409,-0.00109626015516075,0.000191929293892173,-0.001947326767183
0.1,0.606355649076334,0.65704408278112,0.948101100600059,-0.0327971287494724,-0.0151762268422516,-0.00395452016677426,-0.0704874897231835,-0.0904660781346879,2.01789464836491,-0.0716428729227849,-0.0153313177208668,-0.0650976609302127,6.82349646719527,0.00168060762356167,0.0018438310059152,0.00327021551543787
0.11,0.624955002615186,0.618309508928397,0.926513050252419,-0.0434998960797598,-0.0194979582330463,-0.0388125906040313,-0.0160543389673903,-0.0888547185136755,2.13355714951545,0.0524292448950411,0.06244826942801,0.0574275884634621,6.74310412870338,-0.000876289787890901,0.000316257916652877,-0.000882834041589979
0.12,0.686060086396429,0.658141266107551,1.0220673693104,0.0426238536277613,0.0491517840548436,0.0461922245775174,0.0500502854821955,-0.0486701553904617,2.10455069488912,-0.0210809662315636,0.0343267197411206,0.000390411108801399,6.72544222521931,-0.00351299524119893,-0.00212684129568426,-0.00219106260013591
0.13,0.669147926084738,0.630106870184399,0.987714357413795,-0.0226754650837692,0.00288486188960246,-0.0128993923079402,-0.130933666657078,0.0390774335751395,2.07749007752366,-0.157246414529265,-0.0913361251722287,-0.0574336171977692,6.74757100151594,0.00260043642295501,0.00259639802330115,0.00333300977737905
0.14,0.625151315227989,0.69553522413642,1.01155836554988,-0.0542345887463801,-0.0257577315121147,-0.0113657599752726,-0.0131492156651611,-0.0305614911018099,2.13164199558418,0.108358746049066,0.112381351766994,0.0789362232568381,6.6819647391809,-0.00242520364661281,-0.000835275618817959,-0.00319586234381929
0.15,0.650329343284147,0.644801177852024,1.0291344929737,0.034383965429218,0.0382576526876088,0.0237233702572939,0.00600207789724533,-0.116454242122437,2.07384082567421,-0.110905048731171,-0.0346932816429488,-0.0742818424240415,6.73509601108816,-0.000761461282965777,-9.67052451852966e-05,0.00239720160825443
0.16,0.664817112100768,0.616397413309797,1.02298805908997,-0.0500017266141196,-0.0149948641375403,-0.0323889725964506,-0.0952355368980848,0.0358063948224204,2.14711078222409,-0.0393423567265091,-0.0024725990310395,0.0478227269254635,6.65753257261583,0.000784643254680622,0.00125483602987756,-0.00073202014419411
0.17,0.597111857961343,0.652474618288918,1.04055925912774,-0.0452535438900452,-0.0249562296514697,-0.00598986551593986,-0.0477826908979044,-0.140854552368101,2.06722067631734,0.00498316039338804,0.0279856716275618,-0.037514922962768,6.70689217180154,0.000185561403415097,0.000982787661653438,0.00205918963881525
0.18,0.620592521567293,0.584130579431017,1.02460486507398,-0.025199102925549,-0.0115746847039943,-0.0391804414479314,-0.0238516661766922,-0.138010656273136,2.13603481769963,-0.0177867770710155,0.0198026414636513,0.0230603647930636,6.66142504621401,-0.000109180813400039,0.000650772440959798,0.00075956108043576
0.19,0.677185680413716,0.632357711847769,1.10676083933922,0.00805434013107723,0.0280893018006865,0.0278308452878471,0.0249650880425789,-0.0370417349446188,2.14112295051479,0.00546313826540545,0.0427605379310311,0.0314577115253412,6.61328239740866,-0.00295779763833,-0.00169842593663377,-0.0027984016062646
0.2,0.67038157848368,0.64643422006497,1.10161504133193,-0.00176061596389006,0.0174757534211265,0.011110101132383,-0.0668711908405606,-0.0202560751154595,2.09371417680098,-0.126937386175906,-0.064388335162221,-0.0604764429710246,6.65268486121222,0.000614586869391824,0.00117252194367409,0.0023384270192885
0.21,0.618949139636576,0.639782805656134,1.08128573401804,-0.0695561762314128,-0.039943113234848,-0.0387613061892902,-0.0778879781129588,-0.0573278235936711,2.13738543013587,0.00448835999987211,0.03686314297615,0.0363920938144279,6.61573263481529,0.000781893200111203,0.00112800991394771,0.000112144013119596
0.22,0.616668528474548,0.626692810509905,1.11216075030381,-0.0171381000029831,0.00203884402214703,0.000324789385327325,0.00611046923310427,-0.16340512999778,2.12863595759071,0.0131177525177099,0.0337144520613743,-0.00994091948871785,6.59941338069216,-0.0015340857490079,-0.000448842751377764,0.000455237983948353
0.23,0.685078540416529,0.616809711506047,1.15335543127401,0.0174184104420436,0.0318626601603021,0.0119889440147739,0.00142794692212663,-0.0370819412976349,2.14459717760039,-0.0549025470766836,-0.00133550427527344,0.0231088679587757,6.57994453247249,-0.00213857124029209,-0.000992297114414585,-0.00165506580487157
0.24,0.65990084579973,0.645370358567166,1.15409595369898,-0.0273372218546537,-1.70651477876002e-05,0.00789721910469605,-0.0713547171565402,-0.0179192565410309,2.12932695357256,-0.0946875247003666,-0.0374310178931751,-0.0362703894616971,6.57178218765576,0.000758534946317951,0.00110493851508844,0.00134358475553767
0.25,0.643902060422375,0.667332671348524,1.1713019966603,-0.0329544872841584,-0.00374466086176976,-0.0045567225586158,-0.0105965418571531,-0.061581662029694,2.14547774880814,0.0312001607627312,0.0536901551782609,0.0362625143470052,6.54052223672672,-0.00201291574937829,-0.000883667722099567,-0.00149980139654184
0.26,0.665109145784247,0.645141270369784,1.18925207639034,0.0154339060147452,0.030414535001692,0.0215991077499645,-0.00961304446691932,-0.0753410618251249,2.12924629810583,-0.083547057872094,-0.0253473283016903,-0.0258803453198824,6.56105820623817,-0.00139799886539048,-0.000553172828558972,0.000209140419674769
0.27,0.673279110941494,0.647096738725295,1.20254316739766,-0.0245094066109253,0.00626927327646568,0.00367960058982176,-0.0451624367948041,-0.00256101916122534,2.17271362855989,-0.0531173947385802,-0.0071249573766776,0.0159077214018965,6.49983377190718,-0.000710406227341283,1.09499530069229e-05,-0.000926574040033528
0.28,0.650018105773433,0.668898786850768,1.22523183774729,-0.0192868495716696,0.00643620488184195,0.0139387917978691,-0.0260497932194991,-0.0641488308847136,2.12021720219561,-0.031228777478795,0.00830234212024109,-0.0138644612196801,6.52361862456037,-0.0013014277537009,-0.000422418917100154,-1.7320288794604e-06
0.29,0.622125654818394,0.607082087010087,1.18484347666449,-0.0437770507762327,-0.0202469339226156,-0.0310728392560567,-0.0815742085299943,-0.115792691555366,2.13152820705503,-0.0831291668077354,-0.0355057761426719,-0.0218938923789232,6.53099986201038,0.00159297758105269,0.00158042891666131,0.00250640463830645
0.3,0.639179895859978,0.625800337447036,1.23458340214386,-0.0322707394532663,-0.00576958650009592,-0.00148233799893529,0.00431285010831226,-0.0966756922313763,2.18654722205807,0.0612150096095506,0.0693415006648633,0.0586685016746532,6.4517996925928,-0.00281369592354366,-0.00144882269647085,-0.00270317522717549
0.31,0.686236738706942,0.64480968811781,1.28389199470242,0.0405934434114539,0.0498166893396432,0.0442933219757285,0.0124424329378526,-0.0595972873829432,2.1324879753363,-0.106972858208021,-0.034964908590534,-0.0399704537114349,6.50868801496929,-0.00234366243957485,-0.00149446142792521,-0.000185465577554672
0.32,0.679320270471283,0.649794120638055,1.26756101785282,-0.0359172224904515,0.00220315727593069,-0.00295005091520142,-0.0708168729300517,0.0108100000200892,2.2062020948547,-0.0940812175804237,-0.0438864818616376,0.00686006769049243,6.41600373113001,0.000436857380381078,0.000778365285598802,-0.000183981391480169
0.33,0.579668954168483,0.615215745711899,1.25018995029857,-0.089993458874046,-0.0610936049177827,-0.041816674530721,-0.112754369683038,-0.172320075841047,2.07065327879492,-0.0308355568121503,-0.0058733268513815,-0.0422983894020975,6.52529681845569,0.00263732305206595,0.00218673262023333,0.0039869698059162
0.34,0.6143424475516,0.589688701965931,1.25043482207557,-0.0242835531439629,-0.00688408713488394,-0.0220547193966377,0.0283497178906901,-0.186257415686559,2.25128383244609,0.0922391126168949,0.0824608752242728,0.0798551030514429,6.37624758125907,-0.00366411620071771,-0.00193354315702863,-0.00273080157778161
0.35,0.666839214551634,0.576598556995945,1.33478090026641,0.0249114691130996,0.0269810395249004,0.0252145548998191,-0.0316839836347129,-0.108367923182877,2.09413398867242,-0.165385706043688,-0.0762465144559379,-0.0632698891680281,6.47978222389368,-7.30973078706957e-06,0.000305321962214139,0.0018100943555039
0.36,0.654660892833858,0.622727049266309,1.29565353701821,-0.067743220541825,-0.0231033657706949,-0.0193065156297713,-0.0498781682178991,-0.0365864118214308,2.22641675156401,-0.00751772276426693,0.0209911042686278,0.0430031662130435,6.35934922257563,-0.000129898013622217,0.000130447699359039,-0.00112288967109324
0.37,0.627609773698312,0.633583183512784,1.34503867133845,-0.0205560500740615,0.000296039199159236,0.00764168556178207,-0.0243133871854855,-0.159487237926808,2.1126228038542,-0.0246608653577562,-0.00154972778271398,-0.0321271981943143,6.42284819115882,-0.00141052909596172,-0.000411673418810296,0.00116091333660692
0.38,0.651278198580702,0.593629596549496,1.32493220663949,-0.0180006405223187,0.00129150596150962,-0.0130827993153805,-0.028695320154434,-0.102632113512349,2.19065343467081,-0.0686625635416764,-0.0140764855017942,0.0243468016271884,6.3762688392196,-0.000692205307619062,-0.000158823413984963,-0.00053217703932751
0.39,0.681535778345398,0.650143085601703,1.39810875953582,-0.00525300823520132,0.0262586416950997,0.0399333123212781,0.0202316035682193,-0.0505528525347074,2.18456332589447,-0.0145073492743564,0.020131721019252,0.0139517696436202,6.34170127065002,-0.00306586576481922,-0.00215485947364485,-0.00253502594191589
0.4,0.681921816072078,0.651472577819952,1.3941981245251,0.0020423897740149,0.0255541973217044,0.0210842091876135,-0.0272177295864838,-0.0646934931252287,2.15329995758961,-0.123632680619448,-0.0688856572684919,-0.0408364743950597,6.37360671877448,-0.000738973791285314,-1.08399132458524e-05,0.000944520870749692
0.41,0.651547338830148,0.635135345328093,1.38441755292591,-0.0536236811270359,-0.0210349134932053,-0.0112314362841509,-0.0488778905344983,-0.0760683778441677,2.19053410896154,-0.0397552517889973,0.00570450851531562,0.0235429062200886,6.31658195645053,-0.000177426983127464,0.000139518941627821,-0.000583476827514781
0.42,0.618875846666118,0.606438121069748,1.38925672677108,-0.042924930896992,-0.0139115718768281,-0.00794891611145358,-0.0448718690305321,-0.165373155594842,2.13259708666609,-0.0353633520676778,-0.00877647305171452,-0.0275952872232855,6.35622231796478,-0.000295697943315985,4.16936990056421e-05,0.00168196113105614
0.43,0.641827579240447,0.588783179728811,1.3959055544488,-0.0251829921750074,-0.00354687100121646,-0.0125364038869696,-0.0219465946239315,-0.135627778982667,2.19789214330033,-0.0268626157708457,0.00151146882992775,0.0340381494398218,6.30435719403478,-0.00153988893777262,-0.00063314252347191,-0.0010157178562351
0.44,0.653421829831143,0.60325381038528,1.43905586394953,-0.0176199833231711,0.0043862739514656,0.0163137235516987,-0.0234729084359135,-0.115453572198105,2.16095839948033,-0.0741597769051667,-0.021816314454683,-0.01963277546364,6.30885478583729,-0.000929263847936783,-0.00046063866006085,0.000162300318663261
0.45,0.637006870712202,0.595968659588285,1.42330671467015,-0.0505607294189617,-0.0180827082503374,-0.0185664311540956,-0.0515679034407888,-0.134058858211432,2.16758479579056,-0.0612057768275766,-0.0256718339239333,-0.00591028238423551,6.29624822488998,0.000372129826131492,0.000499848229358943,0.00115772932163112
0.46,0.631312716570461,0.594140136073655,1.44315510450685,-0.0414923544168328,-0.0157354377838461,-0.00876586400978059,-0.0269214925537251,-0.157365411069841,2.17693081644158,-0.004990418122182,0.014549830510568,0.0188210141236696,6.27304692107618,-0.00141256147250803,-0.000606172019794965,-0.000474820495850871
0.47,0.656885388021518,0.598504646400857,1.47513215773458,-0.00470913594169569,0.0146244769611617,0.015254486525558,-0.00351049856568994,-0.130182369621775,2.17779972209195,-0.065675431498303,-0.0165297311227855,-0.00381589998276339,6.27056727678471,-0.00185697844375806,-0.00120158547925097,-0.000530883956077475
0.48,0.688526204141092,0.631680556691766,1.50973902145991,-0.00782802488518752,0.0240046798321067,0.027430376727065,0.0105416094020062,-0.0697888679678459,2.2047581905096,-0.0661085486983943,-0.0219841002067064,0.0129559544654147,6.22870657613327,-0.00216250171008089,-0.0014774546343308,-0.00189615920876933
0.49,0.606707795751576,0.569908237704443,1.45701961089927,-0.0842679654275125,-0.0543822169759644,-0.0412271479928144,-0.123784676279669,-0.198417946514564,2.11175262418383,-0.142630316218303,-0.0961317607068803,-0.0795571139340715,6.29909327090302,0.00437275369506738,0.003113984313929,0.00572679442961296
0.5,0.588717931152506,0.553658067385601,1.45913506155653,-0.0883953051119251,-0.0618824078095297,-0.0530189279593819,-0.0237342527545574,-0.222954979640172,2.23675979228759,0.141222960622259,0.106472043968131,0.103649957558191,6.18889420106253,-0.00253701407782261,-0.00126726051685962,-0.00239511187177266
0.51,0.674440465697785,0.584747434478182,1.56514699096955,0.0676189655833377,0.0625081886728188,0.0625277113960088,0.0487904940548215,-0.154696151788929,2.17939367779692,-0.103876433944237,-0.0265844497858121,-0.0330802392200615,6.2649727340205,-0.00423096146721591,-0.00358817147349944,-0.00133785628525473
0.52,0.687840650127903,0.595135416069377,1.54473769147991,-0.0431163166586674,0.00170116514771111,-0.00404735356444229,-0.0504208039070401,-0.0721380406166356,2.26036016526827,-0.179324812754663,-0.129339124194298,-0.0194988396796378,6.12923274672605,0.00207760796286713,0.00189408831857614,0.00112252033063333
0.53,0.6272878596622,0.615724344602783,1.57162741421806,-0.0898188650708401,-0.0573162166394293,-0.012935597620848,-0.0363388057144533,-0.164695504445171,2.10048855012271,0.0618023886584321,0.068917365277061,0.0189808981206038,6.21512593618938,-0.00127165704046953,-0.000491360840480687,-0.000285626370106888
0.54,0.650974583633264,0.590449842987432,1.53695483298487,0.0198889460228544,0.0356143423104034,0.0152475117779805,0.0243230846489645,-0.184581912383045,2.23147084636906,-0.0625886059991575,-0.0129011111883885,0.000210527613192769,6.18498126069189,-0.00324844093024471,-0.00269490572045439,-0.000703588337628087
0.55,0.646475650110793,0.54938290281856,1.57546674110264,-0.0567516880113588,-0.0234276472754344,-0.019190642507885,-0.0736936000810738,-0.164962129966981,2.17383151668586,-0.165234202482902,-0.120850391769528,-0.0307449804128506,6.15577303866542,0.00287199368973835,0.00243438753510445,0.00236977275319689
0.56,0.605660479588826,0.561970753796432,1.56317816910624,-0.0991020730990777,-0.0689582789568453,-0.0317207787867767,-0.0429446270891963,-0.21083215444531,2.15654809053686,0.080670539989488,0.0783796596914606,0.033731988739291,6.16336793385634,-0.00107589521400664,-0.000523388627288454,-9.51599499310917e-05
0.57,0.647690440523439,0.568410518799943,1.59635162583131,0.0248308912027233,0.0371312845856875,0.0194681800697031,0.0279133787883624,-0.20266116535016,2.22270789787947,-0.0571511335970751,-0.0155692210630712,0.00301996494127862,6.14641247901399,-0.00365069328901281,-0.00292113809690655,-0.00103105122343962
0.58,0.699635772939914,0.592129273369701,1.65898808152326,-0.00799395327545217,0.0223858620422355,0.0290852169475832,0.0136994239560509,-0.103433084290839,2.21380511339962,-0.142676203504829,-0.0909415355481963,0.00205498060009809,6.0930326714926,-0.000702676608842225,-0.000183106261676227,-0.00145591231308105
0.59,0.672236042268996,0.61654760347009,1.65202811341389,-0.0577256327066499,-0.0227021999237081,0.0149784082150601,-0.00536592848846851,-0.141375015983859,2.15391269835287,-0.0360395828030167,0.0020472418264206,-0.019429139050859,6.10751356319612,-0.00097026568180992,-0.000530123753842326,0.000214636689045335
0.6,0.640335401939811,0.57441659943291,1.61850909081164,-0.0392031366872711,-0.00933215384082855,-0.0175321605566793,-0.0250802148680842,-0.206372904130999,2.16492283561354,-0.0673349811172706,-0.0307167887803634,-0.00392752771616012,6.12337079500113,-0.000640865157735555,-0.000605721956903504,0.00101957371357991
0.61,0.665594985334017,0.577829378673006,1.66297910408498,-0.0256758865754322,0.0037521118171504,0.0148252376426493,0.0136761319933677,-0.159855309824142,2.21099319252041,-0.0322277271461092,-0.0122142210784433,0.0352843386649392,6.06420529373755,-0.0024678899989753,-0.00161264971893851,-0.00235713815870444
0.62,0.653975589214738,0.56938849545539,1.67272937245285,-0.0329751438827895,-0.0108537503746778,0.00936640679999003,-0.0262775782704424,-0.192130619808933,2.14341864401021,-0.124713796282302,-0.0697708142137205,-0.0543661450262672,6.10193789788895,0.000303611958835449,0.000363096106692601,0.00213669748477687
0.63,0.629630400059937,0.548186005492562,1.6493534286049,-0.0798839335727703,-0.0433371221301487,-0.0355945028802663,-0.0350923250381878,-0.2143176075312,2.186255242102,-0.0217914880564452,0.00139522368685951,0.0332522715706646,6.05789552832141,6.96736609622795e-05,-0.000128167206451819,0.000109142702032916
0.64,0.633207063000603,0.544861085795986,1.68454482290374,-0.0336555241435482,-0.0091160504252921,0.0048851989582115,-0.0133019623254772,-0.228159399009353,2.17267266402558,-0.0254636404294151,-0.0156149294161666,-0.00497057698959551,6.06022239271514,-0.00202376937797654,-0.00125922975513687,1.33771332139279e-05
0.65,0.638492244485672,0.532447367145345,1.69039301029185,-0.0386145197834597,-0.0191248972516403,-0.0136813796219799,-0.0268314483423571,-0.222614056174869,2.16888454946424,-0.113438508183379,-0.0618779852868582,-0.00964814303407145,6.05339048330904,0.000334455557591048,0.000316981327225106,0.00110850785924832
0.66,0.640501902522839,0.544130540057552,1.70833014458589,-0.0667429726796155,-0.0304946922682671,-0.00795357880250967,-0.00987910940487,-0.215181025020935,2.18126593813353,-0.0119748755087448,0.00553869040813049,0.0200183043150498,6.01550836521139,-0.00102695221832162,-0.000866434890259195,-0.000568280669877225
0.67,0.662774992888269,0.56122956189333,1.74079180130305,-0.0114788301717532,0.0111052723241816,0.018594965963366,0.0191181629417537,-0.202608049321974,2.17386042036516,-0.0549492985327771,-0.0285969599230167,-0.0032188202834127,6.031281797119,-0.00270621603621259,-0.00191532873901659,-0.000705437320868338
0.68,0.639018373713536,0.528279989357348,1.7211047353059,-0.0600179393574295,-0.0334266660911694,-0.0216305486400593,-0.041367737143516,-0.244073299439545,2.165607432019,-0.149523355410387,-0.0950567981505158,-0.0319943586159808,6.01408373329567,0.00218367165165235,0.00152966977348968,0.00254194629123181
0.69,0.646220907466254,0.545547764412356,1.75654671392254,-0.0715584007133962,-0.0343684419659257,-0.00650275401116234,0.0147781696512561,-0.21524756843014,2.18971501536875,0.0703209585672399,0.0613588848337639,0.0593432307732843,5.96294619651643,-0.00304299545047042,-0.0022621718893732,-0.00249196511695398
0.7,0.683513479992164,0.567959809202048,1.79489821611462,0.0323680926426858,0.0426755560458039,0.0453667455672703,0.0412467647554393,-0.196355281290844,2.16504742963535,-0.129822458331394,-0.0727856823944453,-0.0349549254450756,6.03955717873479,-0.00306507097854594,-0.00249599208960833,-0.000441355925936561
0.71,0.672010760348101,0.551795603496182,1.77992337437348,-0.068575423647405,-0.0282786883660419,-0.0119516381611561,-0.00676351677847642,-0.209879919234648,2.23797746534053,-0.146923104765763,-0.098357995297587,-0.0073661081061801,5.90460865633361,0.00193771204938882,0.00144619007904219,0.000920120292003968
0.72,0.664056869392503,0.562172499320235,1.83057234606954,-0.0652852714095309,-0.0292743427347091,0.0100440764551353,0.0230076305801639,-0.208895127492642,2.1189318683565,0.0649787068359435,0.0612943409578787,0.0302663228386898,5.96343095329875,-0.00350255787396636,-0.00259161765759472,-0.00189376312259419
0.73,0.661288847179175,0.541010853164655,1.78401392906116,0.00590276567942986,0.0202023762983659,0.0110369103841057,0.00473696337118562,-0.243714188567118,2.17464197440452,-0.168164159332493,-0.106571274464852,-0.041361211831558,5.9975503883673,-0.000853896564498402,-0.00080745333717452,0.00146262719391587
0.74,0.698843982419521,0.571647076555867,1.85847327211799,-0.0499041855381963,-0.00740143705063132,0.0207343312073329,0.0626577065935954,-0.171711426772456,2.24770312439067,-0.0289511485677708,-0.00501671184680608,0.0624216324642103,5.84673917863747,-0.002338441068514,-0.00183783923602966,-0.00391800425721234
0.75,0.693662170471336,0.574277791055826,1.87824447889435,-0.0139394807988162,0.0112224650426353,0.0424038520914201,0.0304853215681616,-0.209194532974896,2.08876122198638,-0.106623026799996,-0.0640937267691698,-0.0691202290784119,5.98311651309924,-0.00185666617037225,-0.00139567784417395,0.00129200128034752
0.76,0.626569981910711,0.500573828280879,1.7773118605667,-0.0986331118719159,-0.0636306376441953,-0.0623008695980137,-0.0569321967352257,-0.3009124516863,2.18886456080314,-0.133094378209791,-0.0873717286676461,-0.00231181707207763,5.91367906322497,0.00347616068609456,0.00192121743115159,0.00306018781186967
0.77,0.635202268989772,0.508172840133337,1.86453695846502,-0.0745218227318139,-0.0389599799820662,-0.00108491708233925,0.0101062723106452,-0.256215825421143,2.18727532631573,0.114319536865596,0.0672972361864649,0.064858796890723,5.85999909530191,-0.00424136865127401,-0.00289319122559826,-0.0030031104493581
0.78,0.621651904967433,0.478897201694877,1.84366922788142,-0.00926899424994747,-0.0125512095713094,-0.0080399490665133,-0.0453609256751699,-0.317954731660095,2.09635235656182,-0.228003338414833,-0.147367860640611,-0.0927529640524417,5.97856330165255,0.00164614843649695,0.00108877628271418,0.00478635873116684
0.79,0.66115673569846,0.517931591821644,1.87348121821394,-0.0940365132699312,-0.0455032538347168,-0.0183355673693431,0.0460054397921199,-0.232460054580526,2.25986740648532,0.0521934905956327,0.0550984736250156,0.117206641052365,5.78241512947692,-0.00213251897733621,-0.00214950672434938,-0.00467267649150108
0.8,0.678118231395115,0.533481088097634,1.93708751010394,0.00759939005617138,0.023347612385613,0.054816975135519,0.0247135468760268,-0.249375012590765,2.08298978534349,-0.109575536446674,-0.0836651683634298,-0.0931253828441976,5.94983098883158,-0.00274893987330687,-0.00198304315746861,0.00185631402262455
0.81,0.676923643179499,0.529079561768592,1.887773930272,-0.0559481186096709,-0.0249528261797003,-0.0254125190751302,0.0359949295235089,-0.254512121901629,2.24752708585623,-0.131732627094123,-0.0730317061400628,0.0488297617999172,5.79091552366332,0.000520962993712074,0.0001681494612274,-0.0010999962034748
0.82,0.684064962636472,0.533357170219921,1.96831788784362,-0.0599806003155282,-0.0178346443408552,0.0357203088698331,0.0414809492552407,-0.243622418301259,2.10197714227964,0.00670194972491029,0.00878398854274118,-0.0100587207124211,5.85146491558473,-0.00277301938428648,-0.00232999034837727,-0.00119517269145125
0.83,0.705798958171797,0.552396772553051,1.94118839913942,0.0117303274095415,0.0317693663927091,0.0291900237333375,0.0726734815191833,-0.224714815471081,2.18628520819988,-0.114312504623028,-0.0723167273486543,0.00163330525793162,5.86384653957048,-0.00327403971387795,-0.00262391942033479,-0.00140250136571182
0.84,0.673247471103905,0.513090138205319,1.94890703196697,-0.0764437516161083,-0.0407305949128654,-0.00589575680415897,0.0102371770814441,-0.297570892027165,2.17618835591506,-0.168687655636477,-0.117309632101529,-0.0358812302037915,5.78307943239458,0.00251199839011584,0.00166264877130781,0.00198581107134303
0.85,0.654888623428711,0.492584012517649,1.95953768003008,-0.0952988230019457,-0.0568213437652973,-0.0175320859620758,0.00978711222561718,-0.28518199172905,2.11313221416344,0.0673339630768715,0.0528264281995456,0.0388136072859449,5.81682189882488,-0.00249014411039398,-0.0020886189288385,-0.00100063547483128
0.86,0.672220211371059,0.508842874685176,1.9633540352498,0.0139663231394863,0.026006237362497,0.0274511218256706,0.0382084896501665,-0.271329176363609,2.17907921814845,-0.12285146355008,-0.0814279883478682,-0.0123461132050734,5.84173644931374,-0.00299166268782486,-0.00260026769195558,-0.000660932896212668
0.87,0.690069306204848,0.518671290525886,2.01015890812983,-0.0567311281111872,-0.0204741506309449,0.0128328775649571,0.0598669316915565,-0.276397638457308,2.20130414382992,-0.137988972856047,-0.0969747475013303,0.000359889720830474,5.72303607737368,0.000409294227182984,0.000279207986232883,-0.000609863043407019
0.88,0.651809755912983,0.473589300033928,1.98936055234434,-0.103184708956133,-0.067163401811655,-0.0211781065077539,-0.0132393755429284,-0.330945364207131,2.05418032616976,-0.0340081538502883,-0.0189526191195214,-0.0318541450687091,5.82774566129721,0.000514812470182565,-6.2847824674109e-05,0.00250955702170119
0.89,0.640012860146607,0.463850798898169,1.956027315633,-0.0509875138010025,-0.0256599560190877,-0.0234747695669469,0.00752460698924751,-0.324169121024466,2.20330760590001,-0.0205892723686863,-0.0231089134484346,0.0435515057284748,5.7511724825448,-0.00239100291427267,-0.00199237670328878,-0.000935566581533599
0.9,0.660609347065026,0.474937303162638,2.04086775775821,-0.0341092972284009,-0.0164561476453937,0.0182249271534319,0.0320149678906507,-0.313641264341654,2.11737211286036,-0.128794277976132,-0.0896509913452629,-0.0199966848746705,5.77048229126494,-0.000644434768963717,-0.000577333857123186,0.000104352972270987
0.91,0.614933197527056,0.424584528562517,1.96983847239364,-0.12651923440321,-0.0911400680404737,-0.055186119766199,-0.042070616695569,-0.402681196865689,2.10189721644915,-0.100073842365893,-0.0731859597871123,-0.0380631347705069,5.78413193500032,0.00371911901169451,0.00170042543471837,0.0044149452521727
0.92,0.666171928685772,0.469423719599063,2.04476306334784,-0.0461146789959452,-0.0169348175493739,0.00546306412139851,0.066500254102399,-0.282154224043589,2.23570817039247,0.13566536489038,0.0716687608419616,0.111478480903469,5.66119610589243,-0.00682100628436848,-0.00510316617829864,-0.00548239915459139
0.93,0.658745777289685,0.459233781760772,2.07280271756462,0.0102109670386847,-0.00323497554752114,0.0265050920344374,0.0124473820105548,-0.367857400205943,2.03210918269282,-0.327185345714182,-0.224069285750032,-0.133009967775622,5.83716039863378,0.00255032010986837,0.00178609429597574,0.00508081405542835
0.94,0.684666779209793,0.476764465754284,2.0433378323393,-0.136979822843563,-0.079991120250182,-0.0318113085689217,0.0866246600436999,-0.318046536093993,2.25487876197885,0.0801268854452454,0.0831200356600366,0.124852542581286,5.59608801070629,-0.00136456554881917,-0.00211270159540784,-0.00440018417224214
0.95,0.669378211590747,0.450865291869655,2.10553952639318,-0.0103889778174331,0.00836742911990837,0.035979909502149,0.00533321960928435,-0.336045781204398,2.04006770502538,-0.103841303621722,-0.106747591352517,-0.106237124261828,5.79874949199133,-0.0024357154813424,-0.00181141724193275,0.00336318477100879
0.96,0.672244422553874,0.471660472009355,2.06587738004543,-0.0603563223144336,-0.038901419600883,-0.0304996728700348,0.0806415509302216,-0.345358116058901,2.22060854885787,-0.126107054754508,-0.0722104504460775,0.0806663631746968,5.62356275173635,0.000163879048319234,-0.000106572478729638,-0.0023632590169074
0.97,0.701603036215915,0.470715107534336,2.15017410664904,-0.0651527780421141,-0.0229783007728108,0.0475090967828525,0.0712026936565809,-0.321242689677896,2.06100098249744,-0.0141486079547683,-0.00983243641093111,-0.0376874763554965,5.69706470387855,-0.00248757553044891,-0.00249733344571742,-0.000440780381950953
0.98,0.677951077901596,0.455632299627076,2.08093713513601,-0.0402644910060662,-0.0166776564447775,-0.0185746080665496,0.0500922046339373,-0.363360350496875,2.12428785973283,-0.139533961794681,-0.115105344045472,-0.0129108467980023,5.70093090641037,-0.000338648280839296,-0.000316000006631729,0.00150830385677865
0.99,0.686849875736994,0.454557252548122,2.13402564186519,-0.0766436473165003,-0.0461064414154548,0.00497909937877355,0.0784131554885728,-0.352962768038808,2.14345118643998,-0.0414363856556641,-0.0196642310533923,0.0400747495403027,5.61987003265407,-0.00126128087585144,-0.00133141468079912,-0.0021199776892418
1,0.682301874833259,0.441235437365594,2.14017217974771,-0.0504914251963206,-0.0211630073031579,0.0135146004075161,0.0470045383668816,-0.363771347794952,2.06987104684103,-0.0895347299345708,-0.0710821596152999,-0.0477061516939327,5.69114803923167,-0.00118009035460766,-0.00140402056628718,0.00163771015505391
1.01,0.686192862800586,0.449899505787745,2.13710434873461,-0.0579961420193394,-0.0289260918503202,-0.00921366410104936,0.0829550395602486,-0.362330409342714,2.14942080400835,-0.0770290972598046,-0.0618536134176081,0.042648519487327,5.61713794206655,-0.00130249991567422,-0.00119640211657787,-0.00156497241762703
1.02,0.664302826192293,0.412841082440568,2.14982700295822,-0.0842255120189614,-0.057172864414992,-0.00389522825921915,0.0303087182509813,-0.413891175270229,2.05748358822804,-0.10711891067886,-0.0825605684616406,-0.0513667791529865,5.65900949007392,0.00105599119974234,0.000293722393966248,0.0026202089731088
1.03,0.654338353049055,0.40090273755615,2.13271663196629,-0.0899037196062081,-0.0596739417786575,-0.0351525993785729,0.0369783201207887,-0.402934009428961,2.12571255056558,-0.0080150823640323,-0.0163694423914071,0.0432321814389217,5.61085177013038,-0.0012516593626198,-0.0014356770705158,-0.000378760333248243
1.04,0.701603392326094,0.447078186768876,2.21376231707277,-0.00940342474687239,0.00749128047471468,0.0439787776554706,0.105419226122076,-0.33556689878306,2.12186619266634,-0.0661019681202832,-0.0518452660950678,0.0137523796758813,5.6243675200085,-0.00400356705422139,-0.00350791492966439,-0.0026685463814627
1.05,0.682755272749434,0.42454610830782,2.18683432005317,-0.0717513891750432,-0.0453156242649933,-0.00639515709235649,0.0738730765354493,-0.442392318651764,2.09152632628683,-0.210730459373929,-0.164971749883206,-0.0671777862580583,5.59595795148807,0.00296550588525643,0.00183381517514574,0.00349523371218403
1.06,0.690960779126572,0.403708216897659,2.20103672129401,-0.113937731413522,-0.0767545770030157,-0.0236874743521701,0.0781417486556452,-0.389806988354973,2.09133291825929,0.081790703002225,0.0589292814470836,0.0768971599169259,5.56971235860116,-0.00263976499611525,-0.00251832081973887,-0.00251007356909274
1.07,0.654167232823614,0.380697597064086,2.18062757404946,-0.0310711541533677,-0.0205104941726385,0.00113320132577442,0.0155197984992722,-0.438420378386215,2.06789143104575,-0.171432698697708,-0.141606229087529,-0.0788730659310127,5.64666507624375,0.000117391154051944,-0.000455481236573802,0.00369887151096528
1.08,0.657799502868461,0.387108384116634,2.20811672258105,-0.111757909564915,-0.0789722377812744,-0.0402458493422218,0.0823302077341736,-0.449010247982879,2.13545979382239,-0.0445052376305204,-0.0400262294947637,0.0714161827709813,5.51636335305919,0.000571653161295912,-9.28425740614742e-05,-0.00147616682882964
1.09,0.673514343387561,0.37201875260395,2.23734182415296,-0.068353164940093,-0.0442438212052885,0.0137759278792092,0.0454037295017744,-0.420511309572056,2.04031169803566,-0.0274493983834753,-0.0375246702247065,-0.0437091644656614,5.59500718386503,-0.00199460308815558,-0.00190209809280474,0.00143193638330359
1.1,0.671175012065656,0.390753684032124,2.22471582409175,-0.0525659565741723,-0.0340191629274804,-0.0226163485933327,0.0848088740742179,-0.442416592394031,2.10550356087917,-0.125164124976816,-0.0979486144686372,0.0259875414987895,5.55231160636168,-0.000336463810681194,-0.000743286843851515,-0.000144490462296664
1.11,0.711395156375209,0.406004850358295,2.28503166442692,-0.0681847492822857,-0.0356580614081825,0.028195958245622,0.131538989168687,-0.41377905874249,2.08413650837528,-0.0374421977321698,-0.0358557750032378,0.0122103831062285,5.51637916806208,-0.00207100638023165,-0.00200459568320746,-0.00188937708814686
1.12,0.728005953135119,0.412765492531777,2.28852134122669,-0.0333614962208516,-0.0110769806135293,0.02340891893957,0.131362138776425,-0.409835526439592,2.05737877677882,-0.108842130778947,-0.0841955036778161,-0.0248935032339412,5.55953698867093,-0.00197108965243885,-0.00193925016104952,0.000108194277456542
1.13,0.732661263855005,0.415829594625385,2.29468258503359,-0.0593331895406571,-0.0269737269604508,0.0116588071532553,0.155961261060869,-0.430957446705263,2.10365666372463,-0.103052595632857,-0.0786731657959033,0.0202513533965879,5.48931752264979,-0.000954543244995766,-0.00124462030237604,-0.00148671501906277
1.14,0.721288190553772,0.383821354280694,2.30529897192132,-0.0763863728596508,-0.0446665748018308,0.0106493970519661,0.115826895971992,-0.449056787606073,2.02579405339411,-0.0776950435615202,-0.0695286936867865,-0.0296978141092233,5.52820308861706,-0.000621850622064042,-0.000907025637293663,0.000914569148298316
1.15,0.715270855865874,0.382738593688367,2.29404404954285,-0.0605357704083204,-0.0349588882732979,-0.00288756333267774,0.120615711201694,-0.437514570344241,2.08276362682247,-0.0600946715349754,-0.0502186679963773,0.026560663596181,5.49810946181815,-0.00191350650349154,-0.00201368501710866,-0.00109806971926531
1.16,0.684802980664494,0.351014763301432,2.30004396933887,-0.0829946147188473,-0.0571502312833627,-0.00961374303440082,0.08229111343597,-0.50163114181116,2.0273866820965,-0.136707757471923,-0.119244491330511,-0.0407095224199663,5.51453402981656,0.00145473035294843,0.000449605782231158,0.00238688629215783
1.17,0.685197191696556,0.338998928076267,2.30108671343099,-0.102961188933405,-0.0746133422096881,-0.0260417654867623,0.0933739137975801,-0.477245693418108,2.06968309307522,0.00723427787245051,-0.0122978524584892,0.0427557882205773,5.46793104431328,-0.00138636354508494,-0.00154991645959472,-0.000787565652274167
1.18,0.725107381121025,0.380945682987055,2.3638319904661,-0.0123821825836611,0.00106692301290766,0.0414017111573085,0.140054736442913,-0.413989561233404,2.0702084649062,-0.0788296285977988,-0.0645749066835843,0.00299612097219231,5.49859279953871,-0.00385222746686171,-0.00368188892964491,-0.00203372505488213
1.19,0.733412537056402,0.392105571261409,2.37014633404438,-0.054750728294185,-0.0270101849283392,0.0179083842005496,0.180871863996933,-0.494351265725641,2.07451695818948,-0.185657580438026,-0.154136190199703,-0.0296456293014157,5.43116676462487,0.000903428475658838,0.000372010628746897,0.00057905503771344
1.2,0.740605850127542,0.3497185819427,2.37209875908287,-0.107279483263669,-0.0727381302893428,-0.00446017681221389,0.147105110128929,-0.480753505993196,2.0041848026018,-0.00215610649982682,-0.00362569817149425,0.0181221668084438,5.45317089153874,-0.0011989264261679,-0.00154021775574612,-0.000639679523834409
1.21,0.693877199343785,0.316903907010658,2.32579113502233,-0.0659240854628508,-0.0442052583083483,-0.0164163234504832,0.0724797531575733,-0.510024920304568,2.0302447844013,-0.112792161169444,-0.106077148683038,-0.0341365887174231,5.48609904382585,-9.79046080821471e-05,-0.000912851644524272,0.00240010242643826
1.22,0.700996976023556,0.338590331656958,2.38041416676849,-0.0812860533144448,-0.0561692712147552,-0.00859062551933697,0.146155605900113,-0.496563376504326,2.07147769126915,-0.0446952742739835,-0.0560968308902743,0.0552426428901601,5.39777850334471,-0.00136320420103875,-0.00136455203402491,-0.00219585198903735
1.23,0.728948456478614,0.339884472168734,2.40873389191232,-0.0525478885836979,-0.0352677986719948,0.0295137011853031,0.14034421195702,-0.485057324081882,1.99568762424906,-0.0932638789413594,-0.075085440712656,-0.0410628705469152,5.45574146199076,-0.00155220144499228,-0.00182328491534004,0.000573696956058647
1.24,0.710531735830348,0.324558944329655,2.3758390925728,-0.0883569694518501,-0.0581070365677113,-0.0246548838381898,0.136702228898505,-0.543105459053666,2.03564460735995,-0.116123857950028,-0.103602490596783,0.00486244148590823,5.4128972788189,0.000939506951224433,-0.000182875656854269,0.000939746546897771
1.25,0.725560082852741,0.315171248881577,2.41588557156243,-0.0845438098317769,-0.0570496647664737,0.00631618430760359,0.147251879687172,-0.497334783961721,2.02123974231885,-0.00304610912697592,-0.0311610049639366,0.0237757877032318,5.39906971401962,-0.00232587799110119,-0.00208827013895308,-0.00140861108836436
1.26,0.776868954945016,0.376880314155208,2.46774355434739,0.00408830497753809,0.0146002334438576,0.058662261397144,0.219876464593743,-0.435431257103097,2.04754762467105,-0.0994966353426941,-0.0691587631685947,0.00999973264895943,5.42758674752195,-0.00438865280575786,-0.00439295214149725,-0.0031503416174035
1.27,0.739304083624144,0.330387169053129,2.43223611980912,-0.092536184350862,-0.058318686505814,-0.00541627304796278,0.185609485446931,-0.60500578053139,2.02813797472745,-0.232496270579731,-0.207421395076502,-0.0753010970357744,5.35462407851506,0.00419792648902777,0.00252532565562807,0.00383358341237456
1.28,0.70759560343246,0.24202984981268,2.41150179064753,-0.16736204620746,-0.139625226149428,-0.0630129726420667,0.0946627310874099,-0.56868934193316,1.94660062062157,0.0910065526593974,0.0482559139606827,0.0542035772548644,5.42381143393304,-0.000192849762364996,-0.0010432119798878,0.000410668034974493
1.29,0.652476003641168,0.23209007674104,2.37458085423264,-0.0592406887630931,-0.0536541331762491,-0.0287423007895221,0.0360014412109084,-0.577081601487851,2.08905468321298,-0.096538114007794,-0.112950436999356,-0.034155890399588,5.37379589888149,-0.000692123446431655,-0.00136919269230203,0.00297591774242628
1.3,0.671331115412327,0.267877385438934,2.4839843485816,-0.0990167993021556,-0.0831169906318705,-0.0290422418655245,0.144559246274229,-0.594033293350397,1.97760939779378,-0.0884688544184612,-0.0942835932380906,0.0506465786756375,5.34745018145796,0.000838928950286879,0.000138556634287003,-0.00102408092380676
1.31,0.712245224668115,0.256871850194378,2.44709760215096,-0.0947601048479787,-0.0736939279802713,0.00673786207437875,0.130311111684987,-0.565519797980302,1.97691442883819,-0.0223173261681437,-0.0377168174657793,-0.0325860623118383,5.37345279965968,-0.00116834355261045,-0.00168995148266517,0.00122800821563133
1.32,0.696633051344326,0.253992539477024,2.4512268751127,-0.077901210824074,-0.0613957706328362,-0.0355545412147274,0.129421967664664,-0.599443845558861,1.99297630770161,-0.113480472734428,-0.114563129881651,0.00740495535872099,5.36047471624574,0.000475797645581653,-0.000500685257690456,0.00133136627221238
1.33,0.764384883979448,0.306384831409919,2.53045109518601,-0.0538251714965141,-0.0320949347384406,0.0403596441216808,0.24454763031944,-0.514246979979537,2.02621257421159,0.00506907019506772,-0.0196963395618834,0.0604613454948339,5.29659163591493,-0.00422062492605815,-0.00379386221880122,-0.00472283133867138
1.34,0.783146360863371,0.308119152217016,2.53505823124423,-0.0253394504256457,-0.0158525682779888,0.0434125776104047,0.235482805063848,-0.575400851494832,1.93914360120023,-0.203065264131155,-0.163978159912524,-0.0849961502074265,5.37148689610762,-9.35132756788709e-05,-0.000665096372450887,0.0020072904552426
1.35,0.776359030128694,0.276455150379389,2.50515302251267,-0.116790295877172,-0.0793760697375912,-0.0223152830973867,0.246310246890118,-0.616657711035003,2.01373406870096,-0.0455343504672069,-0.043815725882797,0.0524067050930926,5.26272927147916,0.000326493730598699,-0.000787172737691315,-0.00142416182944816
1.36,0.777461890002657,0.251651730505977,2.54080866919349,-0.0584698912989692,-0.0355646056161409,0.0286023349502418,0.186211039049095,-0.541536434923397,1.93478132034351,-0.0280323525623484,-0.0584315351791751,-0.0239766880513737,5.34600054730259,-0.00305561286096721,-0.00288175568181139,-0.000189252637043335
1.37,0.686316535927898,0.208556955855273,2.46302328644276,-0.114691369349764,-0.104304331259274,-0.0640140814635557,0.129883496240462,-0.7166834993005,1.93825335925338,-0.219555047502097,-0.190457802308357,-0.0500515759812109,5.34188795792679,0.00558327066850301,0.00269786314823468,0.00540052228488989
1.38,0.765755120507508,0.238686025797474,2.55994398164324,-0.104865765407765,-0.0741809820614646,0.00793713051370985,0.225446432480529,-0.525237218003561,2.05171253343094,0.201935186303177,0.0991472796021724,0.140804994452212,5.20111075378978,-0.0067062575646241,-0.00566326144268518,-0.0069948139081414
1.39,0.761711318606664,0.267145139789522,2.58838331645675,0.0368045982856005,0.00739215614931199,0.0596886064189823,0.19198065158796,-0.589699613305935,1.86801280922089,-0.322854751734928,-0.246067272415817,-0.14814558267023,5.44118072949347,0.000181446921280555,-0.000593686768332649,0.00426207448828117
1.4,0.732442142498171,0.222259300407786,2.50824534929673,-0.195830990850625,-0.146646521085924,-0.0769412939669236,0.249311490842419,-0.75582430799503,2.10335163279076,-0.068546488426051,-0.0587832806997501,0.074877883524417,5.15473610929272,0.00529690541669384,0.00168539640533372,9.87990803173924e-05
1.41,0.734533302923794,0.128936143685696,2.58522159855961,-0.118175109065754,-0.0887608301001944,-0.0102533869345458,0.0917631763632556,-0.578445736656275,1.90216539187289,0.134351159144472,-0.00521035272993939,-0.0304566813905095,5.29110296674584,-0.00408119805854115,-0.00280872566615286,0.00192689513134675
1.42,0.718952991669561,0.243778427906928,2.57162832642391,0.00429933386589687,-0.0283648470349763,-0.00880493575820374,0.208979836971655,-0.611536223341197,1.97796008892798,-0.213002719480127,-0.14396405995159,0.0424754123072311,5.30042563552383,-0.00128195645185752,-0.00162923647929198,-0.00154473466950488
1.43,0.803734136311341,0.266118615902374,2.64603587114582,-0.0967635574659241,-0.0478174383949204,0.0552188231158395,0.330271865574856,-0.669566277699037,1.99823990074549,-0.0667678412700789,-0.0704117424549888,0.000253198913630751,5.14291179426827,-0.000255908328564776,-0.00163809055174385,-0.00261254447290232
1.44,0.814069786469361,0.19787031064994,2.62531921478357,-0.0719258858387769,-0.051296995458365,0.00638975153233079,0.250160049486923,-0.620276514985904,1.81777247865954,-0.05485615470053,-0.0952739731301219,-0.0498788705166765,5.31356960238548,-0.00161627912287756,-0.001198436843342,0.00207043596728303
1.45,0.796885895967043,0.22773545140812,2.5805895565127,-0.0584874923325442,-0.0526077351770596,-0.00380090372454174,0.279622550882565,-0.649304074433621,1.99305462248357,-0.103872100034147,-0.0703443290011856,0.0569571772779854,5.20050413507336,-0.0010663061381153,-0.00192516737255199,-0.00249651357956749
1.46,0.787648514721739,0.189703113169754,2.64110527694659,-0.0976325634918705,-0.0627020831211359,0.0186760019343543,0.247129197852454,-0.694472121897471,1.86490320418742,-0.0961032501070389,-0.118045406021239,-0.0562435684096103,5.23820814642349,0.000872214536860912,-0.000430258474414649,0.00177688828949221
1.47,0.803174895370188,0.195326002255172,2.62301482181234,-0.072569274657589,-0.060087089073747,-0.00436776667034193,0.280011403484811,-0.627344398475031,1.93565912813351,-0.00124505879112076,-0.0381059228834953,0.0534783850134368,5.20237160715981,-0.0030690957030662,-0.00257457539242602,-0.00230437566344602
1.48,0.762038763527549,0.161824430371737,2.61694861799887,-0.0826436304768322,-0.0768251183204196,-0.00714839072698376,0.211079561758498,-0.739477264444848,1.85337865651557,-0.199346543244326,-0.164177577336677,-0.0734658000401492,5.25286921782889,0.0030929554337679,0.000863366490695208,0.00381345470670536
1.49,0.792279149312285,0.171054834638711,2.64093923429497,-0.115669297216227,-0.0824702950504048,-0.0136836221491229,0.279974364614956,-0.660423530120682,1.953992958983,0.0856064657880636,0.0124760036366418,0.0955367616747315,5.14451760468779,-0.00308701820900751,-0.00314955971973586,-0.00386715467647839
1.5,0.807171716880638,0.184320196117943,2.68466286126572,-0.00840392364874436,-0.0197019261448926,0.0496208663303937,0.262666251670434,-0.63961849932856,1.85441313538993,-0.168353477247728,-0.152196501394927,-0.0739561505291772,5.26690653062189,-0.00177408706358686,-0.00190545988096383,0.00119773765884967
1.51,0.787509533847079,0.174945734543178,2.6452893396627,-0.126441504273467,-0.0984982252503254,-0.0334672447239262,0.314504227199725,-0.789901958290024,1.9480382749607,-0.130903619980748,-0.11416886114981,0.0216480695362302,5.11422180946949,0.00332689587915496,0.000958453523908295,0.000553602027687024
1.52,0.819786428793179,0.118902494487552,2.69474576373356,-0.104629068713638,-0.0761859996718534,0.0105177922045298,0.246975865389474,-0.646251916309188,1.8358751956375,0.0862175880220861,-0.0023669448599748,0.0143406841676726,5.19458984749707,-0.00364873803257289,-0.003216352148956,-0.00116668027635092
1.53,0.821622259738781,0.202346102204151,2.69514606676628,0.00926335208508317,-0.00566698436679314,0.0376031110143144,0.320440054102817,-0.64768551970909,1.9201403386453,-0.175097035601119,-0.140636707617059,-3.73754890445749e-05,5.20820756101438,-0.00258211586853671,-0.00284854337454246,-0.00170854650603778
1.54,0.817505021773363,0.162033614838456,2.70897976655031,-0.126000676840885,-0.0912063392882051,-0.000142494304788036,0.354014089966499,-0.823749171956117,1.90753072019907,-0.157884535654788,-0.152892223366179,-0.036717635690056,5.08091995162365,0.00402358449467556,0.00175825090522876,0.00174497147231612
1.55,0.854776909758335,0.106473092102501,2.72481170181533,-0.103264215774054,-0.0819754802258869,-0.000505564454288329,0.28461617174545,-0.644483339989644,1.81558249361129,0.122169349113079,0.0400864997094513,0.0500794358674293,5.16820970093683,-0.00468917406234679,-0.00400835721697324,-0.00232723358294237
1.56,0.780140129569596,0.127710350415778,2.66555002412288,-0.0317712324682825,-0.0458521464193411,-0.0033848074150938,0.243994794312892,-0.7614648208776,1.85280988548581,-0.26401604129988,-0.21879558709903,-0.0706884351773918,5.20901001887588,0.00222471201507148,0.000425921604327331,0.00351173910371568
1.57,0.820750547585642,0.13428215055353,2.7375053194634,-0.141105915160229,-0.104238456945268,-0.00852425785320778,0.36573151923558,-0.76747068902256,1.91910947418304,0.0508289501635015,-0.00466151494945256,0.0919689269312182,5.03816453595119,-0.000854026827946634,-0.00167637516455588,-0.0039535637618587
1.58,0.880422887012895,0.134225451297875,2.78246867652945,-0.00226910503441463,-0.00541415362237349,0.0720167926312478,0.317473774013279,-0.61680326400588,1.80786716370197,-0.0593928149701193,-0.07976757890559,-0.0558233283759297,5.20829926312994,-0.00499526270783898,-0.00468711578775568,-0.00068688804952492
1.59,0.810881499043588,0.139753263943631,2.71061260264103,-0.094377463700029,-0.0801233380291668,-0.0328656102401016,0.367204242632899,-0.871067786874361,1.90276861337658,-0.268171876384326,-0.235065245311762,-0.0251024411869109,5.05850750716129,0.00552740382600511,0.00289151106625775,0.00274951724376962
1.6,0.8297207302981,0.0273597147928092,2.74367640147611,-0.185644953471408,-0.15408153102864,-0.0329423572160993,0.272014181011514,-0.774775826744249,1.75025194658165,0.150070359561974,0.0528410486640885,0.0406775011106016,5.15893746535219,-0.000811948741177565,-0.0015827076733835,-0.000373992723951797
1.61,0.793651820527583,0.0646380282621535,2.69962289975463,-0.0173279689708691,-0.0359633782788261,-0.00153484836888725,0.228725495347373,-0.709675480083488,1.95148099830244,-0.102057926494107,-0.121856926189833,-0.0238850402448061,5.11072005055123,-0.00286336657934476,-0.00305831421933477,0.00121824647314932
1.62,0.810777665234363,0.12317158369415,2.82960629690377,-0.0878435891888371,-0.0753282067910687,0.00351758944053778,0.394700702105697,-0.842213121228033,1.82214799943533,-0.160311422593912,-0.153862784386194,0.0359546734202086,5.03202578308818,0.0021696113520539,0.000672139037401015,-0.00186947001408128
1.63,0.847042199236989,0.0283403745321287,2.74947316247411,-0.139724598497644,-0.115728779280264,-0.00168918686567138,0.304461308797857,-0.804907716586005,1.72694673606074,0.0223249630540229,-0.0349838253545756,-0.0526458656623628,5.14725428540213,0.000224414324755246,-0.00087983889720949,0.00256023437385936
1.64,0.828418886138498,0.0567564435405391,2.73907140655431,-0.0536599476714717,-0.0571494136329404,-0.0235310997638076,0.301437047778808,-0.749711713129115,1.89337159143979,-0.0475339792045666,-0.0830592141798584,0.0520806793428297,5.06537193504299,-0.00244297621678572,-0.00274118723961175,-0.00134713774760985
1.65,0.799544059138689,0.0462575879068908,2.79541778982342,-0.106206083718707,-0.101502549913247,-0.00579723369393999,0.328314056614173,-0.888282774920947,1.74308203741737,-0.174632545464484,-0.177682271558066,-0.0514254336504439,5.09223679749368,0.00394757175042178,0.00177678726551632,0.00270184547220399
1.66,0.866064766418052,0.0385475378862893,2.78660794654894,-0.111607165676724,-0.0956633848692768,-0.00405553745172946,0.359119589656076,-0.758902146007679,1.83436460355241,0.119326543832018,0.038985349475079,0.0728946710861833,5.02691005474038,-0.00389676439035013,-0.00384457345601769,-0.00325004367093119
1.67,0.837338631010746,0.0438276076731362,2.80315125744075,-0.0267129762276259,-0.0423660777601302,0.0161356403911193,0.316204095762609,-0.814831564302497,1.73917145656717,-0.224341585874122,-0.208156374245892,-0.0813756147948185,5.13620484545266,0.00111664262800706,-0.00025438656821246,0.00309019052229663
1.68,0.859032692707041,0.0555536551776109,2.80752114966096,-0.135357861337528,-0.111658585112973,-0.0179457488143751,0.440806693508466,-0.878907647257319,1.85530159494379,-0.000495961888564711,-0.0406799301092308,0.0784365143625031,4.95902302300594,0.000566738671868292,-0.000669233608067988,-0.00287248616108202
1.69,0.907097722106442,0.0165485588128029,2.85686102704392,-0.0481431695980074,-0.0450272379110531,0.0456022075194908,0.35288309615437,-0.740664298774232,1.71746300998014,-0.0184223383798807,-0.0643021413025467,-0.0493335655377715,5.09559045078404,-0.00346541742129425,-0.00352129981341713,0.000198599016399658
1.7,0.853204995486299,0.0505040913820356,2.80229810086422,-0.0739755268541344,-0.0725160481596426,-0.0223359990733157,0.416867383970503,-0.903441706269649,1.7960302628328,-0.199380147955109,-0.188726044267469,0.00081697008195276,5.01697043084192,0.00287872441350674,0.00106927797114831,0.00101222374628222
1.71,0.893847047680274,-0.0100024996615615,2.84719149963235,-0.137847364956117,-0.115095099113686,0.0035677015682996,0.403147839257298,-0.853110918818012,1.73032909868749,0.0659133430537267,-0.00491262205581461,0.0252423806266197,5.017229845546,-0.000949519618587838,-0.00164916268848021,-0.00137133905813918
1.72,0.875981110932289,-0.00852271406687477,2.82128944207987,-0.0433112824592503,-0.053245973291845,0.00414115997113787,0.341416262707689,-0.809335351047485,1.76078285159294,-0.098291039567307,-0.12003104215322,-0.0348104926044108,5.06130332074485,-0.00139010801782073,-0.00209280533119145,0.00145061874068327
1.73,0.852129347682328,0.00628048205774745,2.84758008170194,-0.110566726719155,-0.101185737714321,-0.0215141804651078,0.42459193150064,-0.937150513082309,1.7614268830431,-0.119074437633891,-0.137356585865321,0.024139622239811,4.97859753841797,0.0027563043078772,0.000854991825123663,-0.000136484430762707
1.74,0.920890659823881,-0.0207960038186679,2.88045219231019,-0.0907917360131672,-0.0794974450095227,0.0292798971751233,0.415402621852185,-0.801841601975587,1.72583050913426,0.0758356741602081,-0.00212826025400929,0.0145893393108442,4.99880598262321,-0.00365925506107572,-0.00351641832997062,-0.00206642714158661
1.75,0.892228291994258,0.00385309548897317,2.86049245710262,-0.0331377277572251,-0.0471539688513478,0.00782581743789863,0.413337860676939,-0.880295288118259,1.71351797517796,-0.202827144972935,-0.187810470463144,-0.0438821703458161,5.04200848005814,0.00100966198778527,-0.000381949274845454,0.00170659578934909
1.76,0.872153578829184,-0.0549808933146771,2.84255518130307,-0.167128289704887,-0.144941970745642,-0.0400386926097606,0.431468761021562,-0.995648818735999,1.7331232581829,-0.0356922112016382,-0.0819264331375215,0.0176241937070215,4.97723929149411,0.00379365220389207,0.00116572559578124,0.00105187374684003
1.77,0.940766213515398,-0.0504302119820135,2.90737972408471,-0.0503102576428743,-0.0512331130237739,0.034637130019811,0.407705712506373,-0.741875926959571,1.79057151992198,0.124257946984749,0.0161059190764164,0.0465485988319963,4.9485334715494,-0.00691432294731516,-0.00588141007734906,-0.0037957280376513
1.78,0.871542637861342,-0.010470877209419,2.90161387902888,-0.0340299669215668,-0.0635955529706769,0.00165781730153278,0.439278951314215,-0.990444321183854,1.63711780098012,-0.351932867441449,-0.297278910695596,-0.0978040150017521,5.03321590155206,0.00546566036372116,0.0028941988991656,0.00455896768408285
1.79,0.923964547843499,-0.0821377872546437,2.86920116068005,-0.197212923520321,-0.16579203171275,-0.0344651620128715,0.480657306948176,-0.970569645767823,1.75023652337039,0.163432875709907,0.07379967931066,0.101692606443278,4.92690706443739,3.12134414630111e-05,-0.00166723738608604,-0.00318801145402056
1.8,0.913497005769701,-0.110612794746552,2.89924000481115,-0.0163385333269258,-0.0356841634667763,0.0257075407214662,0.336340078525616,-0.808351626241413,1.73983993473162,-0.0676862568808894,-0.12951316892009,-0.0815256700303308,5.00486106710032,-0.00329275008532162,-0.00326536577514638,0.00264295393492263
1.81,0.868429465917317,-0.031245685117182,2.92935784469508,-0.100426686587013,-0.107722915663999,-0.0378318221509097,0.512154765547527,-1.03853423928579,1.71245694602695,-0.197067965481768,-0.184359702561353,0.0503706618212424,4.89439295336759,0.00463743298976338,0.00228882193112391,-0.000599153430945842
1.82,0.95891082451492,-0.121748075163474,2.92765790637511,-0.139849088061629,-0.11587517164445,0.0247947457725004,0.442974300685723,-0.896115672978071,1.62494226136614,0.141521530595389,0.0362217528896258,-0.00716778161130627,4.96795154443645,-0.00250316899747748,-0.00298602038389769,-0.00083852117533736
1.83,0.943187219768781,-0.0543912971373022,2.92098473122817,0.00918286562795576,-0.0166668672660091,0.0185360629882576,0.462280322526278,-0.852804705625509,1.72876510390423,-0.139592387766833,-0.154339387257209,-0.00174761433334242,4.97988638285603,-0.00265925747427764,-0.00296607177833855,-0.000770269255104876
1.84,0.922779629950334,-0.0717792848914917,2.94919598574526,-0.130059574840323,-0.120498699109847,-0.00718585663886071,0.560076283310895,-1.09487018907262,1.70073452865853,-0.169060301745493,-0.176865902958727,-0.0226910877024902,4.85462434286464,0.00565426431350431,0.00290721723155545,0.00141784942467593
1.85,0.985880876135576,-0.164212905794663,2.95063755499386,-0.129402344260232,-0.118852330074779,-0.00637488802716647,0.440708830749224,-0.881378466274073,1.60036598485862,0.17778400461373,0.0621990702473611,0.0344127314132719,4.95341229848025,-0.00383026090378377,-0.00379641033397536,-0.00132778625061263
1.86,0.923322490164059,-0.091361803827029,2.91941890249499,-0.000265349761195632,-0.0329386465128126,0.0111976834945169,0.448622348308157,-0.925692371458852,1.68554320129481,-0.21372792321873,-0.206078676842592,-0.032322124942145,4.97325495540897,5.27812603560315e-05,-0.00117051586889392,0.000996719039576244
1.87,0.934692162665399,-0.107908399992681,2.9682688600294,-0.154037086163157,-0.136951789769215,-0.0141263961363712,0.574540836245039,-1.09627372330184,1.69134840383457,-0.0552959014386177,-0.100791132382197,0.0202654309542155,4.82913973097138,0.00391314302197289,0.00161710509442188,-0.000295623901124058
1.88,0.966068482636799,-0.214830430465201,2.94811123565937,-0.114434454953558,-0.117066506554927,-0.0171513368741679,0.400989488604067,-0.921905691302439,1.569125626148,0.0852402205415138,-0.014699883467989,-0.0258331522684398,4.965367532058,-0.00189553742674438,-0.00236401161389006,0.00201717326550867
1.89,0.918912846519723,-0.11873027895639,2.94081270429206,-0.0374762234810694,-0.0631783729942055,-0.0124951329901929,0.48239059797761,-0.968155494176348,1.68741055467497,-0.133466870462893,-0.15199116126646,0.040280361755213,4.89544903048292,-7.67184359656025e-05,-0.00119469054312603,-0.00132985434141369
1.9,0.986178319328427,-0.112031606638933,3.02555609463287,-0.0946096884626693,-0.0881399308431197,0.0433132847114288,0.602580638590125,-1.02366493595897,1.61990542139669,-0.0320400732329956,-0.0836390343537517,-0.00523242512680316,4.83292204212467,0.000128631516223642,-0.000792608723006283,-0.00180890335651626
1.91,0.988325770904321,-0.19697661746932,2.95809985482449,-0.0986183701978617,-0.105724469839297,-0.0187388766250669,0.494146155722636,-1.02535699205423,1.52499351279509,-0.0630849711785152,-0.102965785679108,-0.0523391917131515,4.95399719206849,0.00156718156949578,-0.000215917321335938,0.00334550445513906
1.92,0.941062981787913,-0.206389390558029,2.92452423271615,-0.119466790506999,-0.124121470300763,-0.0474926867169003,0.485606333789905,-1.04802160472704,1.6433687397765,-0.0139471262113033,-0.0865447027442175,0.049716955256069,4.87694976615461,0.00142202898842706,-0.000279648001485373,-0.000127747676338101
