time,x,y,z,roll,pitch,yaw,xdot,ydot,zdot,p,q,r,thrust,roll angle,pitch angle,yaw angle
0,1.01841953230695,3.01841953230695,0.0184195323069548,0.0184195323069548,0.0184195323069548,0.0184195323069548,0.0184195323069548,0.0184195323069548,0.0184195323069548,0.0184195323069548,0.0184195323069548,0.0184195323069548,8.93164443273043,-0.00713893524289787,0.000491273303648641,-0.00176896553920498
0.01,0.619371765481798,1.8193717654818,0.0193717654817975,0.0193387947818483,0.018429588084779,0.0184053584074806,-0.0593752614420851,0.0959266576603666,4.07702836825599,-0.280948790875323,0.0291318116188297,-0.0277859393876333,5.85876326118292,8.3608225033271e-05,-0.000231151183622936,0.0004296113874785
0.02,0.64250558356956,2.03708778413101,1.65447417985976,-0.11255003954174,0.0133080249677834,-0.0101146108862295,-0.0223028692973383,0.0271462708840146,1.00596370400775,0.00193213243131286,-0.00553218164467455,0.010031921960271,7.12544481644792,-2.25907121828266e-05,0.000939380946834555,1.96170398947786e-06
0.03,0.663751119178046,2.01458409755292,0.437183859826548,0.0058155757160617,0.00459731345476792,0.0106732823962556,-0.0289158991689101,-0.252402672084328,2.31453763455554,0.00180507700017217,0.0421645325165524,0.00531876973376186,6.95925408238448,-0.00423642856839713,3.55839544338174e-05,-0.000764165401345812
0.04,0.638342860140342,1.87817474088509,0.979806653063021,-0.0140571588362467,0.00400917817185688,-0.0121849467079072,-0.039586315192292,-0.0196272218846361,2.1353810356463,-0.186325318505735,-0.00918333388884893,-0.0275756646900807,6.72637112951822,0.000308740874985388,0.00139090475042726,0.00187102272539174
0.05,0.686718869126884,2.02619792858516,0.942805447724094,-0.0448885401185806,0.028997405603142,0.021875254296004,0.0369990062396555,0.0167653387782056,1.95915704287533,0.0349437234727782,0.0815401702199165,0.0662568008029916,6.87841667727437,-0.00411079591749837,-0.00200780259909945,-0.00416663410694168
0.06,0.678123675190004,2.00133143064244,0.8568289553541,0.0134668479505239,0.0327205856152206,0.0260813170431458,-0.0648637628959152,-0.103950948426537,2.10802775783645,-0.172114748512045,-0.0754608692497463,-0.0879189936339868,6.84901391146598,-0.00123562807207995,0.00143202647681726,0.00292581731604631
0.07,0.676947101641105,1.99250081796817,0.970144473347622,-0.0376951328859867,0.00544046154483617,0.000460951037987559,-0.0220523926952761,0.0638004478302928,2.12406500623463,-0.0287204097000232,0.0866833791440934,0.0897716938660048,6.73782390093563,-0.00330583843865329,-0.00129200421441579,-0.00427654220336055
0.08,0.65843496310886,2.02456703894523,0.948726750695205,-0.00932127143367418,0.0384819883353688,0.0389629364893049,-0.0190340854367675,-0.0788886930413943,2.0066388796627,-0.138871036860439,-0.0457824316318144,-0.0872440172856523,6.84879212453547,-0.00127168001813267,0.000438365840533569,0.00228754303569124
0.09,0.675625136769214,1.98265765828589,0.933566135984742,-0.0432512695175688,-0.000159097551719049,-0.0180278557507332,-0.0654198045713499,-0.0150141298457741,2.14712437761517,-0.0465551844074077,0.0336932374840462,0.0612803004499039,6.72702086710169,-0.00233392163368524,0.000133420455853235,-0.00205619529059606
0.1,0.606453352603223,1.95850947861889,0.955231540711391,-0.0510881128364076,-0.0138394608322042,-0.002944835222291,-0.0694338866460774,-0.148536572549972,2.00571057292057,-0.1264776765967,-0.0180761399854391,-0.0673989076565719,6.80671210260047,0.000803719111504289,0.00190365717269823,0.00332445677248263
0.11,0.625364942964564,1.92440003446649,0.929068423430062,-0.0684729291171978,-0.0202475466220369,-0.0388285032756519,-0.0186622021697537,-0.148388614910233,2.11803278219802,0.011789042406294,0.0657858728060969,0.0585606156661453,6.72430938957765,-0.00183486627079654,0.000279209439992828,-0.000940920650636377
0.12,0.685105350328462,1.96338344658396,1.02435848659513,0.0230383534161965,0.0501017740709387,0.0461931554433042,0.0493558986031143,-0.120350299547957,2.08938618440525,-0.0654053122007067,0.0321632677190964,-0.000823001639975007,6.75160009621209,-0.00456938297018715,-0.00215221694867548,-0.00213076903908353
0.13,0.669037856760807,1.92959730823612,0.992615624530951,-0.0440387810910215,0.0021126154885606,-0.0141154938645163,-0.132268072499112,-0.0265439274859943,2.10150115013816,-0.205881847859098,-0.0921287537976044,-0.0561512314967063,6.71635352089459,0.0016843352005283,0.00270726247674593,0.00332473560556864
0.14,0.624678447826439,1.99812147860336,1.02017712701131,-0.0775823075689281,-0.0257574361477779,-0.00945014149101962,-0.0123942624812167,-0.100715367763632,2.10166686061899,0.065133788478318,0.117022426867925,0.0787278155773296,6.67155845009976,-0.00341082937802663,-0.000958580543799862,-0.0032822234163683
0.15,0.650591300339962,1.94481975913615,1.02455038805612,0.0130003678570659,0.0396433539346509,0.0227803231011136,0.00561965222825977,-0.192327773296915,2.0662585909586,-0.157435631360214,-0.0403297188492987,-0.0760873607610427,6.74809352404037,-0.00164522984759861,6.83119495989293e-06,0.00252859807642032
0.16,0.664936315661266,1.91320076808577,1.03199708848772,-0.0729901949861978,-0.0168188040331308,-0.0327739570490477,-0.0972469293821659,-0.0406624654126755,2.15798829636431,-0.0822522013417908,0.00253805153192256,0.0505859155142199,6.62045979010549,-0.000219607696368965,0.0012331287293881,-0.000850640919618075
0.17,0.596284586874861,1.94965798023882,1.04498007246135,-0.0671367530747715,-0.0232533975551407,-0.00435653039381111,-0.0467125742097883,-0.219142775431358,2.03203113727106,-0.0431262535205442,0.0266476487965699,-0.0400348832742603,6.69788830334647,-0.000681188657226297,0.000968339624374804,0.00209560024606599
0.18,0.621160103591977,1.87932586299373,1.02177024260529,-0.0494178605742842,-0.0118872712626206,-0.0398599597032786,-0.0269432684995835,-0.219940942912876,2.12770587964068,-0.0606854500438851,0.0199634095530447,0.0238261132904244,6.64340775877142,-0.000983458602253492,0.000681291817093439,0.00075098765650345
0.19,0.676139406918405,1.92602104438826,1.1140390096526,-0.0143663057357353,0.0280300406918296,0.0280999300561041,0.0234286990257732,-0.1231142352402,2.12380298108668,-0.03808614317944,0.043574763162322,0.0312772704032638,6.61922893680604,-0.00391384785232704,-0.00174566831462619,-0.00280189371055419
0.2,0.669796070972643,1.93814407598842,1.10281774239326,-0.0246924169637835,0.0177037669055456,0.0102744805809568,-0.0663566957954022,-0.106305242365374,2.09778986565914,-0.174137687875341,-0.0665051690563859,-0.0605459441116798,6.64152045795566,-0.000218479187616952,0.00124764637010441,0.00238047103886669
0.21,0.61903946681045,1.93148599043898,1.08627402629708,-0.0942031122866466,-0.0405026803885835,-0.0379465494813553,-0.0780123044862091,-0.147488492851313,2.12453142780377,-0.0380914758615057,0.0405434719084182,0.0372476789128114,6.58314490059817,-0.000130869957813563,0.00108109528195311,2.67090983787898e-05
0.22,0.616495484260594,1.916298534522,1.11171152999178,-0.0402172380510733,0.00331633205996584,0.000887328233282435,0.00434243353386243,-0.256191501668632,2.09829177406426,-0.0331046745938547,0.0315669897504446,-0.011751152560768,6.59967290408002,-0.00236597193679335,-0.000450966769476379,0.000512549150257081
0.23,0.684840627478296,1.90367156120482,1.15532227755486,-0.00741407198712152,0.0311324479291674,0.0108799907848043,-0.00076395943128655,-0.131487794981539,2.14401517130785,-0.09813349183571,-0.00132747127471536,0.0243263818108278,6.57670513895702,-0.00297663937445176,-0.000968809967648033,-0.00165767575575617
0.24,0.658925982118612,1.93217652006979,1.16047856582712,-0.0512232599935868,-0.000102637847400197,0.00809526066705487,-0.0703380765909021,-0.117213929868373,2.12272312082474,-0.13853307039109,-0.0367585088715933,-0.036334562663279,6.55410788428453,-0.000122458006951988,0.00111367699590131,0.00133507682279138
0.25,0.644198381313903,1.95200016222812,1.17094833453241,-0.0573494195106369,-0.00326574509102985,-0.00416051776851529,-0.0105906889306746,-0.161311259193788,2.12720549626338,-0.0147100759777966,0.0543978237208779,0.0360627728651607,6.53173311992207,-0.00282636499077013,-0.000924958638273064,-0.00151088761795579
0.26,0.665063075994183,1.92869842263178,1.18987523718306,-0.0100535996646681,0.0305708478361378,0.0209573575010319,-0.0107825788557799,-0.178249667142425,2.11998697559183,-0.127058819521677,-0.0274005513025518,-0.0261050127977966,6.56014157863404,-0.00217428647420963,-0.000508394901590295,0.000253902108206862
0.27,0.672767654937376,1.92877910238105,1.20765915168197,-0.0493008783648237,0.00559969700297337,0.00347633314595122,-0.0450630142108475,-0.11029449513896,2.1684203354622,-0.0954811518502758,-0.00509769784232795,0.0168417159165652,6.48327392142382,-0.00159340956671838,-9.64946747789085e-06,-0.000961279150231744
0.28,0.649918894389874,1.94861206685477,1.22605759503467,-0.0438782033422829,0.00719207814874899,0.0142463944880646,-0.0254059339667922,-0.17185853623034,2.10241770204707,-0.0782505964680776,0.00729051803715736,-0.0146064522621433,6.51791808665597,-0.00205146083654542,-0.000429179506074377,1.95600217417354e-05
0.29,0.622294045437583,1.88578772255019,1.18517754828,-0.0705182859257158,-0.0205670094249287,-0.0313650869273023,-0.0823635094004662,-0.22774967609311,2.12332600198532,-0.12508995550333,-0.0353518793172481,-0.0214524104197288,6.50231940181485,0.000833726483182074,0.0016098168239526,0.00249637657084702
0.3,0.63874120583408,1.902524365778,1.23825473261818,-0.057238905493786,-0.00562356641297895,-0.000780183304688147,0.00285923503233781,-0.212436755925221,2.15754978554397,0.0186056156220079,0.0706563409319381,0.0584381659893443,6.44633099260161,-0.0036519215830774,-0.00151767256573573,-0.00272557754784815
0.31,0.68577198405359,1.91887035202344,1.28280249204924,0.0151410421965108,0.0501634097617481,0.0433717627131754,0.0118553685390705,-0.175288322236642,2.12570665283753,-0.153083780219005,-0.0384375175405786,-0.0404280936391112,6.51598491071951,-0.00303200848434156,-0.00143621289364904,-0.000107603282721582
0.32,0.679060396085524,1.92353089943218,1.27326942967564,-0.0630616669803331,0.000995996704375994,-0.00346996264695592,-0.0706244218157318,-0.109886838039013,2.20754755683082,-0.134508186026593,-0.0410745775193084,0.00849336795424688,6.39014560313573,-0.000397647677331396,0.000763644886432088,-0.000235880849295877
0.33,0.579723648205453,1.88678664648665,1.24959367021111,-0.115136592144402,-0.0599927609375295,-0.0405279137094088,-0.111796345660258,-0.295400551029171,2.04234659829028,-0.0773906632411505,-0.00638650295292899,-0.0434194837345293,6.49234239838061,0.00192133717987841,0.00216890609647792,0.00397313170900977
0.34,0.614650679966048,1.85914908078306,1.24835920698274,-0.0521347803406955,-0.00696959047457696,-0.0217988341912245,0.0242514484798443,-0.310985726085305,2.21838088855364,0.0501103082399407,0.0823752997971568,0.0795490146680034,6.37312393954871,-0.00435714727566544,-0.00196664985069237,-0.00272711881095415
0.35,0.666006868392721,1.84339253526254,1.33780827198241,-0.00140444337093425,0.0267526964859401,0.0243979027666976,-0.0327571544508358,-0.237420068503093,2.0878187503786,-0.20679511139301,-0.078456232153669,-0.063174173312639,6.47222067475956,-0.00072349747513707,0.000367891521486225,0.00185218909130704
0.36,0.654180788346624,1.88863348563835,1.30080959043916,-0.0940085238041394,-0.0237491664448058,-0.0189121913237929,-0.0492490867352848,-0.169440725291254,2.21239878442494,-0.0502167043330708,0.024097895969922,0.0438626516466359,6.33283089036854,-0.000924848158652278,6.89998284029892e-05,-0.00118341127088368
0.37,0.627750519239032,1.89779512003044,1.34000424460945,-0.0476037289089907,0.00138601410872136,0.00797996443144928,-0.0250342919072542,-0.291053057819566,2.08492342051262,-0.070888535383446,-0.004393352362227,-0.0334096136827853,6.41976741680603,-0.00200378038465665,-0.000399997195753149,0.00120893116253428
0.38,0.651202877988975,1.85624327977046,1.32674205846706,-0.046759749149556,0.000270419019803399,-0.0137020292642311,-0.0300691157947013,-0.240850577367906,2.18330770914149,-0.106990855661933,-0.0131335580003978,0.0253553853813757,6.35568343389704,-0.00140790788906369,-0.000154340225430947,-0.000547316840867266
0.39,0.680857665114785,1.91048874948204,1.40199002870612,-0.0310793447887027,0.0265695191568089,0.0401302517951406,0.0202585304445247,-0.190834379239906,2.16019849586627,-0.0580508919163872,0.0198810827351999,0.0136270457741973,6.34471228050946,-0.00380221562382721,-0.00220197477090383,-0.00251879636745428
0.4,0.681835268345688,1.91007353294191,1.39089043569431,-0.0261394645593708,0.0254816484747234,0.0201487646534028,-0.027185157872459,-0.205626313913644,2.15095827113938,-0.168276959927964,-0.0709033209098757,-0.0404863215089112,6.36214074640861,-0.00132679234002904,3.4276133997391e-05,0.000982717703124019
0.41,0.651330660950079,1.89300211341849,1.38774529214474,-0.0825003085002082,-0.0217614071157968,-0.0109522315093655,-0.0484737098913298,-0.222778152127589,2.17289696431079,-0.0786672265197028,0.00792778753094663,0.0243265621190644,6.29526557842029,-0.00090356073652003,9.62977332375458e-05,-0.000632789161529362
0.42,0.618817427771012,1.86119809094644,1.38575490455059,-0.0697488096122566,-0.013091668985247,-0.00753692144972883,-0.0450720097965874,-0.314137667977966,2.10831481784098,-0.0801497418969994,-0.0106433271741165,-0.0286398232873637,6.34195983683565,-0.000907232708245829,3.72297201297606e-05,0.00171465491418194
0.43,0.641904494788919,1.84105512825686,1.39731875254256,-0.0546307743404176,-0.00422306100323887,-0.0129212005027376,-0.023250576156606,-0.286839046078954,2.17924807942188,-0.0672826405864933,0.00174484780233552,0.0347252075022197,6.2891659846788,-0.0021461306206935,-0.000639038567272033,-0.0010250306735422
0.44,0.652887748698726,1.85410922437952,1.44082754265216,-0.0455576440366936,0.0044164269949282,0.0163844670807385,-0.0236751776935538,-0.270431798501007,2.14056122198411,-0.114596121084069,-0.0224708552421964,-0.0198283748476505,6.2993280303771,-0.00159044307072227,-0.000470753127604785,0.000175555076197068
0.45,0.636842577694225,1.84463054070365,1.42226478332536,-0.0787562677719231,-0.0182715294102463,-0.0186660955879197,-0.051537208679393,-0.291656964266061,2.15154337598961,-0.104128921898698,-0.0257478495212751,-0.00563772612958315,6.27387809443786,-0.000227185265315887,0.000490257777637111,0.00115247208925644
0.46,0.631184394472109,1.84117284386214,1.44249240523415,-0.0709413230752036,-0.015766342420403,-0.00844492607467333,-0.0277899398967142,-0.317087810268847,2.1499118850856,-0.0456491226840838,0.0142612569724454,0.0187008904670309,6.26036902718547,-0.00199701006012984,-0.0006322402569264,-0.000479879156559348
0.47,0.656602340614908,1.84319661497388,1.47452679920218,-0.0334924614396142,0.0144964862605106,0.0149704222419434,-0.00411082969975352,-0.293771241838489,2.16013798107416,-0.105971366570916,-0.0178113900141192,-0.0039155507033777,6.26297604618419,-0.0024546011225963,-0.00119634921159645,-0.000501219250117055
0.48,0.688321334707402,1.87412584726142,1.51181843031347,-0.0367117607275706,0.023523192537516,0.0269354584125885,0.0105875333954043,-0.23565300870629,2.18979654048434,-0.10718552469539,-0.0218565812003782,0.0135870317337037,6.22162600900532,-0.00276965446360713,-0.00149655892831202,-0.00188787293277681
0.49,0.60653386653938,1.81091075961731,1.45464495645475,-0.113705692785486,-0.054358488904068,-0.0410800763182342,-0.123089912574066,-0.368038105438281,2.0955120353307,-0.184326564856957,-0.0967857131420193,-0.0793896616944713,6.26268827718591,0.00383261616693256,0.00311315853116945,0.00571018511647934
0.5,0.588744720123737,1.79245448548111,1.45692098267073,-0.118329164999193,-0.062088703821268,-0.051848174410237,-0.0261890290082885,-0.395517279772023,2.19615806405209,0.102090166880564,0.107377633783942,0.103261441093896,6.17221188872664,-0.00313139928264876,-0.00134862608525247,-0.00243202981008233
0.51,0.674139260982517,1.81971532849259,1.56376097688486,0.0385475131707973,0.0627116812930864,0.0619060048029977,0.04732440973578,-0.329124968712789,2.15976950179141,-0.145479583629193,-0.031178859895526,-0.0338232047720481,6.27679108913115,-0.00471070684852013,-0.00352858728300749,-0.00123934350492564
0.52,0.688081185975833,1.82802426001395,1.55219780450944,-0.0734997481528501,-4.13730430985811e-05,-0.00519111167721116,-0.0505098309485184,-0.251626099827693,2.25812776781358,-0.216604160234896,-0.126514847783207,-0.0174147103371922,6.09993914440414,0.00143272749874656,0.00187266062344848,0.00108775503119114
0.53,0.627382523528971,1.84787856776516,1.56477646643807,-0.118725640069271,-0.0561568765194063,-0.0113893706587735,-0.0358599569357316,-0.342922699014891,2.06436966887285,0.0178315076509375,0.0680496294308995,0.0182178956694133,6.20322778431712,-0.00177606404066967,-0.000565938963677435,-0.000322005299710102
0.54,0.651045988615513,1.82120840697569,1.53117335589386,-0.0119325107999448,0.0352506402859263,0.0147603530071348,0.0231768515165346,-0.36949838754823,2.21452236277913,-0.101232349624495,-0.0161393591720342,-0.000525364701138176,6.18118802859564,-0.00366942417577436,-0.00263783887061854,-0.00062427116180791
0.55,0.646783515388967,1.77524072512112,1.58332521321656,-0.0866877031584008,-0.0247263614665848,-0.0199734807483625,-0.0735390480087286,-0.354050684909534,2.15730813849839,-0.200736468841735,-0.118506951808826,-0.0290624419577019,6.12696622391764,0.0022444363892588,0.00240161314677314,0.0023323459872039
0.56,0.605474001993318,1.78722115303037,1.55689355525259,-0.128017780556975,-0.0679681854170935,-0.0301836150808279,-0.0432940458646027,-0.399828681517044,2.12018131370886,0.0367796195901549,0.0772611140666658,0.0329147918183561,6.14679317861936,-0.00154359990938131,-0.000595906713691841,-0.000128805959870648
0.57,0.647706697938083,1.79158328471204,1.59200983527957,-0.00765978819058974,0.0366542342394949,0.0190040620145851,0.0263529266451052,-0.395727045604804,2.20013563873874,-0.0949194214279368,-0.0189477858224628,0.00234701838418222,6.14633161023517,-0.0040315622177168,-0.00286153792028416,-0.000953406406230711
0.58,0.700034705532636,1.81132696675069,1.66580893249238,-0.038286587563047,0.021047799880654,0.0280454189295581,0.0136446710794381,-0.300312807778553,2.20056135874558,-0.177133242375221,-0.088794456459482,0.00371094958730458,6.0804431343183,-0.00132458832005361,-0.000224646471362404,-0.00146473234018917
0.59,0.671985530260483,1.83546735215721,1.64607948410213,-0.0868793232473813,-0.0218714000995116,0.0155793581834812,-0.00461230162373663,-0.33895339651719,2.13013233451406,-0.0804435347492304,0.000211420639361182,-0.0196205225899868,6.09866279165346,-0.00139168728482573,-0.000566687598113584,0.000203957558943832
0.6,0.640401139671851,1.79168927530693,1.61209632540782,-0.0726119039077604,-0.0101139837043483,-0.0176780252463008,-0.0253312928757609,-0.408186312815868,2.1470398676607,-0.103860865413801,-0.0318706894254294,-0.00413823103417244,6.10588411551168,-0.0010107955290132,-0.000592552608346735,0.00104756209794006
0.61,0.665615939902975,1.79158690506758,1.66554897253552,-0.0561469653319103,0.00322196729674094,0.0145202344928161,0.0135500443981233,-0.365972842464744,2.18458642647557,-0.0668205358996173,-0.0117999424686083,0.0358886348607473,6.05754396304825,-0.00302377174130804,-0.00166000724291656,-0.00235443789172553
0.62,0.653849304728334,1.7803283250367,1.66997783688627,-0.0628613171625278,-0.0107544891507327,0.00926676242824318,-0.0259961984595861,-0.399759552021411,2.12547325018356,-0.167026106287467,-0.0720624755467735,-0.0542906209704756,6.08779486127383,-6.27165425447325e-05,0.000369400175327969,0.00215098444696278
0.63,0.629566311111309,1.75782756258435,1.64742997745609,-0.113121662887368,-0.0443480014686663,-0.0353716613420277,-0.0350874261656401,-0.425930717016363,2.16059217836379,-0.0566302967144067,0.00231352316586216,0.0335463902697161,6.03692965932514,-0.000346295754025018,-0.000172411158611093,9.08283803650858e-05
0.64,0.633138948339118,1.75171327770229,1.68034598998285,-0.064109829716822,-0.00882446844129714,0.00504237687668843,-0.0136805128396887,-0.442947747129689,2.14406194797922,-0.0624519071786584,-0.0177834821468455,-0.00533470779889386,6.05379088969587,-0.00245807595730106,-0.00127644449293289,3.76440198363031e-05
0.65,0.638844997654801,1.73526344415636,1.6920530187813,-0.0701627832487582,-0.0200380212211949,-0.0140315492565672,-0.0268843593296448,-0.440480534922462,2.15020181987424,-0.151347555436302,-0.0625229674238018,-0.00911724903274204,6.03366456656176,-2.55809633225565e-05,0.000316186887639794,0.00111206704513581
0.66,0.640383743352061,1.74602245378977,1.70691580076275,-0.0988882977986937,-0.0308375137893228,-0.0076577073034338,-0.00998043544774357,-0.435554611248896,2.149667274972,-0.0470116425658309,0.00549092198736614,0.0200977641544527,6.00425708352929,-0.00144192981450409,-0.000914438039494377,-0.000576411771116184
0.67,0.66276994538982,1.76073578174694,1.73496533385013,-0.0426791011692746,0.0110304077984133,0.0184017110489232,0.0191686229138472,-0.426062319823765,2.15279547866613,-0.0923782511072547,-0.030863523579553,-0.00336045567946934,6.02675157063378,-0.00306183083970034,-0.00191144241250137,-0.000666956956518728
0.68,0.639307344217659,1.72438178627125,1.72313538998472,-0.0924056753042342,-0.0344095933968893,-0.0220087869161995,-0.041200358249904,-0.471624804002546,2.14615437976966,-0.184722471874621,-0.0948651931998284,-0.0311634222322773,5.99022265999314,0.00181751790711766,0.00150643078394946,0.00252932834303311
0.69,0.646037480779495,1.74019718925611,1.75159918674237,-0.103276862128298,-0.0343987602671421,-0.00590190720276495,0.014520614187794,-0.444382082379166,2.15478263311621,0.0346098867822536,0.0605773732594068,0.0590769775471291,5.95842683412774,-0.00342957505908434,-0.00231377266517415,-0.00249688445410941
0.7,0.683685946064926,1.75953680928389,1.79047283475193,0.000263275660498725,0.0423310481640874,0.0447624295935557,0.0415621624181128,-0.428817253248195,2.14991186506132,-0.166510703524985,-0.0757761008508962,-0.0350044128583306,6.03696870299218,-0.00333976454809931,-0.0024544251589095,-0.00037160739407798
0.71,0.672475471728082,1.74033122547985,1.7845732055228,-0.101301219962021,-0.0296007286067764,-0.0125506188686284,-0.00625949617827859,-0.447868274200417,2.21689195107818,-0.179323048954784,-0.096391697910114,-0.0058784432886136,5.88524165278161,0.00151484629528908,0.00139393713618844,0.00088950144670505
0.72,0.664043099156899,1.74901883475708,1.81883423992373,-0.0965160633787197,-0.0285773735503778,0.0108508941679762,0.0231896074998192,-0.445193260705654,2.08859751089158,0.026553610440722,0.0590310962643369,0.0296320238089235,5.96292797747023,-0.00379837877982801,-0.00263107443537162,-0.00188808398503533
0.73,0.661623766618657,1.72530577919988,1.78207263775466,-0.0279562649371031,0.0192571358507247,0.0103472618373831,0.00533635592490594,-0.487064086258691,2.16112285394885,-0.20158898934261,-0.10866574962036,-0.0411792615531775,5.98290571749517,-0.00108313279195643,-0.000769130423766092,0.00151494576908347
0.74,0.699322393419592,1.75220250667993,1.86264917035384,-0.0819443291081149,-0.00842912971095289,0.0203627556344262,0.0633125571922359,-0.417575868940986,2.21630738946806,-0.0598866758200756,-0.00333530780717993,0.0635430691361884,5.8449793630742,-0.00278806361970079,-0.00190155235733443,-0.00393313290596179
0.75,0.693658863303996,1.75351661142268,1.86566114420007,-0.0451351793538053,0.0117985060860888,0.0424094001591072,0.0311028317257667,-0.455091942125461,2.07356595382613,-0.146603907273509,-0.0674837855019473,-0.0693905840972001,5.9798995577094,-0.00204216931680079,-0.00138988195239884,0.00133248303879493
0.76,0.626799332610092,1.67731221348413,1.77817349243347,-0.133717167272576,-0.0652664013725551,-0.0625903848977944,-0.0561613799943178,-0.555002278317465,2.16800707105505,-0.16257344469017,-0.0861956776116014,-0.00143720742165591,5.88494605935777,0.00318920665073353,0.00187040736386724,0.00303843300671523
0.77,0.63524206307823,1.68133059462206,1.85839264693426,-0.105614452636098,-0.0386401462882263,-0.000451146450177519,0.0100257274703169,-0.510156303006197,2.14812160262477,0.0807803461462731,0.0650844678318247,0.0644261368216149,5.86187404419456,-0.00458556532458974,-0.00292928981692223,-0.00299811156715712
0.78,0.62255050983365,1.64769452424463,1.84248928181607,-0.0421622677250534,-0.0134643968858847,-0.00844297991609588,-0.0442679279358202,-0.576787256280967,2.08274749386602,-0.263989289929975,-0.149599503773808,-0.0925775123955114,5.9579295991783,0.00154125380406929,0.00111484796878833,0.00481794175407476
0.79,0.662024786532504,1.68485245039168,1.87828308832504,-0.12809902768321,-0.046812690541169,-0.0183762130140803,0.0464913323554611,-0.494979913143018,2.22136828438281,0.0256912981583926,0.0569420123080931,0.117874956488254,5.77615124194134,-0.0025168068460567,-0.00222440461632887,-0.00469022289642464
0.8,0.678229046387799,1.6987360789344,1.92289530521936,-0.0227773019595141,0.0240356755657244,0.0548302979887255,0.0256986288233259,-0.51160912083351,2.06456146442814,-0.147476141106681,-0.0879723673840254,-0.0934248182978178,5.9526609708632,-0.00290839441235689,-0.00195808894265052,0.00190640092272297
0.81,0.678016234424735,1.69049443918886,1.89340471425555,-0.0911548245100095,-0.0270450481576652,-0.0260948810503102,0.0365687875719914,-0.524009713913533,2.23083992505817,-0.160737822971314,-0.0711000625015442,0.0499181604222471,5.77027900903918,0.000292794938285558,0.000132469234978512,-0.00110187382882635
0.82,0.684024989125017,1.69309290023051,1.95998031962808,-0.0918216221330005,-0.0171511327831389,0.036005657270534,0.0419630080026734,-0.510228204664897,2.06640389215219,-0.0250228270420999,0.00656243581821394,-0.0100500796409209,5.856646725111,-0.00304591486801788,-0.00236437629311222,-0.00118870440957898
0.83,0.706179407515662,1.71022043336795,1.93479759132117,-0.0214150229421133,0.0307360186092755,0.0286981296555498,0.0739523402839798,-0.499029015381181,2.17552688281264,-0.147919866673333,-0.0739352750254255,0.00184372665331985,5.85681896918376,-0.00339967292769541,-0.00258901041418343,-0.00134785073126732
0.84,0.673871531407936,1.66630935578067,1.95187656388007,-0.110540969927965,-0.0415591100897927,-0.00641587875343714,0.0111783436594369,-0.575135914780915,2.1475272212156,-0.196453240638533,-0.116124987646083,-0.0346778525451815,5.77055170164157,0.0022612093829905,0.00160005066346387,0.00196682469471156
0.85,0.654982481018609,1.64424168641825,1.94586963342691,-0.127264090879166,-0.056555025211605,-0.016905377633368,0.0109787456789318,-0.563720664301669,2.08492622159504,0.0345173398431045,0.0504414633500751,0.0384529965640881,5.81269809317613,-0.00267824505896328,-0.00211558288877044,-0.00100091265896071
0.86,0.673211074649405,1.65659413283343,1.96204665757985,-0.0201904417553208,0.0249804976565721,0.0270896744694605,0.039978290419581,-0.555761358656873,2.15872858297566,-0.153233312067896,-0.0832766253879161,-0.0122586897715325,5.83546341135757,-0.00306869248827078,-0.00255747728739702,-0.000608591156072962
0.87,0.691630295124726,1.6619046778527,2.01412591279488,-0.0900846400673856,-0.0214270934050212,0.0121773931333457,0.060847516833648,-0.562994173747904,2.17275382012968,-0.164018447882275,-0.095434955415704,0.00152311139254014,5.71648294561419,0.000134418001676789,0.000222776230103137,-0.000612912757480696
0.88,0.651973221639079,1.61657846435942,1.97503437560637,-0.134968191064486,-0.0667146513408082,-0.0206980605588303,-0.0120148737885468,-0.618608061258445,2.02885059614602,-0.068037049786605,-0.0213958804168619,-0.0318619683215626,5.8187173191004,0.000412735157263934,-0.000101073531983916,0.00249709035305897
0.89,0.640670988144798,1.60359843746901,1.95249386549495,-0.0861802651358908,-0.0269311826797115,-0.0234078666303569,0.00929249171511692,-0.619501456389741,2.17604284438703,-0.0477542770857113,-0.024452924530999,0.0433595165034691,5.74281762021054,-0.00246162385678166,-0.00197787240987399,-0.00091022020066378
0.9,0.662429714838899,1.60849956471474,2.04272898081182,-0.0667080696195752,-0.0170644130798146,0.017834445899715,0.0333560591061526,-0.608023101506598,2.08978828725471,-0.154689903464493,-0.0898280971058464,-0.0193827252922567,5.76408040980032,-0.00085503647753891,-0.000603978382599283,0.000118625539281245
0.91,0.615663326924374,1.55808848399234,1.96465075265763,-0.158766347457621,-0.0914505545084909,-0.0549727954358851,-0.0407868608339862,-0.702856690297817,2.0730791355345,-0.131691365542977,-0.0741722876604044,-0.037703814963254,5.76645567454209,0.00363538639694268,0.00163717285486112,0.00439287500295231
0.92,0.666750270456267,1.59986095787186,2.03633981424065,-0.0808656148892572,-0.0176564848580425,0.00568554901127805,0.0679294310213711,-0.585433048480304,2.20034944610223,0.109116157732541,0.0692444893884647,0.111073747858991,5.66918359409714,-0.00688859977328575,-0.00506155759989549,-0.00544855485714698
0.93,0.661112978785897,1.58301109153337,2.07432264590488,-0.0226646263961218,-0.00403610645454777,0.0259808047204024,0.0138068978655983,-0.671298044895329,2.01853672444991,-0.353047666147036,-0.223922909890565,-0.132187148143722,5.81985447023591,0.00245010150940741,0.00176050854943712,0.00509817295112212
0.94,0.685343976999529,1.60177582293474,2.04281479975893,-0.169709681025752,-0.0805577884986303,-0.0317813147613462,0.087730930268691,-0.628688029038793,2.21347533522417,0.0527845787135307,0.0830821685113978,0.125246341550968,5.59575013065777,-0.00152429516978866,-0.00217188595198598,-0.00441057294552761
0.95,0.669749233610047,1.57215784080183,2.08510656389001,-0.0438270163402056,0.0084951155892076,0.0362331775292716,0.00805925351598125,-0.647347112323649,2.02113648140425,-0.133627832814465,-0.110625794785643,-0.106340712302515,5.79919606611612,-0.00235223858659183,-0.00176297443878468,0.00338694795205845
0.96,0.675132961116074,1.58637793665418,2.07496350573621,-0.0949250930070444,-0.0411475878447982,-0.0311684398222188,0.0818981646315265,-0.66230495641324,2.19692542046327,-0.146219823388097,-0.069490530787526,0.0812278510892205,5.6078265240583,-8.53881652442559e-06,-0.000157277145598973,-0.00233887036488372
0.97,0.701970404074065,1.5856247545568,2.13981175423155,-0.0960073198573952,-0.0219296862285785,0.0475514125669786,0.0722385681923425,-0.634779970667625,2.02433880433511,-0.0445157179572334,-0.0128576385096779,-0.0370817617004893,5.70626610924258,-0.00253751596969451,-0.00251412341470457,-0.00044855967774271
0.98,0.67885814132285,1.56863357319412,2.0723232001747,-0.075428315649137,-0.0182592662438326,-0.0186759662025572,0.0522189360677586,-0.686663972627807,2.1103407772264,-0.164942593365888,-0.115669867149184,-0.0129786793586899,5.68664572262613,-0.000268192697333599,-0.000306013011366938,0.00153887441204533
0.99,0.688005930318124,1.56209083403938,2.13414529680209,-0.109986647666087,-0.0466689717690825,0.00451125934712921,0.0797714854112709,-0.675786773953228,2.10584361158335,-0.0619786473948492,-0.019465654834411,0.040793990018345,5.62078694427285,-0.00141318745907081,-0.00137320405909307,-0.00211386210582238
1,0.682976648490621,1.54733880894673,2.12818688554351,-0.082012336811932,-0.0212044137413335,0.0136901722918075,0.0492199308739832,-0.690443935593532,2.04827365100639,-0.119053063648278,-0.0734122437911068,-0.0474727294860212,5.68751123173911,-0.00113222211511866,-0.00140003993121705,0.001641506334789
1.01,0.687814177900762,1.5516738296064,2.1360267588157,-0.0932793062076195,-0.0303284141973318,-0.00955622827750625,0.0848402343855897,-0.693932263725082,2.12152677735082,-0.0985329578164103,-0.0615348068114285,0.0428134126560095,5.61061823078015,-0.00128075114707587,-0.00120320099343652,-0.00153582972369288
1.02,0.665279593619266,1.51147706513791,2.14194647137653,-0.116440978217906,-0.0571460703327529,-0.00405027752970767,0.0319728666854939,-0.745730106420105,2.02669380592377,-0.129622675133327,-0.0834967115400105,-0.0506534622994732,5.65559387339555,0.0009915675347864,0.000248354837251913,0.0026078621000898
1.03,0.655393833793291,1.49710083421642,2.12552764045367,-0.122670808131203,-0.0604794025863714,-0.0349462073618303,0.0395277078153988,-0.741587925002827,2.09755431506194,-0.0340162336659421,-0.0179884822739736,0.0430589139544534,5.60518238269209,-0.00117885864096294,-0.00143530605208662,-0.000366676019955331
1.04,0.703590934433369,1.53807183780871,2.21059028237361,-0.0437207171200659,0.00676334960961196,0.0436554348456587,0.107943008952233,-0.67480863246971,2.09277983576686,-0.086511845376754,-0.0527572540480142,0.0141200594144599,5.62521768393634,-0.00396405023169947,-0.00346765829098931,-0.00263555935039769
1.05,0.684785479265114,1.51269321040362,2.18393044771824,-0.103943288339918,-0.0458995093757879,-0.00671880466356322,0.0749020366027159,-0.784941564141655,2.06425524136757,-0.232496430941482,-0.163855586593606,-0.0663745716668452,5.58846536003967,0.00294005858886893,0.00176281706870606,0.00348839461684476
1.06,0.691338500275717,1.49077469541254,2.18781389025627,-0.146840836700233,-0.0768212068522139,-0.0236047152345813,0.0803191453504866,-0.735524603501321,2.05833941427169,0.0574079419127936,0.0564261848043286,0.0768294797581128,5.57271956826356,-0.00255434070717094,-0.00251832118445075,-0.00249900113309495
1.07,0.6557439079145,1.46290098135335,2.17298246333912,-0.0651553271982441,-0.0214268442265698,0.00126413616539893,0.0190406884624283,-0.789631647364389,2.04485676648209,-0.191292370225457,-0.14267063492743,-0.078503424562251,5.63784056530198,0.000242011944631586,-0.000443836953274275,0.00369643340131744
1.08,0.660850132355439,1.46347790675402,2.21064180465919,-0.144099925580264,-0.0800714604705571,-0.0406077725866011,0.0840738612506926,-0.802071871335558,2.09855391814147,-0.0628571896812583,-0.0391825732879418,0.0714464946835608,5.51190776749678,0.000529881593647264,-0.000144388154941008,-0.00144982297759599
1.09,0.674469588287015,1.44822746107087,2.22265176945698,-0.100225565232149,-0.0439121685968418,0.013813702768054,0.048238858358866,-0.775639646073708,2.00940131684814,-0.0524485519507491,-0.0404788570046659,-0.0430349058291789,5.5986676251648,-0.00182062263624175,-0.00188618852920403,0.00141541551326064
1.1,0.673984731643861,1.46133020000222,2.2233910325718,-0.0872283880643641,-0.0357379250076044,-0.0226337591087387,0.087531436065081,-0.802985121814761,2.08111101776637,-0.141413134093617,-0.0972921171319376,0.0257492827920405,5.54158660216429,-0.000238572673594301,-0.000745714539758775,-0.00011392961904996
1.11,0.713247251243345,1.4741699382106,2.27977589858421,-0.0994671831213822,-0.0355956039318632,0.0276799395311143,0.133159480605704,-0.772753664048337,2.04602320109166,-0.056724996083278,-0.0365303748426144,0.0129658761890506,5.52314938782179,-0.0020565490759901,-0.00202156069448273,-0.0018802650400278
1.12,0.729202363404564,1.47955882289487,2.27604887281853,-0.0659686554454144,-0.0116009817616655,0.0234269823681479,0.133814968586626,-0.774770759403278,2.03614377616585,-0.131429416620048,-0.0854241600321858,-0.0245768560143922,5.55705125469156,-0.00176487171160827,-0.00191521135785332,0.000117992833929642
1.13,0.734314874721471,1.47783423345009,2.29001789170167,-0.0933920149555701,-0.0279226860641485,0.011198503591057,0.157626365861973,-0.798344944951282,2.07216006144144,-0.117874713925406,-0.0779239747402587,0.0205689491306819,5.48898083735789,-0.000875981816324653,-0.00125718406184501,-0.00145992878272281
1.14,0.72219020645948,1.44341226300087,2.29182258057384,-0.107440090920889,-0.0445857414419729,0.0104531949353224,0.117766745178717,-0.817633879050656,1.99682070386015,-0.0976068995122042,-0.0705528219432262,-0.0290087246157,5.53057463414254,-0.000521643953874183,-0.000929687282558594,0.0009080533811006
1.15,0.716572966379296,1.43894144943086,2.2853943214232,-0.0937473068822195,-0.0358189881830997,-0.0029022609101577,0.123617882171418,-0.812953631086982,2.05571982008752,-0.0790890719571419,-0.0512662155071133,0.026542710692355,5.49577301891394,-0.00169914597936861,-0.00198785972162507,-0.00107792590476464
1.16,0.686853250553735,1.40181954519533,2.29359319377538,-0.115958602107908,-0.0577513281273765,-0.00989297055439687,0.0846669612408206,-0.878013154739787,1.99472786439383,-0.151006219700622,-0.118813474790304,-0.0401574279793802,5.5122266348439,0.00156699014558466,0.000407796067556363,0.00238620675124177
1.17,0.686793431931275,1.38759964149055,2.29070818833185,-0.134136735307935,-0.0749429919078957,-0.0261580837303302,0.0963367897175389,-0.857907937875097,2.03727105857411,-0.0111482392501632,-0.0139777542218585,0.0428568418204654,5.4693662832554,-0.00123800409321773,-0.0015492494895287,-0.000775564894056008
1.18,0.72744755308925,1.42492214558061,2.35655913987387,-0.0453079654467521,0.000300423161401189,0.0413187727040169,0.143860150954292,-0.797799703758257,2.04144095152674,-0.0956544343244909,-0.0654120246419904,0.00339183146565322,5.49874570453577,-0.00360774725642495,-0.00361325186837921,-0.00201972599592338
1.19,0.73655493754697,1.4316546762412,2.36652022027247,-0.087128330590666,-0.0276754580982996,0.0175004249073035,0.182135487715115,-0.879698384933399,2.04274873712286,-0.198551188295458,-0.151921069183194,-0.0292181183969219,5.43015456055349,0.00101474286152019,0.00031712042866958,0.000597034548120571
1.2,0.74130060594387,1.38886035328718,2.35463783719124,-0.138181904476031,-0.0723087143280924,-0.00482581051885058,0.149291434120345,-0.868055113208414,1.97204470023419,-0.020400399046418,-0.00587716861129001,0.0186239012886938,5.45972747559663,-0.00100276728029514,-0.00154685574926441,-0.000634676556842574
1.21,0.695327009625517,1.35190806907238,2.31363120753253,-0.0990885162952439,-0.0453124144266158,-0.0161750216493932,0.0768266005137126,-0.904986887542765,2.00376682382306,-0.127477087715032,-0.106863486176961,-0.0338835055772926,5.48181716958377,0.000192318795547072,-0.000893008013661316,0.00238927351257452
1.22,0.704435004005808,1.36663073811689,2.37763869833401,-0.113078413669373,-0.0570330797070413,-0.00899963467913316,0.148872901205688,-0.891524733629643,2.03533365381481,-0.05553846925002,-0.0554425650458593,0.0551384958651672,5.39894485419808,-0.0012432106088442,-0.00137414925030546,-0.00215766111156572
1.23,0.730934719478261,1.36683349087248,2.39665724595239,-0.0828906412828646,-0.035066893122855,0.0292667462524523,0.143434031040635,-0.882222402354372,1.96469598354516,-0.110896881244259,-0.0762400400111465,-0.0401095176171174,5.45913750825991,-0.00128482429821201,-0.00181380389873528,0.000558462226767857
1.24,0.71298118842488,1.34766930363312,2.36733143773763,-0.12149745229466,-0.0591632017146232,-0.0246627414967619,0.139615470648878,-0.946267273667633,2.00553473889806,-0.127703111493014,-0.103282118805728,0.00467337547506627,5.40994746910726,0.00120276210370095,-0.000198476881998146,0.00095911844253135
1.25,0.727459056024635,1.33457209073228,2.40319530133396,-0.115353990843144,-0.0572297034125549,0.00581634174130273,0.150441920095463,-0.900036636079039,1.98568512699023,-0.0147040062932809,-0.0321553341663073,0.0243222546060362,5.40584065776622,-0.00214696857784929,-0.00207214536083853,-0.0013978229988545
1.26,0.779484988729408,1.39270354531867,2.45866287911741,-0.0268195457401286,0.0139802016003784,0.0586760788572004,0.223607652819967,-0.842731202039405,2.02172364511031,-0.114424837636182,-0.0692108810968323,0.0103830549462013,5.42672918764119,-0.00408113291013739,-0.00431969829452969,-0.00313830510652621
1.27,0.742100016599775,1.34195616865894,2.42522504042984,-0.124833027655579,-0.0586492727434422,-0.00581987461555871,0.186798737023805,-1.01609944801504,1.99235020951056,-0.242151251047331,-0.204996527208715,-0.0749016059565484,5.35541964049514,0.00443967273705195,0.00242515702640515,0.00384263066240375
1.28,0.708301773391092,1.25165625899516,2.38824189655911,-0.197664780911514,-0.139379785068915,-0.063587033681515,0.0983448747404803,-0.98087558274272,1.91239719678104,0.078737908087314,0.0446574480524844,0.0545204932733008,5.43246875319577,4.61749611114255e-05,-0.00104678543366755,0.000425991358523708
1.29,0.655361115910994,1.23633240470804,2.3654271828885,-0.0906956359013361,-0.0550530785222836,-0.0282231846883923,0.042076441239224,-1.00013361807511,2.05689437156293,-0.108732568162411,-0.113800929740223,-0.0336588001194063,5.37132875561355,-0.000289455498833854,-0.00132414192017579,0.00293568827841964
1.3,0.677941515786547,1.26157457020837,2.48618135483436,-0.130402930574003,-0.0840670885604098,-0.0294237403767629,0.147437905655952,-1.0126412959712,1.93930792198199,-0.0939692584696873,-0.0926507917224568,0.0499301501986189,5.34518208582576,0.00104004302548429,0.000100035453103926,-0.000964945387818778
1.31,0.714542088671406,1.25463907919745,2.43142516696289,-0.12353525921291,-0.0731215772973423,0.00615983986676229,0.133747553253913,-0.987102275701459,1.93813097856691,-0.0358738981970664,-0.0398258804658908,-0.0311800439574662,5.3826956843173,-0.000850797794446526,-0.00168035949624928,0.00119708632273136
1.32,0.700035585069342,1.24655443176121,2.44060070540055,-0.109967490055329,-0.0628042360770862,-0.0351215593845232,0.133842070682286,-1.02826270414259,1.96385848057034,-0.122151042979584,-0.114361968033354,0.00690483672445526,5.3567265279341,0.000866888741100888,-0.00048876242756907,0.00134141227023737
1.33,0.767995516523648,1.29406873444074,2.52229420944867,-0.0840021781462893,-0.0323303957739,0.0395574948934878,0.2475087174555,-0.940023207751842,1.9870051910598,-0.000547720322587403,-0.0196535305780895,0.060820049557627,5.30375567591663,-0.00400267901065237,-0.00374350784785726,-0.0046866437812929
1.34,0.785812910692777,1.29450130741271,2.52108251658145,-0.0543423188730392,-0.0158880985923646,0.0434671999760038,0.237723345536632,-1.00501865139896,1.90998721914561,-0.215505177753633,-0.162791342541286,-0.0840621796337273,5.37190479238556,0.000287443923939186,-0.000685131676105599,0.00197658168907863
1.35,0.778188625641339,1.25955648637345,2.49083866379359,-0.148573462243407,-0.0798202048271445,-0.0227926683163909,0.248441292330763,-1.05198897460737,1.97772259401923,-0.0513470576055698,-0.0442864389770937,0.051890033339152,5.26894493172487,0.000669827732546184,-0.000794495355757692,-0.00137137573172
1.36,0.778942499796632,1.23052120929161,2.51942276606364,-0.0876783675566423,-0.0357317771663245,0.0282619321629881,0.190734455684992,-0.976148492690245,1.90333873535996,-0.0351336951017538,-0.0593961745673179,-0.0226922182048183,5.35279505474132,-0.0027393354408267,-0.00282638701191817,-0.000222945933522216
1.37,0.690346667551711,1.18171930436778,2.45648382446542,-0.14439876979962,-0.105225028493423,-0.0637101781551522,0.132750119158515,-1.15930472801642,1.90561245969733,-0.227595405418021,-0.188556644239069,-0.0506048348952168,5.33754195112859,0.005973310425636,0.00258805021122064,0.00541476540979959
1.38,0.767940271928681,1.20875842940165,2.54443944454957,-0.135052557516409,-0.0741015975341811,0.00679574110408739,0.22964923354756,-0.968258470376508,2.00764213962215,0.196834914313296,0.0950191656988668,0.141246577368058,5.21673778387731,-0.00635828633901868,-0.00551972312188586,-0.00695534966862137
1.39,0.76609968495455,1.23172069613201,2.57636711395203,0.00764290319668734,0.00626190520678047,0.0604033297346604,0.196687583108747,-1.0337720819108,1.84411516228615,-0.329303391179208,-0.241606571287793,-0.14711618124222,5.43044749003313,0.000600461474628975,-0.000614740912998244,0.00419749592296934
1.4,0.736446349154096,1.18423315943354,2.5020620082618,-0.225427674316739,-0.146226035965677,-0.0777843634339392,0.25033076549189,-1.20921881978013,2.05518722645105,-0.072144420515405,-0.0588409066572428,0.0736451861494841,5.16662515657877,0.0056182498351018,0.00156089180178502,0.000197904925993653
1.41,0.735490578074979,1.08755497748568,2.54929090859333,-0.146683620468497,-0.0885671094195155,-0.0109192725616169,0.0990973939369968,-1.03060831616111,1.86681970816982,0.127036577214854,-0.0107162571664918,-0.0281858795710709,5.31009057846897,-0.00361335101435629,-0.00266849298496828,0.00185236509116122
1.42,0.726921228884273,1.19154499876806,2.57356537516592,-0.0256211410457165,-0.0312332200169698,-0.00792251639298579,0.214557100057184,-1.06947684840153,1.95433749894072,-0.214175901632478,-0.138761632451795,0.0410782948366731,5.28005570072682,-0.000860524331795489,-0.00160893816906469,-0.00151039896880404
1.43,0.808601508698203,1.21388450892541,2.64115786338791,-0.124326200204628,-0.0458315311957276,0.0539389700956499,0.330424828690166,-1.12456739118691,1.94012690140987,-0.0698502005834351,-0.0699502990064104,0.00114940095591283,5.16170003615508,7.12353542148234e-05,-0.00169583235605154,-0.00258847053389149
1.44,0.814933748366926,1.14706187295541,2.58940424107726,-0.10026192744616,-0.0514617324058791,0.0064700268019381,0.255237853714539,-1.07960455641821,1.79489529762601,-0.0613768350328137,-0.0978974482090053,-0.0491967145510664,5.31997490656678,-0.00111345666975707,-0.00111718278051933,0.00203930607620448
1.45,0.80060020458765,1.17004156783225,2.57185012516398,-0.0882017617365786,-0.0543655525311764,-0.00400698968110291,0.283090809027771,-1.11382152890099,1.95855486234232,-0.103177679369935,-0.0673088525647204,0.0564590539361006,5.19823843581186,-0.000661019817348372,-0.001910172345622,-0.0024581198022893
1.46,0.790569919348821,1.12793923862629,2.62449915584623,-0.124507595050133,-0.0614591681793171,0.018246206746737,0.248946205061426,-1.15668044848204,1.82198506703494,-0.0991903473566385,-0.117995119559369,-0.0552520293321271,5.25022173693151,0.00125893699637331,-0.000487308727173818,0.00175327365598393
1.47,0.805375631435128,1.13193567270871,2.60140404254906,-0.100966186865202,-0.0607777319508572,-0.00453618313220088,0.285157976606556,-1.09764828118212,1.90460281631746,-0.00489341604371381,-0.0403969483590124,0.0531422684962384,5.20640150633326,-0.00255471466740598,-0.00245701754144464,-0.00227704345435553
1.48,0.766046269410137,1.09102420860069,2.60423528250046,-0.111337492408439,-0.0776839430511615,-0.00739839491737423,0.214297181221359,-1.2098361181376,1.81462988274585,-0.197591124339985,-0.16023934386497,-0.0727116641379166,5.25622299845421,0.00351757333955608,0.000779736559854529,0.00379124203993823
1.49,0.795310799572566,1.09826140099575,2.62232878438531,-0.14216463634453,-0.081709069287207,-0.0142029270999206,0.283367160741443,-1.13394698525346,1.91498028576762,0.083863955482675,0.00926606692863594,0.0952358844188115,5.15588036965686,-0.00266619985800326,-0.00308835808209629,-0.00382670823493931
1.5,0.810653829746054,1.10692007692801,2.66697685967262,-0.0363601552923555,-0.0206420892626771,0.0497033174397224,0.268308580152412,-1.11644352523567,1.8200782001699,-0.169987592094374,-0.150621845430071,-0.0729133866656705,5.26564279992691,-0.00121666851586239,-0.00182742632872887,0.00114840062574433
1.51,0.792339096758138,1.09189036497876,2.63329540586534,-0.154231170271574,-0.0988193736613788,-0.0338408087813994,0.315690516618162,-1.26997208430245,1.90656149290199,-0.126922465935545,-0.111086570910759,0.0207650748527213,5.12262709669296,0.0037235975032776,0.000850859924610371,0.000613950400881987
1.52,0.821206274989961,1.03475254040195,2.66503136307812,-0.130217169058865,-0.0750832605358919,0.00963685851610289,0.252048007319336,-1.12622769607153,1.79785955751216,0.083853488574535,-0.00682006100226229,0.0157990313099127,5.21071144728315,-0.00314810632342854,-0.00311648591511293,-0.00119372667577314
1.53,0.82676190458707,1.11149259437654,2.68325210164579,-0.0188480016195953,-0.00773769085453949,0.0383012304283021,0.326215219461376,-1.13490837372057,1.89051805601395,-0.172913192958589,-0.13717814752611,-0.000422649120101877,5.19644414958442,-0.00202125729382806,-0.00275031624234647,-0.00172194675858818
1.54,0.82223498021053,1.06641506723096,2.69622706545414,-0.152287557518102,-0.0901870976955504,-0.000957893373247979,0.354073660518957,-1.30988542605954,1.85541594104803,-0.153200612266261,-0.149256789455984,-0.0368277159654792,5.09841776187902,0.00442193824797984,0.00160220398564812,0.00178927014838563
1.55,0.855674695921633,1.01094278668519,2.68778970865557,-0.12858263831032,-0.0810190079511874,-0.0013478856763272,0.291065676992262,-1.13405477268165,1.78531965934776,0.12047076067114,0.0339735738984096,0.0511962438824562,5.1820520602332,-0.00412711262792637,-0.00385044554485632,-0.00234127060140103
1.56,0.785725039143454,1.02394504577917,2.65500971699142,-0.0596672519328164,-0.0482467776286062,-0.00256446028435373,0.24969435597477,-1.25682262949822,1.818552223253,-0.258744701130627,-0.213182663827207,-0.0707916622437596,5.20116312323258,0.0027955372224091,0.000405110378910661,0.00347683403900367
1.57,0.825643877716238,1.02639281689999,2.72228304121739,-0.166102550276562,-0.10286393989706,-0.00978547904317826,0.366623844790167,-1.26085401940027,1.86942012527276,0.0564433081376905,-0.00525203325344092,0.0914039921039379,5.05668544301936,-0.000449784985645063,-0.00171398181857706,-0.00386714268302171
1.58,0.882200229455729,1.02601769136351,2.75143394897842,-0.0271622102687176,-0.00528627895506241,0.0719855836421254,0.324780171273805,-1.11449132842348,1.77590443199021,-0.0601684422246444,-0.0817239753027838,-0.0538045670309487,5.21155578032247,-0.00435812047373319,-0.00451438995830144,-0.000783621375730561
1.59,0.817360005055424,1.02270577802002,2.70043252510145,-0.121664872840028,-0.0817880111261541,-0.0323650427948361,0.369050438821445,-1.37422240154311,1.86565258102786,-0.25930059255749,-0.22847375961463,-0.0269796807822942,5.0590679190134,0.00603851666228854,0.00275823945953419,0.00281431838776782
1.6,0.831508758447781,0.909343336646333,2.71240016312023,-0.209103659123308,-0.151938841711987,-0.035109837178834,0.274801855208991,-1.27347759000588,1.70377141566025,0.153739305669236,0.0479179467228528,0.0422394738075259,5.18673775787571,-0.000342000672931998,-0.00158656924315251,-0.000346247270759316
1.61,0.797303926278555,0.942844328310437,2.67778340511915,-0.0429623568413091,-0.0378605139963645,-0.000482095792934054,0.237776693401862,-1.22251510415042,1.91817002130791,-0.0994873172598342,-0.122355957705406,-0.0230974376290267,5.10728767842563,-0.00214295541006683,-0.00289441466743972,0.00112514062993438
1.62,0.820067828729989,0.988368548370483,2.82417933561998,-0.11376336055475,-0.0761069597387398,0.00322914245696204,0.396024382764866,-1.34865908366334,1.7770440909598,-0.147421539730476,-0.147671331809439,0.0341524824372851,5.03599991917171,0.00260784404837832,0.000582458383390907,-0.00177201153089537
1.63,0.848955365023357,0.899125772673293,2.71648445691691,-0.161465927227513,-0.113351905036408,-0.00318496718380389,0.307361619144078,-1.31226949219695,1.68346853095039,0.0238348482466416,-0.0385489205543989,-0.0503846133459065,5.1704973112445,0.000773937856945781,-0.000904067252699183,0.00252259513482658
1.64,0.832059825702014,0.922285286450439,2.71615624969866,-0.079991601700179,-0.0592110651813254,-0.022736797647231,0.309543464446176,-1.2695337341471,1.86052766194547,-0.0411143831462661,-0.0841021751099312,0.0514690893883255,5.06463396369061,-0.00172104439435874,-0.00256957811535609,-0.00136191394765151
1.65,0.806730885463464,0.901676580788189,2.78247455800615,-0.130570476813221,-0.10179595557973,-0.00640791836001536,0.330037555065156,-1.40061525553444,1.69644899638067,-0.160995814121992,-0.17139945582841,-0.0515584522867134,5.10341754461261,0.00437843803844144,0.0016267460986734,0.00273545260466667
1.66,0.868701598167202,0.896675981615831,2.75775009446281,-0.132990551961452,-0.093786585964571,-0.00506747962516415,0.363533628627613,-1.27729799389323,1.79558977208639,0.1213575924133,0.033134613434511,0.0738008837951894,5.04217958863554,-0.00327658982598593,-0.00373262134545131,-0.00324898625301538
1.67,0.842345981540643,0.894541378648336,2.78342765963817,-0.0527706000275119,-0.0444068938293692,0.0169401662518257,0.323118741799965,-1.33824738433048,1.7013108426678,-0.214258237829065,-0.204281856299018,-0.0811582940296328,5.13372071483107,0.00181799796238604,-0.000199787925368593,0.0030361459010357
1.68,0.865043027412873,0.900838058523938,2.78821254574725,-0.157999926076714,-0.111097076033881,-0.0190727250695637,0.441420293438475,-1.39989681474632,1.80930386327129,0.0128791505118914,-0.0384337007171973,0.0774713930148041,4.97628249385103,0.00101086082543648,-0.00074771306709186,-0.00277490812686737
1.69,0.908975127301912,0.861963685415656,2.82332471624267,-0.0694711450183555,-0.0437970574864124,0.0451844345104222,0.358997379355784,-1.26560838836087,1.67995322191966,-0.0151437546731989,-0.0675583423879259,-0.0470760741621639,5.10640131452128,-0.00276699499328333,-0.00339955876655682,0.000104270495273106
1.7,0.859581484021313,0.887294232347393,2.78591864166557,-0.0991945643125542,-0.0746214678758886,-0.0216201057225249,0.421315328409884,-1.43460489393719,1.76179195886949,-0.185489266975753,-0.184121684067415,-0.00100257355200252,5.01555104151584,0.00352068910999845,0.00105493250798219,0.00106139956006155
1.71,0.897524853020249,0.824224822073621,2.81970890135105,-0.158800944107576,-0.113524342493313,0.00169095371050794,0.404509075972305,-1.3785879112676,1.68108554796796,0.0775167969129451,-0.00535345862783312,0.0264762017410403,5.04215301738279,-0.00045123928923676,-0.00168756715344458,-0.0013431148595639
1.72,0.879004952825494,0.823726249598807,2.79215020641225,-0.0651767175993775,-0.0534824682422556,0.00481913652848742,0.348862150029186,-1.34563830665784,1.72816045934877,-0.0919705338966176,-0.121737802638363,-0.0340201854652361,5.06349362432257,-0.000635283089407922,-0.00197984660080425,0.00137363425575583
1.73,0.859248072658221,0.828633026146751,2.83212024335448,-0.134424140166311,-0.10246765304422,-0.0218194514291395,0.427834814906903,-1.47312593246057,1.7183112041487,-0.102194685562317,-0.133077605593291,0.0226827520433083,4.98842304760276,0.00334339415338578,0.000811981993984953,-5.49522584473782e-05
1.74,0.924208079575519,0.801434723919594,2.848357249368,-0.110376056323704,-0.0778676264127612,0.0279375447321219,0.41855367857469,-1.33553863897902,1.68372877151468,0.0860735462749982,-0.00379266207619035,0.0165110697297517,5.01626455970793,-0.00308467985683224,-0.00347381473233089,-0.0020995119218525
1.75,0.896986603318196,0.821323771241495,2.83798878383922,-0.0552997847909298,-0.0480435278641771,0.00891481604565515,0.419492078188014,-1.42305413081771,1.67963770233721,-0.19264296374525,-0.186313081833152,-0.0443923014033953,5.03927007139371,0.00176452921586516,-0.000324562540067395,0.0016720637904055
1.76,0.877497994667943,0.756364108926104,2.81911331369907,-0.189222234007554,-0.144985590253295,-0.0414088228930766,0.433539166573376,-1.53723406658689,1.68552729541212,-0.018194806026989,-0.0795999704601894,0.017071298836297,5.00295762002525,0.00436439855117609,0.00106943532206723,0.00114294704388972
1.77,0.943532143836298,0.759494550832401,2.87141419181708,-0.069473396498568,-0.0503159303491745,0.0339587528761588,0.414262368272861,-1.2864091316495,1.75497344982562,0.134724088925421,0.0122959054780281,0.0486704242466231,4.95779411486651,-0.00624826270243518,-0.00569738450671192,-0.003876342979977
1.78,0.879603275713845,0.789550627423223,2.88800126190327,-0.0558821565499558,-0.0651782514701139,0.0030433226052031,0.443671429908064,-1.5385550292099,1.60016784431703,-0.337229374679501,-0.290280513513804,-0.0993201258626615,5.02830023370596,0.00617835979962153,0.00280719398989848,0.00456108539832314
1.79,0.92792079172227,0.717697928222783,2.8384718846744,-0.217268249938038,-0.164078238979743,-0.037136305917819,0.481882698796313,-1.51802186265892,1.70075734344699,0.179675909629701,0.0710842016616577,0.101933647026692,4.96147268722569,0.000627809618331624,-0.00169289389679992,-0.00307399628729608
1.8,0.91613390813538,0.686340059318067,2.86162618172636,-0.0358655828916388,-0.0360306425317666,0.0263941824410167,0.345251726779819,-1.36193671172483,1.70408212125503,-0.0553499172621811,-0.130572643981371,-0.0789159586749796,5.01040971535146,-0.00253753435166855,-0.00311993114268245,0.00247511097535642
1.81,0.8786897340307,0.753057525654413,2.91818715903615,-0.12114721113618,-0.109189229927796,-0.0373021858602371,0.514829559664068,-1.59319968204827,1.67616154656599,-0.178036599283361,-0.178873465098442,0.0469955013552788,4.89642394650562,0.00528141465755484,0.00221087417431881,-0.000465468261443997
1.82,0.961870954701534,0.665520474752558,2.89200934136548,-0.15784829237571,-0.113586056711173,0.0222130362412388,0.444996876049354,-1.44755872140125,1.57356455836175,0.155914024351142,0.0335499143732414,-0.00413273104051914,5.00012270961721,-0.00185900468257451,-0.00296978111221307,-0.000863957419799141
1.83,0.947643970556943,0.728372504607445,2.89088840418468,-0.010623693523201,-0.0180764285061816,0.0203571932163482,0.470771227980904,-1.41451887382805,1.70021865846467,-0.124489880084051,-0.153629404414032,-0.0020910224802784,4.96979641516969,-0.00187485191277638,-0.00280245593423075,-0.000856909047597908
1.84,0.930661285176112,0.702127522252039,2.93161889998047,-0.149484769952465,-0.120469303244841,-0.00795148858602759,0.560989692005121,-1.65414549017352,1.65154137423254,-0.148089300686765,-0.170543443512908,-0.0243434246278984,4.87548969050676,0.00626953498218717,0.00274321729323581,0.00153219467249076
1.85,0.987985267611628,0.610664931593785,2.90572415843937,-0.14639978571875,-0.116694283834868,-0.00831946802680416,0.445702949319814,-1.44153494636718,1.56277610442673,0.192052577136372,0.0559547949667338,0.0370409742789221,4.97959860753904,-0.00313168157720957,-0.00368661212074196,-0.00136521254761136
1.86,0.929756777418887,0.676094516728077,2.89708826442299,-0.0198794480593076,-0.0353743204406345,0.012984896168373,0.456712164050554,-1.49345562655627,1.65072481086046,-0.195554029750827,-0.201737759431359,-0.0329175722209386,4.96420930292548,0.000840493977958451,-0.00107262769056113,0.000928700032591061
1.87,0.942389264483147,0.653099484228797,2.94632611527447,-0.171896404097159,-0.135749519007078,-0.015449815102989,0.574277984094341,-1.66102320366606,1.64212868624666,-0.0334464812283272,-0.0968728271510522,0.0190181760317211,4.85621698994128,0.0045262310691484,0.00145756453197627,-0.000174125121689547
1.88,0.967831498128797,0.546883499443529,2.90354617861304,-0.130768003996911,-0.115466998540705,-0.0184302730141386,0.407883215053258,-1.48996352236537,1.53131046001292,0.100395061102506,-0.0209609300426787,-0.0230586416910666,4.99092427547656,-0.00114647085329209,-0.00224389181096799,0.00194275590023431
1.89,0.926981770276624,0.63359430200987,2.92038854109261,-0.0563328459749403,-0.0661096971007145,-0.0112882502533437,0.489873978251692,-1.54239758857644,1.65402247112105,-0.112410906755544,-0.147413249562601,0.0388961881134419,4.88963842606052,0.000693608846458101,-0.00109493382531796,-0.0013288084119198
1.9,0.993452223932699,0.636045182715428,3.00151871768979,-0.111025484550877,-0.0862287529410591,0.0421190804869665,0.601771421067457,-1.59220392466582,1.56957632033659,-0.0100386220929008,-0.0795472163758189,-0.00501496477027732,4.85374521430357,0.000759996256633044,-0.000907407425399137,-0.0017672094458567
1.91,0.99042583315857,0.551590761546739,2.91718177860205,-0.114536800460231,-0.104344204159278,-0.019027258217441,0.500637863168586,-1.59994506724675,1.49172912452359,-0.0462136452513318,-0.107522540538137,-0.0512582062614576,4.97343391656751,0.0023348681987866,-0.000148911539800939,0.00330613419755507
1.92,0.947177226473613,0.534781343223984,2.89664330392228,-0.137307934563101,-0.12644758355581,-0.0478668310418644,0.492072524591028,-1.62727643647066,1.60630767231987,0.00859736949599532,-0.0841258809306973,0.0490694283600833,4.89378150069181,0.00218775430445044,-0.000225358775595721,-7.89984895702491e-05
1.93,1.00688657490737,0.576486453068951,3.00872437357413,-0.0614235260977315,-0.0604274432639454,0.0478724844345044,0.556557680987762,-1.49901314290319,1.58576469292592,0.0531810226373296,-0.0437719323574094,0.02318532664827,4.84847923355263,-0.00326410483800794,-0.00373800406030388,-0.00336149124367242
