time,x,y,z,roll,pitch,yaw,xdot,ydot,zdot,p,q,r,thrust,roll angle,pitch angle,yaw angle
0,3.01841953230695,2.01841953230695,0.0184195323069548,0.0184195323069548,0.0184195323069548,0.0184195323069548,0.0184195323069548,0.0184195323069548,0.0184195323069548,0.0184195323069548,0.0184195323069548,0.0184195323069548,8.95097014134856,-0.00530850846233547,0.00452043117997587,-0.00177736740078054
0.01,1.8193717654818,1.2193717654818,0.0193717654817975,0.0188475473606705,0.0186618506719804,0.0181464062831193,-0.0597359136429651,0.0962753493306102,4.09654088665256,-0.206402759887397,0.18563708703943,-0.0279648456266328,5.82787654116239,-3.84705000852467e-06,-0.000509654993758416,0.000444365839959813
0.02,1.97425350080844,1.37132448740291,1.66606202977736,-0.082338668295007,0.0768656146563158,-0.0104908430023159,-0.0219908054446669,0.0260218074350895,0.974954364643667,0.00031470446037725,-0.0152869071713272,0.0105739362824377,7.1351506060237,0.000239615377816823,0.00156013722438497,-2.42446000790531e-06
0.03,1.99445475887905,1.34883268000684,0.428512057569481,0.00550867728411104,0.00162750771437875,0.0108517653836774,-0.180737352769579,-0.179544095936066,2.32387770735595,0.0132203352466415,0.0677154889935053,0.0052268309712106,6.96074318967645,-0.00323663319258845,0.00222938481692589,-0.000774236004972523
0.04,1.90697411572482,1.2422611257278,0.986375199478464,-0.00906180206051764,0.0153006743843613,-0.0126584204160954,-0.0420102043821089,-0.0159708619744968,2.13686302604792,-0.144734993850811,0.077696379735894,-0.0277938840834472,6.72087567747027,0.000704091941996569,0.00204470554785539,0.00190753074773871
0.05,2.01671554271094,1.36216704556376,0.94382317983467,-0.027373938621535,0.0652332239350488,0.0222108907498561,0.00709809563477054,0.0308521832264667,1.95385578481768,0.0523937454305055,0.10933588277617,0.0671147370617509,6.87030726110753,-0.00379921120803507,-0.00111154362674788,-0.0042258268482975
0.06,1.99680820546608,1.34160675271573,0.855826348434796,0.0208752894993592,0.0456732428667421,0.0257950735890814,-0.150478262278333,-0.064365118382036,2.1025081753195,-0.158479414099796,-0.0376240872445621,-0.0891955923743289,6.8262212540606,-0.000426392098119962,0.00293275905366462,0.0029882292621517
0.07,1.97255239987386,1.34301748027414,0.973666556318997,-0.0304088266009941,0.0220281767894697,0.00068581846834119,-0.0623285536716736,0.0847122517806789,2.10245507080731,0.00635749621924959,0.147741520959218,0.0911409846130733,6.7501480005075,-0.00294525210281914,-0.000340332055680201,-0.0043521449283577
0.08,1.97233552087223,1.36787099395141,0.946730338162468,0.0052503227634792,0.0653560765571175,0.0387105257827555,-0.0673600957935125,-0.0573423460109738,2.01843122838252,-0.123699767419652,-0.0043694865886952,-0.0888733870962304,6.81803675203134,-0.000776819470901356,0.00133996749506578,0.00236734209095032
0.09,1.98629601109678,1.32623016975858,0.938730597554674,-0.0353503963742401,0.018633235012201,-0.0184723462343259,-0.136862686031315,0.0206712397055722,2.11927858039637,-0.0236042508603892,0.0724449667774778,0.0630121245931881,6.74339177095475,-0.00173380567376762,0.00141927321360578,-0.00211730924046587
0.1,1.9069478398672,1.30796357294198,0.951690056029899,-0.0411005256359927,0.00467840995652494,-0.00232146007608848,-0.127210479015341,-0.122710663920983,2.02067646672449,-0.100384617867628,0.0365222562168907,-0.068682893127549,6.80931629791321,0.00126637139839505,0.00276336200632513,0.00336112276531921
0.11,1.93173923655496,1.26996193674489,0.934717168787723,-0.0560878666616074,0.00448487511668023,-0.03865842193797,-0.0792428706820903,-0.11716557163871,2.11844455842698,0.0340241854075567,0.103553414065523,0.0593866458884205,6.73981710006707,-0.00140420539512532,0.00131547082627457,-0.000983285554060364
0.12,1.99017655809885,1.31132166719161,1.02150945871753,0.0331702133458158,0.0687092253235989,0.0460463741307195,-0.0217745744477496,-0.0836626742740961,2.10187900867666,-0.0459581076131863,0.0780396285954144,-0.00174913717176294,6.71561972793233,-0.00406870059602307,-0.000965679351725288,-0.00210258820336698
0.13,1.96924136608704,1.28017963645205,0.993614733975904,-0.0344362992814538,0.0240767292054807,-0.0149715325049071,-0.195823426276891,0.00463973866327688,2.06797384856558,-0.182512495715751,-0.0404363907116771,-0.055541721836473,6.73337141830608,0.00225106543073178,0.00349560724000101,0.00333548602360715
0.14,1.92733365686989,1.34643183048846,1.01715531209848,-0.0660630495084823,-0.00132671454859571,-0.00837852810805714,-0.0844885543466265,-0.0674916559605279,2.1176970800945,0.0918118244542604,0.153292727698465,0.079044320919491,6.68188851850101,-0.00305695191948179,0.000131719295230742,-0.00334351958079793
0.15,1.94995817197373,1.29393160925748,1.03119928604771,0.0251996777688187,0.0584498014615304,0.0219919394643772,-0.0721915417695485,-0.154872068375473,2.07275397167224,-0.140410037873173,0.00881189632378578,-0.0774383746621678,6.71815421929893,-0.00113040994989528,0.000999470935586293,0.00261385427814516
0.16,1.96154644605636,1.26460240058571,1.02922863582045,-0.0634952707394438,0.00700494298608293,-0.0329914988425852,-0.168803234770442,-0.00125445264902152,2.12993306805658,-0.0569435164534123,0.0475282360393212,0.0524521130979538,6.65224192630389,0.000289129750784962,0.00211664668885957,-0.000924432860928394
0.17,1.89493021470897,1.30170128871883,1.04170339993349,-0.05500751050121,-0.000373925089044685,-0.00330507490914701,-0.127500322660393,-0.183272680356884,2.06084021976023,-0.0193896206271967,0.0683760160776552,-0.0415706309304824,6.69659833650634,-0.00027411694330309,0.00191206233751373,0.00212282027786308
0.18,1.91592971549209,1.2302923174087,1.02965627424383,-0.0371709358980664,0.00966187794218291,-0.0404184747250094,-0.110676732676543,-0.17682968813088,2.12310022449251,-0.0397444812163701,0.0638258432095291,0.0244054411553828,6.65563288541055,-0.000527002639929328,0.0016302667723058,0.000751100657750327
0.19,1.96949015831582,1.28004483785033,1.10742975224687,-0.00352934691280044,0.0508742730747954,0.0283355121552433,-0.0582253220284056,-0.0789387497449198,2.1343644493932,-0.0159932400005824,0.0885235799123873,0.0312837112283255,6.60370833789942,-0.0034816248342935,-0.000784433121776187,-0.00282728072130398
0.2,1.96356080112324,1.29270844582122,1.10470066130266,-0.0132628346808333,0.0412381672581736,0.0097150555489047,-0.15271889164712,-0.0649546580974851,2.0837354265307,-0.15271441954828,-0.0207365861483019,-0.0610902820127626,6.63845255793256,0.000264362369739714,0.00207791807875225,0.00242223762630382
0.21,1.91022612316661,1.28487455971306,1.08631597105726,-0.0824696034162929,-0.0165947237612047,-0.0377110481528883,-0.169145784973804,-0.103035251584745,2.12181914750151,-0.0133500973356399,0.0809963966772916,0.038202125100262,6.61033992959149,0.000293379540406294,0.00200036746859448,-2.30898811618214e-05
0.22,1.90550765091834,1.27113114516522,1.1142733210807,-0.02753515416409,0.0256185044607118,0.00142791513167993,-0.0879020155316088,-0.210414788813232,2.12065119109658,-0.0117423730859244,0.0764291203329349,-0.0128096486509612,6.58795296801566,-0.00196629981787444,0.000444336593006047,0.000532816064526247
0.23,1.97284555265641,1.26013916715048,1.15593169729089,0.00435699204537352,0.0553379617174518,0.0100619596544824,-0.0934607978212593,-0.0826613327397228,2.131852280797,-0.0770926775143913,0.0427293656743359,0.0247434103236492,6.57030253312567,-0.00254796382189888,-9.80537041253858e-05,-0.00165752729769563
0.24,1.94649208505444,1.28932351278405,1.155919218866,-0.0396489673686641,0.0241174890444105,0.00803979258006544,-0.168460827730096,-0.0689301223652469,2.11842905789535,-0.116536811342469,0.00685123139672347,-0.0363071265160579,6.55993124420563,0.000344791508723718,0.00194227777224863,0.00133062904296912
0.25,1.9288779247272,1.30909705575826,1.17596629338909,-0.0449814010348715,0.0208978864563928,-0.00379864431084047,-0.111025398259423,-0.112516941961256,2.13210374265102,0.00964862029762013,0.096348671085026,0.0360091139505403,6.5321938247096,-0.00247028108659195,-4.22577682365532e-05,-0.00153098973904846
0.26,1.94852773578947,1.28631201114064,1.19149667049311,0.00305299931135123,0.0544806128332204,0.0204825706748038,-0.113058226084974,-0.126635710856934,2.119068012464,-0.107788712026648,0.0174350230776788,-0.0265544036118018,6.54626640208941,-0.00176014759381385,0.000308447091863995,0.000278064595626515
0.27,1.95500545699283,1.28784762625899,1.20602344735559,-0.037799723229067,0.0308012982251753,0.00320301719300887,-0.150147479309889,-0.0568742577046678,2.15653441804653,-0.0730492875277541,0.0371839668282601,0.0173876027599646,6.49138764483205,-0.00114375719027638,0.000819760165453748,-0.000984492844600039
0.28,1.93029039073498,1.30854412483663,1.2275138736472,-0.031193002421297,0.0317306431723053,0.014470848537011,-0.133719222876428,-0.119699994132281,2.10996018105972,-0.0547132901409661,0.0505858143912939,-0.0150803534179587,6.51081328251567,-0.00169722947754104,0.000373619299546854,2.02782199747428e-05
0.29,1.90089316622766,1.24553025194984,1.18888084593989,-0.0570929795462956,0.00457502048389965,-0.0316174793918835,-0.193836822394229,-0.171921093432692,2.1153537396602,-0.104658359726689,0.00693663913100221,-0.0214207011770412,6.5195583260692,0.00125933133248144,0.00234933389862096,0.00250593849013967
0.3,1.9157320229184,1.26392134875822,1.23607644144958,-0.044936202126672,0.0193620139750896,-0.00030119808659464,-0.110863763233067,-0.154175079436372,2.17179257173536,0.0419221414850738,0.110833800504879,0.0586744563758545,6.44658135741157,-0.00329205909004397,-0.000653497589649116,-0.00276711765594833
0.31,1.96123516246446,1.28194688674017,1.28417252547593,0.0284227245564733,0.0746494301024263,0.0427662534073555,-0.103104480700986,-0.117922408048148,2.12476096159908,-0.133149398018521,0.00740017944133813,-0.0413530570735926,6.49099614339293,-0.00266885343743063,-0.000681338109288816,-7.08342234425707e-05
0.32,1.9533882878956,1.28630243970078,1.27145663335816,-0.050604259068931,0.0278705203631453,-0.00409411030998814,-0.189020533950989,-0.0507514485841423,2.18643375845363,-0.113115770476224,0.000293088027234281,0.00931533760569959,6.40690047456574,6.03866500178133e-05,0.00150754551281739,-0.000256524430608231
0.33,1.85138024049243,1.25069019675588,1.2517512132868,-0.102192125533464,-0.0345409906417998,-0.0398203452082667,-0.234924541365648,-0.235805024764307,2.05720982123191,-0.0523454612970128,0.0348705161694985,-0.0438073665260657,6.51227011443305,0.00227355766099745,0.00286665942900746,0.00396473409406641
0.34,1.88448522963439,1.22336975460714,1.25377745523057,-0.0373793679764706,0.0185896632571576,-0.0214282837355453,-0.10113314445214,-0.247386395961691,2.23195023788089,0.0714048943788497,0.121926687322208,0.0793792486798678,6.37312473536406,-0.00406860514953956,-0.00115328599341341,-0.00274577660357177
0.35,1.93377467136137,1.21094747755218,1.33100959828606,0.0115412769066051,0.0520016541974072,0.0234418379347866,-0.158089080140316,-0.171699590662533,2.08653130513978,-0.189197185114956,-0.0334411463297184,-0.0636220371100677,6.46468702419304,-0.000284561666181718,0.0010225130294957,0.00189413448419023
0.36,1.92189038821748,1.25606076232526,1.29884701133275,-0.0819275392854199,0.00371077061057901,-0.0189044904382551,-0.179815395792993,-0.104210772663964,2.20726822697676,-0.0248739888696413,0.0625554858901528,0.0448214431341364,6.35266063554137,-0.000556527642919865,0.000811803791094808,-0.00123276085277805
0.37,1.8924918502612,1.26519131435218,1.34464873653114,-0.0326574116157392,0.0266877717707706,0.00843078762449237,-0.15758843147175,-0.226706958706577,2.10147054938367,-0.0494735013174422,0.0383433700423175,-0.0344633659991913,6.40980756062655,-0.00171909463807619,0.000287319121468672,0.00122462029286632
0.38,1.91439787210669,1.22422152088134,1.32777685934791,-0.0329665261319579,0.0274337829958188,-0.0143400394883393,-0.165134380731675,-0.170494531720692,2.17291304784146,-0.0879200804445582,0.0272700113526246,0.0256899176098285,6.36718814207832,-0.00101276134594786,0.000514400890276663,-0.000547140705525032
0.39,1.94268086183175,1.28066884552965,1.39774925501085,-0.0183012711125576,0.0531238577072457,0.0401954683612473,-0.117569963745154,-0.121305185266487,2.17184516746861,-0.0352764969539615,0.0602382091208886,0.0136411259083164,6.33068212721541,-0.00347507571939806,-0.00145521279146516,-0.00254970752567158
0.4,1.94163947076212,1.28034320098375,1.39592047080758,-0.0116869379783859,0.0522133870971763,0.0197178341502355,-0.167196039299697,-0.136371390727501,2.13898664664735,-0.147829894839796,-0.0273471218995789,-0.0411559075134275,6.35897974897375,-0.000994202349332281,0.000643373358105931,0.00100731903431147
0.41,1.90929918773079,1.26331640411903,1.38786980736895,-0.0687509785952881,0.00646865952412442,-0.0112625360127456,-0.19269851407572,-0.149924248730491,2.17157996141786,-0.0572110713526606,0.0460953236156352,0.0248963502713747,6.30899770996809,-0.000533576448274418,0.00075924546276218,-0.000653587680264769
0.42,1.87437376606923,1.23345380377315,1.39014101613441,-0.0556275378449562,0.0133031723561673,-0.0071811393643133,-0.192346742066584,-0.240795764817991,2.11890024554685,-0.057712473445316,0.0301367047075429,-0.0290767769568091,6.34291545147531,-0.000608927447949487,0.000667535283084469,0.0017092353006841
0.43,1.89558069910014,1.21436381999476,1.39684934696599,-0.0398292253594676,0.02338809814285,-0.0130513911398338,-0.17265294945737,-0.210595306545184,2.17842880251937,-0.0470530670094967,0.0412329772590674,0.0346123571347749,6.29774965123933,-0.00183524716143563,-1.11061785262328e-05,-0.00102871752518377
0.44,1.90505014777628,1.22880241903532,1.4373339120729,-0.031669504323602,0.031811961234165,0.0161267239539707,-0.175643265797917,-0.19305767359546,2.14855773864582,-0.0945017341152044,0.0175822415299046,-0.0199128046288341,6.29739285696544,-0.00124224350151024,0.000146934200361476,0.000172293256245701
0.45,1.88709712166844,1.22008198984738,1.42467502911588,-0.0646644346654496,0.00952031000835247,-0.0187057347580077,-0.207018738086044,-0.213500127113583,2.14983706256224,-0.0816768247987722,0.0137739361090455,-0.00568920708441301,6.28624255255616,8.12775077857388e-05,0.00107453545688039,0.00114719767557393
0.46,1.87923512919923,1.21716291194867,1.44288719842946,-0.0558299217025283,0.0120909479235018,-0.00829103061373705,-0.185815818467699,-0.237326714653642,2.16018534987304,-0.0248864089010152,0.052810378518834,0.0186013736691108,6.26510097752356,-0.0017135674744025,-2.55341971848286e-05,-0.000494923127273812
0.47,1.90275436183545,1.22066954254014,1.47458718834042,-0.0189610583472757,0.0422005613245564,0.0147163698181416,-0.164541087681004,-0.211765366315077,2.16336472239934,-0.0864346789961033,0.0220381373370558,-0.00425572360712558,6.25940765635426,-0.00214159613707016,-0.000611484394098348,-0.000498883779632487
0.48,1.93269528588832,1.2528468452568,1.50977179009232,-0.0225124032154631,0.0519664412802553,0.0265074917450259,-0.152388247306808,-0.153082924874693,2.18833172263212,-0.0861679553011915,0.0173088739849567,0.013636646262419,6.21869832711206,-0.0024655766871807,-0.000901065072537384,-0.00190165221266519
0.49,1.84871038302519,1.19005666429071,1.45723876096731,-0.0988203514153185,-0.0259356704802463,-0.0411718785879177,-0.290355612126354,-0.2841571525224,2.09420434280023,-0.163363140997108,-0.0571046681770288,-0.0796630306816764,6.28668745143533,0.00415957808989723,0.00358258250697773,0.00572752890167161
0.5,1.82840654370765,1.17239506412336,1.46091826789822,-0.103262641877867,-0.0333062856046483,-0.0511577164857924,-0.196905338424598,-0.308962730371802,2.21483278134698,0.125077014817606,0.141782090642502,0.103683546460271,6.18680256869084,-0.00289833443632744,-0.000708228630758862,-0.00248708451424811
0.51,1.91132296804806,1.20264128479019,1.56029158705706,0.0542891015323758,0.089671715438209,0.0614523504712171,-0.123420836932853,-0.241376483407005,2.168819163744,-0.12839757448391,0.011409842519378,-0.0350873056838685,6.24992723849312,-0.00446270812764039,-0.00299148752256781,-0.00121558609194013
0.52,1.92398009150166,1.21223184317687,1.54362907517747,-0.0597460013025105,0.0304086301982354,-0.00641554975038042,-0.225384341947123,-0.162809779259138,2.23870859793274,-0.197197643676935,-0.0884706999679326,-0.0168934688529102,6.12204847067008,0.0018455300597177,0.00236169806199743,0.00110108205389793
0.53,1.86034463492991,1.23190991891286,1.57178210253206,-0.104004523136652,-0.0272665661372226,-0.0109196636575951,-0.212730207389467,-0.255334370068188,2.08673179102861,0.0438047112498401,0.104327430377916,0.018562651696586,6.20789468101898,-0.00159788830046315,-1.92970837471075e-05,-0.000365335872782552
0.54,1.88303899208043,1.20482648468002,1.53958668584921,0.00556940495321044,0.0636543548445834,0.0146615348413974,-0.158842902389559,-0.276487968036194,2.21467808387277,-0.0851141417232094,0.022903631872638,-0.00150915929440776,6.17091426270985,-0.0034547205874585,-0.00214275362641847,-0.000609813789919379
0.55,1.87526261800586,1.16286830861809,1.57179732246423,-0.0730059278873202,0.00502574572100624,-0.0207777207493254,-0.257349632324107,-0.258958003673112,2.15174119489281,-0.18266797914074,-0.0814205275786721,-0.0287544117632655,6.15081890205615,0.00265955374011355,0.00285877373795097,0.00234475337685877
0.56,1.83257612480614,1.17478756841474,1.56212126802888,-0.113438889883149,-0.038810322145933,-0.0296670277979302,-0.22999873155838,-0.306618913039285,2.14260045836703,0.0633787557589244,0.112786411783793,0.0332319579417881,6.15620748227864,-0.00138789003300152,-7.96196202512839e-05,-0.000171012422957361
0.57,1.87283670107257,1.17929260585312,1.59622542776463,0.0104518253019306,0.0654171059017564,0.0189448233655073,-0.163702910386309,-0.298468798033402,2.2047201581717,-0.0795529340200151,0.0196117996776782,0.00137572940837578,6.13545036478989,-0.00384091564613577,-0.00240001534232175,-0.000943221468093303
0.58,1.92211946420039,1.20253852480491,1.65418118862283,-0.0245487173981316,0.0512670921748739,0.026991712079313,-0.177844451916163,-0.201189939009739,2.19593385708895,-0.160001886313633,-0.0523232801912298,0.00391254862008725,6.0868317333902,-0.000929331172020641,0.000256684612620904,-0.00146041597669857
0.59,1.89280395512718,1.2262893517481,1.65227708404496,-0.0723323422746587,0.00773080791300555,0.0154680893311558,-0.199130451695711,-0.241186996381956,2.14037347407928,-0.0549106763317083,0.0375814037117494,-0.0195005203085013,6.09888016486102,-0.00122730825129738,-0.00012789237511932,0.000185380220992977
0.6,1.85895698982102,1.18226639849217,1.62091649032009,-0.0545500620828249,0.0200838759773219,-0.0177068024183507,-0.22377475306473,-0.307373231629983,2.14653986831845,-0.0871629695816441,0.00377187445046098,-0.00454882645334306,6.11194832450353,-0.000817649678534803,-0.000179713552475542,0.00104963958374121
0.61,1.88175323625524,1.1844733124067,1.66072113201256,-0.0415307034777184,0.0329448446669403,0.0142878783136414,-0.187701567707722,-0.262201622862722,2.19094644742852,-0.0491942840230165,0.0232176383246675,0.0359233453430878,6.0597659301069,-0.00270564633371897,-0.00117867798735767,-0.00237380509423334
0.62,1.86770371753455,1.17500302342411,1.67013551097501,-0.0477607076844173,0.0189261213974503,0.00897190768832972,-0.229466113376912,-0.296396428970318,2.12981218466392,-0.144575217666896,-0.0340499591363082,-0.0547237670283116,6.09199150417602,0.000122069560468185,0.000727200801291087,0.00216309076219985
0.63,1.84140704087647,1.1524913009251,1.65008822263362,-0.095966607587932,-0.0132453560857143,-0.0355187835685661,-0.242901368167416,-0.320220006950754,2.16579799388323,-0.0383969832779149,0.0351056988886021,0.0338309107814103,6.05177096908854,-0.000138901854167516,0.000249946982793427,7.40693302757508e-05
0.64,1.84220385121584,1.14801752537885,1.68096839466201,-0.0485335972789487,0.0203931865715493,0.00527347918009206,-0.223870598780237,-0.335286342726207,2.15559128911215,-0.044277107020713,0.0182313008303619,-0.00571930324334187,6.0533117799064,-0.00221780482579129,-0.000869285335621317,2.25845377996812e-05
0.65,1.8453161999804,1.13412109136334,1.68749587783631,-0.0544653385128343,0.0106608696117776,-0.0144278455673898,-0.239862231092139,-0.331275107142017,2.1513608942926,-0.131282838045613,-0.0271567654592246,-0.00946128015889384,6.04710955810301,0.000173296009301031,0.000654831398837034,0.00112756403978558
0.66,1.84501836362765,1.1449494719624,1.7059878806711,-0.0823379163834949,-0.000171639584095138,-0.00777185163819652,-0.226031864475469,-0.325426166592712,2.16412845483672,-0.0285476549312279,0.0383414690960718,0.0204381618447746,6.00979289569629,-0.00124062372451517,-0.000506157295949129,-0.000602403830532262
0.67,1.86492362251395,1.16078739073174,1.73780691315587,-0.0266424490509068,0.0408748314817003,0.0184592272691923,-0.199150491515141,-0.313961489910551,2.15782979519853,-0.0741215504015462,0.00502787798543518,-0.00395233508111565,6.02337747788497,-0.00286912766854361,-0.00155591195645503,-0.000674935677073512
0.68,1.83896468080153,1.12643013710336,1.71865256825124,-0.0763488552241559,-0.00312459792451629,-0.0225860439930637,-0.263471311487056,-0.357551301205865,2.1467336413608,-0.166311682596336,-0.0610549882674252,-0.0313466102665726,6.00811408054284,0.00203977103481889,0.00181753228307183,0.0025516470491678
0.69,1.84324528662236,1.14271501067517,1.75483497042584,-0.087084688732328,-0.00373573005867473,-0.00578560292146388,-0.210048414051436,-0.329979516282097,2.17261726559806,0.0544665155443757,0.0926510779942438,0.0595723721595782,5.95909636918475,-0.00326773389762556,-0.00191171632669902,-0.00254296954990633
0.7,1.87849520095845,1.16363047541224,1.79143057002748,0.0172097756442028,0.0724309026779535,0.0446168401350787,-0.185054332358235,-0.312026868802461,2.15065543117096,-0.150058119741652,-0.0394277196490047,-0.03606564411141,6.02808769017149,-0.00318217018056875,-0.00216230618651358,-0.000365289866479542
0.71,1.86498356137396,1.14626076335867,1.77772483571819,-0.0856816311163364,0.0024972828434423,-0.0135430504032954,-0.238377920377514,-0.32873206172918,2.21593526877611,-0.161849697847691,-0.0646797131954645,-0.00573391841758387,5.90288613908513,0.00178236255632566,0.00172141248118375,0.000912136066330239
0.72,1.85299254232314,1.15565496075797,1.82886725347037,-0.0803731724659168,0.00185451963428185,0.0110158926602785,-0.208177197832951,-0.327583910045032,2.10668999101708,0.0481611122343136,0.0922931399606302,0.0301257894813453,5.95628636973299,-0.00370142628648719,-0.00229614476878647,-0.00194039426344747
0.73,1.84957794167435,1.13279714384256,1.78346553545203,-0.00996104504778543,0.0504448792415006,0.0102030953394021,-0.231797802870088,-0.364536420512759,2.15551515333376,-0.18712972211211,-0.0747763010465692,-0.0423698802680708,5.98813415077704,-0.000931628476626629,-0.000530979872314451,0.00154281519823251
0.74,1.88392107188285,1.16215226014416,1.85451107918955,-0.0668337866313434,0.0232833383624985,0.0194948583468195,-0.1769184711876,-0.294325388670453,2.22837926813783,-0.0425857527034805,0.02670920691659,0.0641490866283209,5.84720944564084,-0.00253447852304942,-0.0015224083010957,-0.00395157957853691
0.75,1.87558619774242,1.16387457368767,1.87579104972804,-0.0286794044058474,0.0421092696372379,0.0423977718235911,-0.20858580201763,-0.332067102769322,2.07901409994689,-0.126087994152207,-0.0314312412444955,-0.0698271512855085,5.9707876512081,-0.00197217439346798,-0.00117740923405714,0.00131682800158644
0.76,1.80732618810576,1.08860094545868,1.77855573667394,-0.116002024507755,-0.0322428840989697,-0.0630516227317728,-0.304004087006161,-0.4276098379738,2.1634506408324,-0.147701954526059,-0.0574027627474837,-0.00176064581591597,5.91017198332364,0.00337743035647475,0.0021266857756549,0.00306836114930518
0.77,1.81157011168825,1.09459224232711,1.85980560193979,-0.0899824808359953,-0.00839138973937464,-0.000217006386552625,-0.23872070379213,-0.383817374396678,2.17000266165765,0.0995199293644178,0.0961340166029707,0.0650610430236004,5.85848702142616,-0.00442577767621855,-0.00259376844136863,-0.00305798800909089
0.78,1.79610448319352,1.06355836035688,1.83876149372979,-0.0247395360750191,0.0177661953465096,-0.00850200169453375,-0.296069708830896,-0.446674873821497,2.08051931553625,-0.246891627939925,-0.115021080282799,-0.0939427924480199,5.97135645735617,0.0016164258188651,0.00123290378385844,0.00486098671008226
0.79,1.83364259153021,1.10166997817908,1.86973781848488,-0.111544776085476,-0.0138114302860506,-0.019130044711703,-0.209914332145075,-0.363421262688812,2.23994449542763,0.0408858700306874,0.0825363021125805,0.118833502408526,5.78406716880979,-0.0023124548246168,-0.00188043576881541,-0.00471628538693301
0.8,1.84685703651731,1.11610857199033,1.93039769404348,-0.00658402104360709,0.0534489812378666,0.0551163625776625,-0.229369794085517,-0.380381434252292,2.07239138189384,-0.12908827129563,-0.0525264297910203,-0.0940592383526913,5.93924779651878,-0.00283063806144278,-0.00177697630595999,0.00188174576113608
0.81,1.84487645025349,1.10994057601417,1.88692405931531,-0.073863532536018,0.00668702678662904,-0.026906194868865,-0.225724674879729,-0.388709147954637,2.22479053134658,-0.145224986152443,-0.0429820518106771,0.0493913146731459,5.79097119132686,0.000442034346103417,0.000332166143050578,-0.00106122589274432
0.82,1.84712092750206,1.11322607774437,1.96414734052668,-0.0753459465032804,0.0136990248269392,0.0356920134808073,-0.218765402107261,-0.377385261059196,2.08976798714227,-0.00818414415843795,0.0362732770842672,-0.00919922717928975,5.84525996839426,-0.00291862312043669,-0.00210754387954225,-0.00123969718667625
0.83,1.86819451790752,1.13098486771473,1.93978911961962,-0.00433783283027306,0.0624082918155063,0.0287532532684043,-0.192427582282487,-0.360816498080528,2.1684399927608,-0.131382162696459,-0.0422509254208673,0.000694703664927451,5.85747591443532,-0.00332844630643085,-0.00244114006778123,-0.00134310059538101
0.84,1.83204932675161,1.08988245879911,1.94519241330022,-0.0935237777643809,-0.00887076543169212,-0.00741210784170717,-0.2595903293441,-0.435937257780536,2.15665925700363,-0.182110980739822,-0.0885047523438102,-0.0345875881781331,5.78193388887133,0.00243145978502106,0.00179358516157046,0.00199319557526595
0.85,1.80985038099914,1.06841458360735,1.95753347391355,-0.111092315911305,-0.0253089692787798,-0.0168196337300228,-0.260688149764744,-0.424557216520265,2.09793988106017,0.0532881757873948,0.0796014871227907,0.0390202233142914,5.81262057899339,-0.00260994954253757,-0.00191948909953844,-0.00104626472395382
0.86,1.82600433305022,1.08272378163752,1.95946324363758,-0.00197421965993078,0.0569300469336037,0.0272063743130114,-0.236739902047417,-0.412853800611799,2.16033420016911,-0.139378861482536,-0.0534507663496393,-0.0133140190386703,5.83656801341085,-0.00301818058273328,-0.00244820235161718,-0.000604117164132411
0.87,1.84058351828018,1.09089365780582,2.00367373112062,-0.0738798838081395,0.0110456601672314,0.0111793166945771,-0.218731924246226,-0.419271410209043,2.18322166949342,-0.150348278147004,-0.0691274807261004,0.00160157450401505,5.72401689221737,0.000326168176814395,0.000426579762495991,-0.000594685360877153
0.88,1.79848658690955,1.04513988565103,1.98648601542451,-0.118709236572096,-0.035511533884958,-0.0207854279329604,-0.292157162503951,-0.474471752966512,2.04061398980318,-0.0485841822682472,0.0085335268332199,-0.0314814487160279,5.82181062234492,0.000431209811308222,1.29363514156452e-05,0.00247256392869598
0.89,1.78540391007806,1.03362625961768,1.95366566319325,-0.0675809636087428,0.00597329062390893,-0.0231239090427738,-0.2784607318483,-0.471140349238439,2.18095335531889,-0.0349570155494898,0.00184124086885509,0.0427948987928483,5.75061493723654,-0.00241748828712774,-0.00186597054103502,-0.000916161606801305
0.9,1.8018797161274,1.04253670318842,2.03184991089462,-0.0504964422638037,0.0144077505940159,0.0173922301389994,-0.25376060299446,-0.460862178034288,2.10220062277291,-0.141647130212555,-0.0630884062764127,-0.0195656829113518,5.76934705409975,-0.000697999837721271,-0.000449174300504869,0.000121790419222146
0.91,1.75413505448087,0.991284096062988,1.96538923901227,-0.142516236377896,-0.0595723465765154,-0.0552419465266857,-0.333117394097341,-0.552114252591917,2.08424241695629,-0.113251048431697,-0.04611002519463,-0.0376442054801251,5.78093481670214,0.00365506833985785,0.00171827342554234,0.00439865579563732
0.92,1.80198428471819,1.03468819555909,2.03951151018059,-0.0624418425181723,0.0150072907739662,0.00605004916006465,-0.227831644787878,-0.433907525984322,2.21590575133004,0.122005786317917,0.094426595952332,0.11117250868542,5.6638137345772,-0.00685955192656106,-0.00494381437761044,-0.00549736385581543
0.93,1.79143607453208,1.02220427697214,2.06346251806727,-0.00595090311586596,0.0273104628546032,0.0256186853262763,-0.281025860837363,-0.518787499499181,2.01946537004887,-0.341075708497879,-0.196531435187499,-0.133337224556191,5.83252382905095,0.00255972666395844,0.00181494924962993,0.00513914960754283
0.94,1.81581621261989,1.03939472436909,2.04074727074544,-0.154008664761306,-0.047842076619438,-0.032841101966218,-0.214934171983914,-0.472536192889499,2.23545024495131,0.0701484234646625,0.107259019969614,0.126170345573155,5.59959026991245,-0.00146443294335071,-0.00203292279317534,-0.00441458771443703
0.95,1.79554116240754,1.01170187846915,2.09752536875166,-0.0251686050427156,0.0397622155916201,0.0367363425156383,-0.293428161193466,-0.491077656864937,2.02699923902362,-0.120540642906188,-0.0820621573087665,-0.106527829782664,5.79249718668295,-0.00240527764102456,-0.00177822786181329,0.0033476287218456
0.96,1.79799180802652,1.03013621734483,2.06130826069425,-0.0785737029321215,-0.00754810338204183,-0.0317112020760605,-0.226334793763137,-0.502959794190624,2.20009534979901,-0.13547880285011,-0.0481005206200904,0.0803733077574307,5.62723787513581,0.000144146823222429,-4.36500166314082e-05,-0.00229357242439478
0.97,1.82186389924117,1.02830574252294,2.14469354499745,-0.0799562865424934,0.00864595765884847,0.0469716804065188,-0.233305207922991,-0.478014361245824,2.04998005941532,-0.0272388762951061,0.0144182154429649,-0.0361530488191741,5.69277447015793,-0.00254804490482923,-0.00245878417029562,-0.000487548218184644
0.98,1.79752918815061,1.01213503246355,2.07674664763049,-0.0569413551296352,0.0149745478028475,-0.0184456169006259,-0.260802803841991,-0.523134777259922,2.10480337575159,-0.15309570476618,-0.0913179724610739,-0.0138644667670959,5.70091138630897,-0.000294546178923293,-0.00032937905076005,0.0015501805764872
0.99,1.80213322935535,1.00888934824856,2.1278443800016,-0.0935721543673221,-0.014478978102128,0.00385361779851205,-0.235202928196386,-0.514427452096212,2.12850411885564,-0.0511166529620248,0.00212485009132495,0.0410173049915919,5.62067260482444,-0.00129355176780469,-0.00126968498498623,-0.00211185457354391
1,1.79449179602766,0.9941468083627,2.13554594845797,-0.065731954603064,0.00992438283723321,0.0136391918631257,-0.267937944167133,-0.52592967986322,2.05491732811637,-0.102668125854802,-0.0467404301177856,-0.0474866866642872,5.68825377234797,-0.00118459038676459,-0.00142876121162203,0.00162496690202278
1.01,1.79623112036178,1.00137103514208,2.13083699022349,-0.0749988173760803,0.0031528580589885,-0.00978793919112327,-0.237260023169302,-0.527166589368856,2.13131423270707,-0.088297959311658,-0.0403924391103053,0.0424323140167984,5.6196414753276,-0.00127079984652053,-0.00120030056102929,-0.00152570865689562
1.02,1.77011963804501,0.962402379137456,2.14320736427259,-0.100231358024543,-0.0259377942842478,-0.00440087207217903,-0.29117346109938,-0.57955582093132,2.04343025059626,-0.117642696287468,-0.0607045479325374,-0.0504795226668616,5.65778367714293,0.00104708622821078,0.000281817692015817,0.00260419963489883
1.03,1.75780684348443,0.949059335443469,2.12790570862851,-0.106008331129698,-0.0283142517415111,-0.034932184328238,-0.289587080940817,-0.57126678112411,2.10745802399264,-0.0193357574978835,0.00553324760809923,0.0429547707449383,5.6123191480214,-0.00123710614285116,-0.00147667129770865,-0.00037298375835054
1.04,1.80146577517448,0.9932773277794,2.20489208176237,-0.0255601268714112,0.0391840902107569,0.0435751950382931,-0.221704227475819,-0.505082670042591,2.10744673401311,-0.0774582549634279,-0.0315533539223662,0.013917371461706,5.62438462651422,-0.00395663085320786,-0.00349940076487142,-0.00265166912336048
1.05,1.78012447660651,0.969068284625831,2.17954430997992,-0.0880783399258203,-0.0142177189124317,-0.00726695018346049,-0.258124681977744,-0.612258066866311,2.07526707170659,-0.220394665048802,-0.142522132094518,-0.0667635659778706,5.59776119904222,0.00297227528790283,0.00175957783090513,0.00351925324223375
1.06,1.78416436776737,0.947584553034063,2.19653143300976,-0.129991660624906,-0.0448141280884734,-0.0240001274668764,-0.255600353642178,-0.56196613783331,2.07696593108938,0.0711802683445706,0.0785243874850817,0.077491075740549,5.57056897858865,-0.0026211520607575,-0.00256838603336367,-0.00252173631692993
1.07,1.74490854964083,0.922209476307188,2.17347028938873,-0.0469937191735164,0.010718528370046,0.00162003717933698,-0.321767205477014,-0.61294790011343,2.05006288758207,-0.182729640821393,-0.121740246786972,-0.0790807531470194,5.64705892996593,0.000194367047365343,-0.000539397381982555,0.00369452600442766
1.08,1.74537000168137,0.926508066139242,2.19881999246516,-0.128623584464017,-0.0479207130901298,-0.0412104139101291,-0.259759326762423,-0.624947832871245,2.11924513405164,-0.0522225411414394,-0.0206619829305217,0.0713969486465763,5.52129072578644,0.000583671781185161,-0.000140333669437405,-0.0014271736212652
1.09,1.75691410017351,0.910283132785949,2.22987947473633,-0.083260238163558,-0.0128890555197534,0.0138277219363257,-0.296376480843045,-0.597713343906406,2.02746874558818,-0.0389345951115335,-0.0175807682788481,-0.0426069327497572,5.59446210608769,-0.00194075396512015,-0.00200909847075588,0.00138301065253579
1.1,1.75280107933652,0.926956022692183,2.21699521832858,-0.0694741492261517,-0.00259849607300173,-0.0225770054210274,-0.262220091275976,-0.621284620290985,2.0880966988763,-0.133995063944907,-0.0798822382229933,0.025009168182627,5.55594376060201,-0.000262044232225789,-0.00083054760085264,-9.40832090815433e-05
1.11,1.78888758799247,0.940780939304148,2.27606025706826,-0.0838236206875448,-0.00471339945553927,0.0270546648616497,-0.216417988607672,-0.593008584418124,2.07206648171232,-0.0461133266198251,-0.0172736794456079,0.0133532239775521,5.51825324643681,-0.00204301519280929,-0.00206286771845823,-0.00188583411033523
1.12,1.80285477965255,0.946283992650661,2.28246679292954,-0.0490242053424458,0.0201643617324942,0.0233811433925323,-0.219422477282988,-0.590092921878411,2.04382153234913,-0.119212222136121,-0.0645970615762682,-0.0247517301787136,5.55982719602119,-0.00189198622526078,-0.00208085817665225,0.000109563328388662
1.13,1.80429163874508,0.94771442728983,2.28806860113465,-0.0759134198007703,0.00469466237547307,0.0107137676658588,-0.199071330602428,-0.613147031314773,2.08858042671676,-0.111072942545987,-0.0620774735938662,0.0203596221238683,5.49233978105909,-0.000888625487392171,-0.00133700236080142,-0.00144293931046343
1.14,1.78888223945407,0.914054123120306,2.29913161207425,-0.0918801606345837,-0.013978240100072,0.0100608509759881,-0.240280161940347,-0.632095496453083,2.01270164685175,-0.0865131751055403,-0.051279812596845,-0.0286870009031039,5.52911468882348,-0.00056993986666373,-0.00103196879334826,0.00089906648494723
1.15,1.78039491083534,0.911292573284391,2.28852567386805,-0.0766153225556495,-0.00360872446741026,-0.00295569473475197,-0.240377434339257,-0.623561686125021,2.06740946397655,-0.069053349406605,-0.033128160853405,0.0263137156640501,5.50053025271807,-0.00181769808981851,-0.0021664789626288,-0.0010769255443962
1.16,1.74587691087066,0.877263113894768,2.2916790873698,-0.0989306942852719,-0.0260363548169642,-0.0101920670357681,-0.281076252570762,-0.688908020245737,2.01233793859026,-0.144245509782155,-0.103450705082148,-0.0401798904771725,5.51791799462522,0.00152681212679985,0.000305659784626316,0.00239451343667666
1.17,1.74316936615059,0.863726629483773,2.29357368537033,-0.118682694810145,-0.0440815482863305,-0.0263587837221979,-0.273613497985782,-0.666932732771683,2.0556460986562,-0.000751569340940825,0.0040457372976987,0.04300955848004,5.47121044181239,-0.00130710173446638,-0.00169254811793129,-0.000779899756521688
1.18,1.77963404991991,0.903577301289265,2.35526549660166,-0.0279628016741616,0.0321427598418876,0.0413893924103761,-0.228350745950119,-0.60505778529896,2.05690221075129,-0.0871931178735559,-0.0486490823835311,0.00323214971819608,5.5002434087974,-0.00373171216081928,-0.00383653113376415,-0.00203237925655471
1.19,1.78501781824758,0.912941060593812,2.36073163219763,-0.0706955784288496,0.0038562096181876,0.0169738753086903,-0.191989488300504,-0.68510242258794,2.06014091650154,-0.192012447382804,-0.138496910984898,-0.0295285493195546,5.43637182892074,0.000976762220670868,0.000209575384436226,0.000623746213323546
1.2,1.78782395885124,0.869929208015188,2.36600670780275,-0.122621122696914,-0.0419599155150931,-0.00538144361834695,-0.22666473265068,-0.672946196606075,1.99316439230359,-0.0101855829364628,0.0118727941913178,0.0191780170488235,5.45492643288917,-0.00110781291992809,-0.00172998752193143,-0.000642539236413842
1.21,1.73852975036453,0.8349860086063,2.31976045608389,-0.0817685710866412,-0.0132260579312564,-0.0159325342103363,-0.306155514188922,-0.705842948613212,2.01373468001115,-0.120253604920078,-0.0920266807537234,-0.0341075568751342,5.48950479188571,2.9561318572298e-05,-0.00113388675705758,0.00238480324289362
1.22,1.74183241393115,0.854019395158703,2.36981517970103,-0.0971879376021175,-0.0258848271992288,-0.00933029908778518,-0.23523701668723,-0.693697536850346,2.05808189889454,-0.0503739844694113,-0.0430601956869633,0.0550164195503565,5.40369671387803,-0.00126373007047049,-0.00150499768465746,-0.00214402188428874
1.23,1.76622836345791,0.853723992076332,2.40042399819324,-0.067358968105867,-0.00504844322979599,0.029071967494707,-0.24197487945772,-0.682626797293029,1.98500654339104,-0.100631474293052,-0.0593759253122322,-0.0398695333624525,5.45748028778082,-0.00143640480000174,-0.002058694403226,0.000546370353149288
1.24,1.74503789868893,0.836917143735382,2.36770269551796,-0.104337725392355,-0.027003020034738,-0.0248755257414221,-0.251237557560441,-0.742554040636851,2.02040034015817,-0.122051087049061,-0.0912831384686777,0.00439018428894203,5.41888412516838,0.00106055382926339,-0.000419494518905519,0.000978578620008867
1.25,1.75556496522782,0.825811096259017,2.40634082230084,-0.0997595697013835,-0.0270827474445995,0.00548754668165998,-0.24107873979502,-0.698724308046407,2.01014451636549,-0.00912296772747516,-0.019099599119657,0.0247070372269756,5.40296414887121,-0.00220408998848768,-0.0022582367796987,-0.00140704339992294
1.26,1.80446689542459,0.88523493361728,2.46018512558942,-0.0111264311204221,0.0445830520707576,0.0587271914604476,-0.171215751968524,-0.637454708642307,2.03646063331383,-0.105656991883501,-0.0548002530168669,0.0101288553986714,5.42865738100425,-0.004238396490136,-0.00462393946892085,-0.00314595727053357
1.27,1.76310558208159,0.837276697606869,2.42322827966159,-0.107885549072838,-0.0273856400699588,-0.00644121079367976,-0.21180513232237,-0.807616016432007,2.01150640153569,-0.2372865380065,-0.195296784218603,-0.0750919825594115,5.3634260627027,0.00429524417541125,0.00223911259570668,0.00387657629250351
1.28,1.72611949853212,0.747981756335414,2.40441096534785,-0.18266116296361,-0.109702971581693,-0.0640341272375839,-0.302134984790741,-0.774677400492807,1.93699803155092,0.0846078571451987,0.0585863965923835,0.0552454375528952,5.42564041122081,-5.305708965809e-05,-0.00127497402079556,0.000412409661146056
1.29,1.66921996353167,0.734797942542441,2.36693144591317,-0.0745980347792456,-0.0239182211045242,-0.0274734320620828,-0.36924565994002,-0.787561253991608,2.06961778736489,-0.101889890479281,-0.10120431150053,-0.0340200449168232,5.381930956242,-0.00052093550046325,-0.0016701727401477,0.00292086358101819
1.3,1.68248783122048,0.767874217766982,2.46831416165762,-0.114381218118499,-0.053168184674047,-0.0297350964593745,-0.259214775513863,-0.803117358324867,1.96847189048956,-0.0919629274352939,-0.0850437754237606,0.0495930697833391,5.3552053960953,0.000965664320287645,-9.01296996017606e-05,-0.000935695705408355
1.31,1.72139379507164,0.756189134624243,2.43783664481988,-0.108965877662168,-0.0444242408085053,0.00586655809378385,-0.275680755520613,-0.776310628320179,1.96703604976796,-0.0280938524190995,-0.0260291455056927,-0.0305936725830161,5.37733007442844,-0.0010112228687477,-0.00197862609972371,0.00118140788848511
1.32,1.70238091510127,0.751205922309182,2.44053177765872,-0.0934865538081347,-0.0313029839050113,-0.0348847975856495,-0.281580252452048,-0.811722805751052,1.97957009046485,-0.1173472987759,-0.105146953205463,0.00653284402303541,5.36843441983927,0.000639486537371387,-0.000817484647244857,0.00134855332988338
1.33,1.76587193595713,0.801804634150105,2.51865542586796,-0.0684508855076562,-0.00274743228726196,0.0391632305804554,-0.166281877295395,-0.727320512459076,2.01878291727198,0.00107283020230842,-0.0115021549593521,0.0609469774677682,5.30103624929551,-0.00405566314714457,-0.00399477915078563,-0.00468114493068248
1.34,1.78190456045511,0.801743970596291,2.52667121132694,-0.0397815808850751,0.0132047331216061,0.0433771441377666,-0.178518859365904,-0.787348036538512,1.92810930364645,-0.207142028761307,-0.151665253483124,-0.0839978780624342,5.37613362555812,6.3511754905956e-05,-0.00102300481289316,0.00197144730750077
1.35,1.77119950870272,0.769262202788052,2.49666184278222,-0.132092620332155,-0.0490235369817185,-0.0234094897450999,-0.173436266856102,-0.831266503327102,2.0024496795547,-0.0490929375628682,-0.0369947518336618,0.0517896792716184,5.27008303723337,0.000492441665893942,-0.00109990593560909,-0.00133962300433004
1.36,1.7674562430648,0.74233026081833,2.5325392811402,-0.0728190135968927,-0.00687891350642372,0.0281196889414378,-0.231403910416077,-0.758549296634257,1.92528050528396,-0.0318680239993173,-0.0506139863239968,-0.0220563214948857,5.34965869953255,-0.00287294764347836,-0.00315076088595292,-0.000248065117633354
1.37,1.67447271488737,0.696312039139309,2.45361233731142,-0.129555965823667,-0.0755006531503424,-0.0635334885805337,-0.296467916965717,-0.935302140927052,1.92389181561709,-0.222105148505395,-0.180883821741045,-0.0511707342742721,5.35157014361224,0.0057218344473494,0.00228918611762732,0.00543345925770824
1.38,1.74826669122488,0.724984081025892,2.55006288584933,-0.119408816649143,-0.044691315046334,0.00618881688290485,-0.200771907668366,-0.748191070646251,2.04521113296641,0.197467931596582,0.103601506782037,0.141650769452656,5.20549636888563,-0.00646383523614819,-0.0059035407691715,-0.00694610504692138
1.39,1.74136172057791,0.750323736561099,2.57716154996823,0.0224770437730426,0.0355369269278305,0.0611437829354916,-0.233776279703627,-0.809477569178971,1.85626765787876,-0.323932001282498,-0.235840970105597,-0.147005219671072,5.44690917210951,0.000353511096862002,-0.000990818554335437,0.00415516607739384
1.4,1.70955477795672,0.705034621930725,2.49698384511224,-0.210488465241374,-0.117035481737417,-0.078878320552086,-0.189642257593966,-0.979012126042957,2.09148108284691,-0.0710275244119699,-0.0535615215097276,0.0727759973141268,5.16501826444589,0.00544951842472713,0.00129054649672063,0.000289354458254602
1.41,1.70374061936729,0.609926485355752,2.57556294797101,-0.132069344356946,-0.0603620111570994,-0.0112592002897186,-0.340475881872614,-0.805681922623978,1.89073564495253,0.130236790554031,-0.00116086132677749,-0.0262718490071394,5.29895675824497,-0.00383950669733462,-0.00311619550373562,0.00178289803027992
1.42,1.68831388855351,0.72044673103854,2.55994480864048,-0.0107547245075613,-0.00097417996324079,-0.00646224685386478,-0.228927650635913,-0.838839345570486,1.9698661463001,-0.21287791252101,-0.136352055642841,0.0395457496915941,5.30631207581308,-0.00107205306580803,-0.00201331591849083,-0.00150534780371161
1.43,1.76823774461107,0.741898231605565,2.63522635239752,-0.109793266213498,-0.0186211243514519,0.052447265822793,-0.111140802738693,-0.895039944363075,1.99043821224129,-0.0685400935020243,-0.0657378872574538,0.00124842328347295,5.1509470823562,-7.93885881248983e-05,-0.00200240287413751,-0.0025240080289213
1.44,1.77423222755548,0.673444462202116,2.61387174374107,-0.0859825088688098,-0.0233360842852122,0.0063250513269356,-0.188750207425582,-0.846572116450461,1.81036942440156,-0.0573540485010293,-0.0903850018549961,-0.0478514627298722,5.32133449836339,-0.00139029911374043,-0.0015787661269074,0.00198357965610983
1.45,1.75521592487914,0.700733255390404,2.57298313935864,-0.0730841831141437,-0.0247373885354273,-0.00353683068022093,-0.167515281875915,-0.879604605347033,1.986112471701,-0.10404165337701,-0.0661019824200612,0.0552616973238982,5.20552993030636,-0.00084964356779051,-0.00231251350482499,-0.00242299915333621
1.46,1.74008451271786,0.660077646453681,2.63194154245457,-0.110693142125593,-0.0347222478220361,0.0172987794485582,-0.199971021611375,-0.924162347472996,1.85487125734858,-0.0971425063705703,-0.11430595534489,-0.0545280654756716,5.24747035984498,0.00105615619919326,-0.000828173865405549,0.00176508085391004
1.47,1.75284773693154,0.664647230893487,2.61180420283318,-0.0866769260574239,-0.0326153283068847,-0.0044265559472691,-0.170489047879372,-0.8605912209833,1.93020781423667,-0.00295522909480797,-0.0348079833300222,0.0533840102085271,5.20933095971267,-0.0028032514016688,-0.00296193111423663,-0.00229147452315516
1.48,1.70740826545931,0.627954349475772,2.60799720187826,-0.0963406894686299,-0.0491487551830967,-0.00724714999374182,-0.242524975068007,-0.973019374007837,1.84466517164248,-0.198115246039652,-0.160881221060895,-0.0730419875984478,5.26154578225802,0.0032679492029103,0.000412455005339278,0.00380135192053571
1.49,1.73383504612171,0.635909820176109,2.6300693652757,-0.128993113527328,-0.0552143105725332,-0.0149871699667367,-0.17634291520797,-0.896640894983635,1.94883938296061,0.0836185270825186,0.0136534640981064,0.0954489078451963,5.15219394271819,-0.00282433502588186,-0.0035163272031094,-0.00379740983152701
1.5,1.74470738384548,0.646733253472183,2.67335804699172,-0.0220172068912943,0.00736537424959807,0.0501677054550733,-0.194129486128823,-0.876586053211507,1.8472635881819,-0.167255856409963,-0.148480848120408,-0.0723291287862519,5.27437481147308,-0.00152347507314725,-0.00236148175755666,0.00110271629307649
1.51,1.72187784274648,0.635172801250663,2.63466819171904,-0.139845226640913,-0.0710901589977082,-0.0342169717811623,-0.150150308200464,-1.02668062622333,1.94058275246726,-0.129550123630177,-0.113616802527512,0.0198038699792416,5.12488462893027,0.0035070542398896,0.000512323464916322,0.000677130200924206
1.52,1.74826193737839,0.578379496129941,2.6849685677325,-0.117291668828565,-0.0496663269149236,0.00880023561603399,-0.214075745196067,-0.886837152145325,1.83132905807824,0.0843481493114462,-0.00172214622284551,0.0171301972416258,5.20158768815377,-0.00335966341368292,-0.00361897642861898,-0.00121346791329884
1.53,1.74861595128933,0.658247453616871,2.6847039570914,-0.00471822555943177,0.0208128987367426,0.0392771891186356,-0.14622531836137,-0.88902159731518,1.91398960425097,-0.172278990117702,-0.138605378515036,-0.000870963441206775,5.2151478699556,-0.00230950906892001,-0.0033194156877714,-0.00174156242297945
1.54,1.73927221515261,0.616196894098259,2.69798503681339,-0.138218048950525,-0.0641880931450049,-0.00185842367086997,-0.117743841549793,-1.06348573316071,1.89940100810697,-0.155760986719099,-0.153435637016808,-0.0372395273516736,5.09342409907164,0.00418816726137501,0.00128945116146455,0.00185081048986592
1.55,1.77157965438049,0.560347444343958,2.7154743122268,-0.115996351784499,-0.0560351143043511,-0.0019942561110449,-0.18367341792005,-0.889033756351425,1.81389746707776,0.120139206959261,0.0394475319075278,0.0525013882923981,5.17360091311053,-0.00435669415398731,-0.00443166833331651,-0.00236827483229727
1.56,1.69521547288807,0.577446497940805,2.65585658840403,-0.0455837780540197,-0.019686978452692,-0.00145792110350024,-0.231541504195907,-1.0068929533606,1.84409323401607,-0.259302014835802,-0.218090270245757,-0.0713943872421242,5.22087750766672,0.00244996934820936,-0.000113291458107172,0.00345669909961872
1.57,1.73031370403398,0.582391563840629,2.7248781231886,-0.15301089809165,-0.0780015805063921,-0.0110123659346068,-0.112306968234895,-1.01285884173321,1.91877976204129,0.0513299478953448,-0.00799107703566165,0.0909900242937784,5.04638120124007,-0.000603396877867388,-0.00209940452989377,-0.00378870889090581
1.58,1.78598965576561,0.581092289235238,2.77325002740228,-0.0148981875690655,0.0199102356486197,0.0720301835985075,-0.158117570392986,-0.864908968994811,1.80281570361286,-0.0578391328870973,-0.0795725007036643,-0.0521552679063851,5.21489414181025,-0.00466146581149458,-0.00517143245929913,-0.00085658905076655
1.59,1.71400551896807,0.583447172142439,2.69878102902491,-0.107367816195267,-0.0541657552093048,-0.0318777079786485,-0.119217696083811,-1.11812485373313,1.89433573625022,-0.262603535342589,-0.237266579530899,-0.0285200893749612,5.07423714223527,0.00569905377857278,0.00234984366702608,0.00286338227546651
1.6,1.72565750455832,0.470497361871534,2.73429189032455,-0.196724744457211,-0.128983021345545,-0.0367029739993829,-0.209915532578927,-1.0256775138583,1.75222124514808,0.148247728299453,0.0490279671622645,0.0432851159222939,5.16418595921589,-0.00050491293322096,-0.00205423109904164,-0.000320134610863552
1.61,1.68838704862199,0.504241240508916,2.69113041169588,-0.0311905528739583,-0.0109771848596788,0.00067358442613881,-0.260927110770768,-0.965336842261062,1.94207990470967,-0.0978200377448734,-0.123868935558843,-0.0225638645818251,5.12359284891103,-0.00251390980811156,-0.0036141336494485,0.00105227148801412
1.62,1.69927348982521,0.559702501580954,2.81333585951504,-0.0995546240491727,-0.050107054593277,0.00317577166029584,-0.0951102192075451,-1.09222923374111,1.82319948027108,-0.154005563771353,-0.15937358748066,0.0326207956463649,5.04366812933404,0.00234516258817071,0.000209426957053784,-0.00169572694092436
1.63,1.73247012040858,0.465448025274237,2.74063611098499,-0.150175325975577,-0.0918006574980439,-0.00441214347355259,-0.185511759346869,-1.05884481412143,1.7262702286397,0.0212153539768241,-0.0368096626801928,-0.0487715616282299,5.15582906576283,0.000535567938318561,-0.00142767889569138,0.00250509496661909
1.64,1.7106820188484,0.490451281404515,2.72879654840077,-0.0677268434595462,-0.0318765906877897,-0.0218400392831595,-0.195150180710347,-1.00837581666492,1.89046921397072,-0.0423757546156143,-0.0886087828587645,0.0511001440146891,5.07686312259595,-0.00208299693918174,-0.00329740327169127,-0.00138193074388593
1.65,1.67591471780319,0.476659235593863,2.78197383444125,-0.116947454731528,-0.0774513064590876,-0.00659554363385526,-0.167420587900527,-1.14251665341521,1.74217935888088,-0.167796019715003,-0.183870342105079,-0.0519763901762647,5.10547664899964,0.00409996217955818,0.00129025662803918,0.00276409129408202
1.66,1.73997534498426,0.469037701641303,2.7771158315537,-0.1223792242712,-0.0722859715934092,-0.00586113453064763,-0.139867329283793,-1.01913189083884,1.83789743103736,0.117881625312522,0.0355817261001718,0.0744098488141512,5.03306763653563,-0.0034895230353917,-0.00438886384361618,-0.00323649315474922
1.67,1.70642771260815,0.470372347590697,2.79191492559069,-0.0399628698828403,-0.017337381786836,0.0178036875804845,-0.18543658508953,-1.07448834713865,1.73458412192066,-0.215424834690479,-0.214303893482262,-0.0809018917425185,5.15123756850459,0.0013958837211834,-0.000857749554970679,0.00298504564377879
1.68,1.72401321317078,0.480523399912895,2.79426597547532,-0.145490781637617,-0.0884286948623262,-0.0198111021282086,-0.0640603705794554,-1.13675291192771,1.85998795083911,0.0034270871189965,-0.0489264998618357,0.0764060270288112,4.96830594258454,0.000805364020994546,-0.00114854285814893,-0.00268979189933405
1.69,1.76783960361073,0.440835355893749,2.84912030772521,-0.0592213484951933,-0.0220227574266167,0.0447132207879929,-0.151234531620682,-1.00383145128332,1.7162907569754,-0.015994504910768,-0.0683754680686129,-0.0452660071735187,5.10504329841074,-0.00307106755100991,-0.00411323734479889,4.5725926869827e-05
1.7,1.71057177328462,0.470690684671237,2.78996087325227,-0.0863865685516609,-0.04853901938078,-0.0208246586250614,-0.0944931133436914,-1.16490156353035,1.79520307417205,-0.190155379773807,-0.197327392081471,-0.00222712322953046,5.03222494127677,0.00311965683976835,0.000477894953017216,0.00108077325613446
1.71,1.74545932060095,0.409369631358518,2.83739571848343,-0.147080824317834,-0.0927596436032553,0.000373424651271014,-0.105946923155,-1.1160405065786,1.73595688798639,0.0683293023313036,-0.0132149796416522,0.0268975797361076,5.02468871874797,-0.000649793415934018,-0.00216716034292828,-0.00130053338397478
1.72,1.72516984595604,0.408491727209124,2.81304338500316,-0.0552656424143336,-0.030582926812716,0.00529222092277661,-0.172449464746314,-1.07683032763809,1.75895505984161,-0.092887047192327,-0.126229896619254,-0.033108483613104,5.07448053251361,-0.00100556058281012,-0.00273185093902288,0.00131033495631333
1.73,1.69592674885291,0.419925966237305,2.83400659908198,-0.121598848881903,-0.0780616882723698,-0.0217456954659606,-0.0925575172019202,-1.20186887741908,1.76551080336851,-0.110052441279907,-0.148416946816832,0.0213671203185728,4.9924807439582,0.00298681040194074,0.000291206429929648,1.56478103586925e-06
1.74,1.7604705708316,0.392308828914495,2.87165646009934,-0.0999281980622732,-0.0581841150061883,0.0268790756557752,-0.0999187391338818,-1.06994539084801,1.73154341682323,0.0784379045729157,-0.0102855214336739,0.0177200004978852,5.00625597974168,-0.0032932496579225,-0.00406128669216759,-0.00210378107707352
1.75,1.72894050117507,0.413757599697324,2.85072225437597,-0.0449029368416449,-0.0247498959052385,0.00984280537613975,-0.108057066513014,-1.1494018794284,1.71337235477466,-0.194310995620909,-0.195655428888656,-0.0444687186825578,5.05663392324299,0.00134604765495679,-0.00105360927739452,0.00163144278306347
1.76,1.70310528043635,0.352801379379451,2.83055796589548,-0.176861320685908,-0.122668420894985,-0.0422927650043875,-0.0924887497483461,-1.26349820611954,1.73885115800316,-0.0286101762681876,-0.0946027178267835,0.0162390850634396,4.99076283949757,0.00403818609534815,0.000576922529083817,0.00121943508915256
1.77,1.76775936431423,0.356349038286159,2.89940555466483,-0.0602279215637226,-0.0306072418561453,0.0333217595678259,-0.114946944073844,-1.016536636924,1.79567281842245,0.128018332049599,0.0060879395850392,0.0503098758028556,4.95646964005281,-0.00646077314830988,-0.00643175531129329,-0.00391838672959183
1.78,1.69508870445486,0.391824992261062,2.89017258055507,-0.0449327384010172,-0.0420854790284633,0.00456446361831981,-0.0891229767670226,-1.26058935696363,1.63706440253534,-0.3395194596978,-0.305901603696722,-0.100195775366799,5.05126822690635,0.00568166594007553,0.00219507308583658,0.00452595404469802
1.79,1.74219788393832,0.320063583095419,2.85863891557948,-0.20560447005427,-0.144214398350689,-0.0389468496626752,-0.0494026175971132,-1.24279406599293,1.76301206707268,0.16531790211232,0.0602135094607417,0.101211547941054,4.93366575631367,0.000410630339003958,-0.00228086153585087,-0.00295770372851151
1.8,1.72773120970289,0.289210070488296,2.89149253697251,-0.0277833642753028,-0.015013299404633,0.0267539260974683,-0.194037202576977,-1.08606579963923,1.7371259424816,-0.0581356126106339,-0.141217586155953,-0.0764283478869139,5.02291683919524,-0.00288360130396608,-0.00389578765084291,0.00233880691485327
1.81,1.67869090992714,0.364737638583598,2.9142066318969,-0.109814852536501,-0.0875518761908791,-0.036252640868484,-0.0237000720781961,-1.31061032101737,1.72293974955938,-0.185845389341692,-0.197126035139486,0.0441338845419061,4.90827949512469,0.00484252814937531,0.0016624615333868,-0.000384862235108457
1.82,1.76411607371849,0.274649387047704,2.92161679465877,-0.147449595831283,-0.0958670559399608,0.0201142971009562,-0.091016962103972,-1.17426311923604,1.63444670244178,0.14369472022225,0.0243019483344,-0.00241282727916922,4.97617834966716,-0.0020734295736105,-0.00363084910177575,-0.000846754445676404
1.83,1.74530883227569,0.337712365942107,2.91098172703193,-0.00261019188827713,0.00365287774392327,0.0217685631096676,-0.0755271367724691,-1.13239167753951,1.73236997267913,-0.127435054415503,-0.167721134078544,-0.00169917779616659,4.99469552144928,-0.00224367633580824,-0.00362968600709429,-0.000943743474379844
1.84,1.71989836534663,0.318014304030042,2.93693431378591,-0.137654763898466,-0.100830116857777,-0.00820365748412999,0.0178575952405428,-1.36883407241776,1.70723532144178,-0.157490388780005,-0.191409854800217,-0.0261564977959412,4.87103164860513,0.00582255051850767,0.0022646604987568,0.00162345563942905
1.85,1.77818353244243,0.226167383495097,2.94404669239095,-0.137327166660616,-0.0998814827806124,-0.00993802234830508,-0.0986944323901443,-1.16434600685629,1.61271123684367,0.17902601337908,0.0485476497440159,0.0389862483947196,4.96116795366944,-0.00333143430229425,-0.00443908534188217,-0.00138087137340962
1.86,1.71270749306599,0.293493562626323,2.91011514838623,-0.0119217333458175,-0.0133428254469894,0.0147541331729194,-0.0961647955300639,-1.20837381449784,1.68982632830659,-0.19844693692453,-0.22006660917585,-0.0332224218405998,4.99060636488307,0.0004145930285643,-0.00187686733822352,0.000852565868557175
1.87,1.71862485149868,0.27531003266535,2.95599053885684,-0.160503097072887,-0.117903248776794,-0.016467264153891,0.0265344709375971,-1.37343417431273,1.70308511027867,-0.045779428202879,-0.11751636339354,0.0174266668704299,4.84303993016162,0.00412886067562912,0.000966980613229504,-5.669606262847e-05
1.88,1.74553865538084,0.168812799741999,2.94191394701396,-0.122805942386687,-0.0989804202029355,-0.0195469325130707,-0.14487117320857,-1.20914556035111,1.57852354645229,0.0891096248264057,-0.0297619344510827,-0.0205520422669783,4.97904409346149,-0.00140983426236826,-0.00303120134481667,0.00187413166907389
1.89,1.69514165273194,0.259043506116195,2.9300308630071,-0.0483269758931378,-0.0447369808492361,-0.00968781904974422,-0.0686235683433934,-1.25399673418044,1.69991078761545,-0.118120838061309,-0.167940781078466,0.0374728378144556,4.90977613337885,0.000277970660556931,-0.00188533804952007,-0.00134401721435615
1.9,1.75711474436975,0.264575011274666,3.01616624628772,-0.100324363777854,-0.0699416813846312,0.0410612705686922,0.0508108178510063,-1.30456734748149,1.63250527007032,-0.0221390395580337,-0.100490934501863,-0.00531237104377826,4.84498292944555,0.000396624823648314,-0.00144924876809818,-0.00170591582280684
1.91,1.75544142889948,0.179539896364324,2.95062093217251,-0.106898890614171,-0.08809716814393,-0.0192573680588589,-0.0587986775694748,-1.31309033498965,1.53514482214875,-0.0564470274050678,-0.119168876508064,-0.0499357811515196,4.96979174834388,0.00199858099598918,-0.000921888118537162,0.00324889260629424
1.92,1.70395788086262,0.165421689761283,2.91517552424044,-0.129218151776505,-0.106432520687674,-0.0475847029206856,-0.0715511142622307,-1.33648247035383,1.65847966079453,-0.000584231091070142,-0.104924883749026,0.0478853890307527,4.89298130757844,0.00177295091533211,-0.000979493860246062,-4.33753922067901e-05
1.93,1.75826545435258,0.21090327659136,3.02930298834464,-0.05221031070968,-0.0446208803075835,0.0473327799171875,-0.00123349838068976,-1.21132137760332,1.64328668409607,0.0407924736037204,-0.0642559883691457,0.0239747222062754,4.84972311291213,-0.00356648518633326,-0.00439140169353801,-0.00337529214301689
1.94,1.77114433181147,0.23978535802337,3.02720301010957,-0.0430993721121152,-0.0379781902841475,0.0341409494114996,0.0638475950324657,-1.34719500775471,1.56406529001307,-0.18319489419116,-0.203005149486996,-0.0534546956858473,4.8841642213948,0.00215403900274181,-0.00051416835524854,0.000898989969672498
