time,x,y,z,roll,pitch,yaw,xdot,ydot,zdot,p,q,r,thrust,roll angle,pitch angle,yaw angle
0,0.0184195323069548,0.0184195323069548,0.0184195323069548,0.0184195323069548,0.0184195323069548,0.0184195323069548,0.0184195323069548,0.0184195323069548,0.0184195323069548,0.0184195323069548,0.0184195323069548,0.0184195323069548,8.79230600587429,-0.00143605173155601,-0.00136605486815688,-0.00173954859398929
0.01,0.0193717654817975,0.0193717654817975,0.0193717654817975,0.0195652531136263,0.0191532446255681,0.0193553587595609,-0.0567758191441507,0.0934132215034389,3.93634300745195,-0.0487208623453469,-0.0429994082130757,-0.0271595656780322,5.89349265945246,-0.000341113750844256,-0.000201068617642785,0.000372606871556223
0.02,-0.0224581724958158,0.0381747583480258,1.59969590442616,-0.0182682479759246,-0.015872706280809,-0.00945073611676889,-0.0238076347626078,0.0279994144395246,1.03969943541524,-0.0135702198486682,-0.00681974262294201,0.00874425547548108,7.18661897477905,0.000908208338667149,0.000702157215845327,3.36697030165514e-05
0.03,-0.00223151867025429,0.0189268433916963,0.452533054831981,0.000963460849606712,0.00378159122254635,0.010185131681464,0.0435804598253968,-0.0282845821726526,2.35951210641243,0.0418440331751656,0.0321965042305878,0.00598830253312497,6.90055431557053,-0.00113689898806153,-0.000984510227332711,-0.000763685760147614
0.04,0.00216102603283574,-0.0261714805690715,0.974701233166521,0.00353692665412712,-0.000369260035469138,-0.0107827197209308,-0.0332568299707377,-0.0170915516508843,2.07598023488415,-0.0576416982565408,-0.0496157815347101,-0.02757282544745,6.76428150416773,0.00121576967878683,0.000915607837299249,0.00181556437624618
0.05,0.0237635177558997,0.0307387921550539,0.919169092407231,0.00880746688712926,0.0119332139287359,0.0209187585415668,0.0501218892422185,0.0629311883795178,1.99605942383763,0.075516687028971,0.0616988266703205,0.0650546351900656,6.87301574049587,-0.00283499074946115,-0.00229211824433888,-0.00406073620620986
0.06,0.0180392626056382,0.0237667569198639,0.86811396416023,0.0323606707756572,0.0245641822578008,0.0273154464117411,-0.0268909567704127,0.0228662203063514,2.09895474174442,-0.115826176582461,-0.0871103920581463,-0.0856868245097106,6.83081433109755,0.00088293119958815,0.000543534933472346,0.00276786360118852
0.07,0.0271336147200494,0.0477485167270931,0.954847486359151,-0.0128305387421008,-0.00138260854519547,-0.000631674020803275,0.000690164055699993,0.123513160593274,2.10532722711154,0.0617878394709409,0.0499120387785567,0.0864273994166357,6.75386535293695,-0.00192636305358007,-0.00160368374436308,-0.00405732266500005
0.08,0.00236091157537266,0.052914996565249,0.940958179247359,0.0304190759008396,0.023532501655115,0.0398227088247959,0.00203981420659729,-0.00729814171560897,2.02081277866471,-0.0765004075555291,-0.0575856900315543,-0.0826351686233227,6.84267080251873,-3.05995023540871e-05,-0.000168546523584187,0.00203175639888111
0.09,0.0190263008949553,0.0163554397625766,0.930780370500366,-0.0149066085568205,-0.00688989946872103,-0.016832242043983,-0.0298982925188939,0.0923513741328157,2.14016748871734,0.00975023899480323,0.0068814935854491,0.0558624971878764,6.7403128923498,-0.000456251411491837,-0.000423739221025157,-0.00184798007957717
0.1,-0.0440388984104794,0.00687090200407266,0.947415294337578,-0.0242103622804076,-0.0251162210807799,-0.0049937222349111,-0.0448630151328007,-0.0624261450329451,2.01787754297213,-0.0431913521184728,-0.0411657490941664,-0.0630007740741343,6.8294274405972,0.00206192085714729,0.00141050344616388,0.00322060810926864
0.11,-0.0296380536868246,-0.0352593745098617,0.924703428762443,-0.030811038539661,-0.0314584196416213,-0.0389421807221493,0.0153408000880048,-0.0600816021912659,2.13975441002967,0.0698698578587134,0.0427241450948312,0.056370127702512,6.74383948891536,-0.00038258824322509,-0.000165309870806737,-0.000826146569904238
0.12,0.0338486732006974,0.00494304336625091,1.02321246362325,0.051414230878811,0.0398435032854054,0.0462832094865868,0.0859252118228609,-0.0130268317433514,2.10455144787112,0.00193555710233057,0.013417725332575,0.0015940688029186,6.7208206152626,-0.00296348477604366,-0.00268030752213403,-0.00224898893895109
0.13,0.0189885776404534,-0.0200368096706942,0.985980977665031,-0.0116951057855528,-0.00727706353464341,-0.0116223284803267,-0.0996711073642694,0.0706942259825831,2.07318773654737,-0.132171811155034,-0.115625822482175,-0.0586681884356386,6.7564289895613,0.00295633413014734,0.00213680643451671,0.00333196570272591
0.14,-0.0267434724123428,0.0437224744885066,1.00897980835617,-0.0424220897608319,-0.0375026991642717,-0.0132276884236382,0.0215417403169557,0.00511605171527127,2.14011969736334,0.125334243645061,0.0914546454748081,0.0789001560397303,6.67926766770992,-0.00187465204458888,-0.00128592865811217,-0.0031053225976206
0.15,-2.56050088959271e-05,-0.00510744087453758,1.03079994860372,0.043409204012112,0.0281545135514357,0.0246987679315757,0.0438053321127864,-0.0784694513847254,2.071015136594,-0.0850491200017308,-0.0548610196021104,-0.0723548147306582,6.7361538812694,-0.000344473637272728,-0.000636381321491038,0.00226187938120649
0.16,0.0158214970749598,-0.0323595375909866,1.01982484183915,-0.0377470614906126,-0.025388336641121,-0.0319136641629037,-0.058879006584959,0.0714378859647844,2.14846515012813,-0.0194281801846178,-0.0272676858402646,0.0449439202059762,6.66361151433717,0.00122652133209228,0.000831481590965529,-0.000617759617670669
0.17,-0.052244414238361,0.00281137440961945,1.04071706218725,-0.0348377958798122,-0.0370488308882157,-0.00774493895539526,-0.00906856952819418,-0.100473634485865,2.07324797172368,0.0266843964546731,0.00827874676793536,-0.0351010686670318,6.70875779025035,0.000633970555663997,0.000526021302639809,0.00202830996299357
0.18,-0.0276823050727913,-0.06329069811441,1.02452254834014,-0.0142213436978015,-0.0219587776027497,-0.0384497494816409,0.0187442056000502,-0.0983369656453628,2.13869341487308,0.00389862125810855,-0.00189854826623606,0.0224098513050369,6.66374531660666,0.000315546502715223,0.000173187618276052,0.000756569212538493
0.19,0.0305974297997334,-0.0153026725772984,1.1063286679317,0.0193552915640278,0.0169301166011665,0.0276044760642173,0.0658850147392149,0.00346288514816384,2.14342770568309,0.0268287899290061,0.0205634656332087,0.0313922749167728,6.61120557706626,-0.00249619500461214,-0.00212619028431348,-0.00278247105769622
0.2,0.0234119938590188,-0.000659041840492785,1.1015823689897,0.00953674627064607,0.00598028746638841,0.0118674496696176,-0.0250199962353424,0.0227338895515455,2.09183440588164,-0.103933699953524,-0.0848391539992045,-0.0601387087916226,6.65659916751368,0.000990203030371073,0.000710235431503544,0.00228806359533454
0.21,-0.0273967744623383,-0.00612920552221596,1.07915917152904,-0.0576952535141808,-0.0510379100203831,-0.0394066697114435,-0.0334999695746311,-0.0126748242335966,2.14182118383059,0.0235856324576163,0.0143630642388687,0.0353174590888372,6.62087107107409,0.00123164684148334,0.000704166882790883,0.000193523054198778
0.22,-0.0284930977829137,-0.0183651750062646,1.112657428749,-0.00646056364461005,-0.00979247924381189,-0.000395666441806136,0.0520098968671071,-0.118066302004631,2.13396894406855,0.0360037331331294,0.0130374789721087,-0.00821573729239016,6.59951727872094,-0.00112262657668182,-0.000873816406789154,0.000408484669847921
0.23,0.040603739429723,-0.0276314959564611,1.15320552588034,0.0296292269824666,0.0204773981780162,0.0131618022860593,0.0482353145100926,0.00816715516037711,2.14476632064825,-0.0336131193461972,-0.0223550353877416,0.0221225358971847,6.57940229378278,-0.00173939304175381,-0.00142954571480707,-0.00166157197044205
0.24,0.016169917539684,0.00102360366489896,1.15297671964673,-0.015567660697497,-0.0115602128323491,0.00781793987783139,-0.0240822666375862,0.0308788794186549,2.12938783092218,-0.0735762508859709,-0.0589798026379946,-0.0364138939295182,6.57652769304855,0.00115695206289347,0.000685069405773314,0.00135504462885586
0.25,0.000571711861606043,0.0245964601785389,1.17034430841729,-0.021258187587281,-0.0157621918898526,-0.00509848527347332,0.0381076310786227,-0.012292173897468,2.15019739378132,0.0521032746931412,0.032373051580417,0.036499112429756,6.54080918946333,-0.00159404148164386,-0.00128002874548545,-0.00148435187320266
0.26,0.0225784500983688,0.00291596849619399,1.18941246835308,0.0273348479009532,0.0185257835068786,0.0222964660226794,0.0408666267320554,-0.0252896305650565,2.12955711897443,-0.0612272441139282,-0.0455044191901153,-0.0255495647310434,6.56228426899655,-0.00103441822519221,-0.00097653366753482,0.000161744164938407
0.27,0.0317044123174731,0.00542821311166189,1.2007646028116,-0.0120521378717923,-0.0054190038902569,0.00396638102434295,0.00624180277349695,0.0497068458720987,2.17427664518203,-0.0331941121990527,-0.0288802870813329,0.014896363995678,6.50279222799634,-0.000305159638587421,-0.000388146466709256,-0.000891009712639853
0.28,0.00910363688441336,0.0283106696549061,1.22489403288439,-0.00756948150386435,-0.00592377021949643,0.0135458851141487,0.0260973256901979,-0.0107720853963531,2.12317316591447,-0.00924472624913291,-0.0124187977758637,-0.0131166499616844,6.52490349940552,-0.000927606978886326,-0.000806394705024013,-1.74194665629257e-05
0.29,-0.0181999244980294,-0.0326772159177003,1.18416368365815,-0.0311696646162093,-0.0323847199598452,-0.0307433292994353,-0.0268211140291452,-0.0611822171339335,2.13370814309955,-0.0625285745772301,-0.0560868004861356,-0.0222290659092119,6.5372861495064,0.00193235337101674,0.00119234892847307,0.00250690558034443
0.3,8.51879205391107e-05,-0.0133154489444123,1.23377615983619,-0.0200960759738876,-0.017971769847373,-0.00221988032276554,0.060896123968312,-0.0406051815177678,2.19319372731332,0.0805798301631825,0.0485620728238681,0.0586734980056745,6.45041362487932,-0.00238668983021091,-0.00182453473616929,-0.00266757747220464
0.31,0.0481380287029823,0.00662434792407132,1.28495916365857,0.0525215251505995,0.0375543372997315,0.0451937011646339,0.0686732297161962,-0.00315655436884787,2.13111798810615,-0.0834076423638547,-0.0549004962928477,-0.0392095218412864,6.50891491384068,-0.0020188298335972,-0.00188966396903566,-0.000263032375639571
0.32,0.0414299085105788,0.0120710305034849,1.265400217258,-0.0223452643982821,-0.010040229317587,-0.00223205982750875,-0.0129549097510594,0.0697656443096716,2.20714212467656,-0.0750400931687392,-0.0654519078795806,0.0052054472295044,6.42153515291871,0.000800178600294947,0.000411270500268764,-0.000139169181143631
0.33,-0.0571994570096365,-0.0212342659365714,1.24999069457401,-0.0780023582018808,-0.0740265889556898,-0.0431452616365873,-0.0534045793458472,-0.111409697133091,2.07723168662325,-0.0100822332689458,-0.0262078401586517,-0.0413604742440765,6.5328200987979,0.00298087233234087,0.00184207114407809,0.00400472009806097
0.34,-0.0217384172133316,-0.0456324201816654,1.25058078636683,-0.0115898311257448,-0.0194924064274174,-0.0224588558215961,0.0920704690608787,-0.125695542128394,2.25992478947694,0.112226900835472,0.0625857264306239,0.0802327918771476,6.37302615258544,-0.00328864655198938,-0.00229512054149041,-0.00272847678338291
0.35,0.0327250361868944,-0.0584710723483584,1.33611482922737,0.037611316416549,0.0145979508124986,0.026293290528853,0.0302164464150771,-0.0467362539265863,2.09196242693073,-0.143320489605841,-0.0961031444225033,-0.0632112632415756,6.48224127790323,0.00028365822735802,-6.23273229524519e-05,0.00175709981553332
0.36,0.0202799783821687,-0.0117158563000807,1.29376746013586,-0.0543268140676089,-0.0357962673924569,-0.0196007339742967,0.0137078863518554,0.0283648238555926,2.23021223067528,0.0105115555679778,-0.000129604361171534,0.0418670489817878,6.3642411711369,0.00025052894801341,-0.000204079790490491,-0.00105529621294927
0.37,-0.00577799827275167,0.000784919641698568,1.3466260776816,-0.00845316211591114,-0.0128662390037058,0.00710771029658458,0.0405680952209568,-0.094488041038438,2.11777698880938,-0.0022624814018226,-0.0209752182158215,-0.0306959582714975,6.4230533496069,-0.00110477198259385,-0.000749324756075955,0.00111890777676313
0.38,0.0187001620017247,-0.0385968244234669,1.32413550612769,-0.00413268334962693,-0.0114532816111245,-0.0123104969390316,0.0382043155203509,-0.0364045458536164,2.19184105039562,-0.0495586370602353,-0.0341741269717971,0.0234581419136893,6.37961101476523,-0.000379866399592888,-0.000494448394024056,-0.000525967610945695
0.39,0.0501286019599169,0.0184993237503509,1.39739757374401,0.00749552792232227,0.0132154664073712,0.0397480212569179,0.0875973460944387,0.0176576322923538,2.18827242418143,0.00539033547950118,0.000415793967646884,0.0140760122207534,6.34149643064771,-0.00270072659598503,-0.00248984813823645,-0.00253169288232912
0.4,0.0511260743481164,0.0210814929032308,1.39472067179086,0.0152060575024035,0.0125057431109538,0.0218963268597082,0.0409124751734667,0.00434033603138623,2.15345921805376,-0.101570241095792,-0.0888037220321359,-0.0407686142539151,6.37646502563894,-0.000472742571976022,-0.000338125536805546,0.000902791347992658
0.41,0.02146101478942,0.00541364225854851,1.38264507654219,-0.0395196323228804,-0.0343113783670086,-0.0112634282645148,0.0213488717983978,-0.00483182557303377,2.19431176503405,-0.0219176063397788,-0.0144076553284447,0.0226486877357656,6.32033038901851,0.000153191019664753,-0.000168650246808998,-0.000539038783206124
0.42,-0.0100089217101544,-0.0220371575881687,1.38954219824387,-0.0303232932983698,-0.0273195703023486,-0.00847625059026343,0.0271067679345038,-0.0927235882226131,2.13740702075959,-0.0144836330371305,-0.0279324197836738,-0.0266623067078492,6.35978607248508,9.04385427993202e-07,-0.000267838416706584,0.00166246304319301
0.43,0.0139202139232,-0.0386518511168858,1.39589034476784,-0.0113074456044701,-0.0167522293348543,-0.0122130097858416,0.051860656401013,-0.0624591061066205,2.20256650170399,-0.00747593612669881,-0.0180926363881676,0.0336221475085633,6.30519306870448,-0.00125136831857825,-0.000937761815336013,-0.00101093760355245
0.44,0.0266562674865244,-0.0236586118450932,1.4393155922308,-0.00415878664737888,-0.00905399917953087,0.0163881188234972,0.0509151249810991,-0.0404627221676803,2.16293487653957,-0.054619113752789,-0.0409630618347474,-0.0195359829656464,6.31121215541844,-0.000631899401133477,-0.000764526279998533,0.00015417430746434
0.45,0.0109271119997986,-0.0297895245246928,1.42305353440138,-0.0369814173368887,-0.0315175882707598,-0.0185216335547289,0.0243625100371256,-0.0573719298502986,2.17143452663905,-0.0415378833437258,-0.0452623607622361,-0.00609180737393032,6.30063732763365,0.000650097280829453,0.000212081045487022,0.0011639000886302
0.46,0.00623033981290254,-0.0305741019015449,1.44363558542106,-0.027714424481656,-0.0294348852767323,-0.00909083281982772,0.0508361742284751,-0.0797312767702849,2.18248261487419,0.0140865382052422,-0.00442303511652575,0.0189453054094991,6.27412118979389,-0.00112621731360492,-0.00089018347116912,-0.000465372706678951
0.47,0.0329038392158705,-0.0253493914437659,1.47548784585422,0.00895940304916675,0.00106410761522728,0.0155644940821081,0.0752582914919874,-0.0511630497103401,2.17995845888805,-0.0459529495997196,-0.03529316328767,-0.0036177838355958,6.27205282870278,-0.00158375025864481,-0.0014939644671837,-0.000555445719160921
0.48,0.0653778149062395,0.00876539301108444,1.50923145180587,0.00619965761055408,0.0103892845474784,0.0279785862999296,0.0901768051956964,0.0105968704351403,2.20708876953391,-0.0468694870061182,-0.0412840814313598,0.0124263193704782,6.23034274658193,-0.00187897456880418,-0.00176013302866909,-0.00189792531534165
0.49,-0.0154974232575342,-0.0519466559549219,1.45734248073454,-0.0703094678041889,-0.068299022373948,-0.0413245407645066,-0.04251776426906,-0.115819389420803,2.11563697384466,-0.122984770033041,-0.115246552421763,-0.0796054648097595,6.30746315756578,0.00459536436517599,0.00286235196066303,0.00573299853512951
0.5,-0.0324942882323747,-0.0669836756383166,1.4589321458063,-0.0742006410262857,-0.0758518703015506,-0.0542398931116345,0.0614878350419134,-0.139166543415773,2.24710414980486,0.157917087741061,0.0880945805206641,0.103773332713707,6.18923015599,-0.00221631683309237,-0.00153072351023257,-0.00234377528223825
0.51,0.0550697045858146,-0.0348556393855564,1.56731322206628,0.080828154382648,0.0488377601840081,0.06319837592834,0.133147957944821,-0.0706627020859006,2.180907291017,-0.0818755239708895,-0.0444196036082142,-0.0319808122991191,6.26268331462085,-0.00400261941213189,-0.00387847949852937,-0.00142663344760518
0.52,0.0686932936636528,-0.0238109172328169,1.54361449330874,-0.0277339604622998,-0.0120457380478615,-0.00259991385661815,0.0355549459318487,0.0147109735502847,2.26036938456639,-0.161670205670581,-0.149324597338913,-0.0213942990225105,6.13658187573331,0.00232199553316105,0.00164451478869459,0.0011425424115172
0.53,0.00930219992507053,-0.00184179593893539,1.5720567175904,-0.076013278355782,-0.0719970688450279,-0.0143531844825456,0.0498145316064152,-0.0775345508636462,2.10873509621329,0.0800446070425691,0.0507717019117604,0.0193861856009315,6.21527453274939,-0.000991203334311445,-0.000723238606891964,-0.000238046230782227
0.54,0.0335824112569818,-0.0263277143565666,1.53778452275063,0.0340252060387013,0.0215898396548415,0.0156326892251288,0.113806894778673,-0.095240442726885,2.23324680463158,-0.0423754193669747,-0.0303573921300454,0.00121699457697322,6.18660112346819,-0.00304236151263751,-0.00295941341375388,-0.000772555811977062
0.55,0.0308232601390706,-0.0660086846066719,1.57455618823787,-0.0417122225012309,-0.0373119966300791,-0.0182031085429424,0.0164236133679645,-0.0740298671905558,2.17790135765981,-0.148075771909768,-0.139916781139581,-0.0322180557125264,6.16135481212901,0.0031035182419126,0.00220154943788507,0.00239179033609754
0.56,-0.00914990296227101,-0.0525043866586366,1.56434592112781,-0.0851715179444489,-0.083609794612076,-0.0331454424445014,0.0487554968663412,-0.118668881375069,2.16393824311145,0.0985827881310369,0.0604960087027957,0.0341812114326755,6.16510703455524,-0.000811168395884576,-0.000742207096594148,-4.97451812173943e-05
0.57,0.0339137908090202,-0.0449274245276276,1.59756363672968,0.0391657131033576,0.0228909304987893,0.0198155612870477,0.12173052756111,-0.109437095105409,2.2264770222603,-0.0372096148302393,-0.0327160591493171,0.00398197231356018,6.14593179332884,-0.00345907607355156,-0.00316868859639209,-0.00109702563091393
0.58,0.0871269146718633,-0.0202146159624891,1.65873623963717,0.00727132115192824,0.00828349975133447,0.0303873757239486,0.107678853601066,-0.00889513395600305,2.21496269789801,-0.125689006721631,-0.109472437416607,0.00064618775787121,6.09594992001526,-0.000463489002914581,-0.00041655786420775,-0.00145350628301682
0.59,0.0605244135786104,0.00508889934188205,1.65235148581666,-0.0435544302973819,-0.0374290938978548,0.0145176893548476,0.0893027632765625,-0.0453635427799731,2.15831179079932,-0.0171228639534433,-0.0160040321463162,-0.0193984136876644,6.10857613222099,-0.000747918497666534,-0.000735820552768906,0.000234167537293795
0.6,0.0294652751937175,-0.035819960643948,1.61900203623745,-0.0241420215317842,-0.0239737926036559,-0.0174585228185814,0.0720231062974154,-0.108685047315202,2.1678952505931,-0.0491642773124675,-0.0480029143570124,-0.00352772976040742,6.12758526583946,-0.000463406094380122,-0.000809342224167763,0.000995196538712167
0.61,0.0560841427470923,-0.0312109008126227,1.66255901815835,-0.0107989713535445,-0.0106791131540993,0.0151765733822911,0.112473878908974,-0.0606072336366551,2.21663082146135,-0.0156312244967766,-0.0293499192877309,0.0347530690119979,6.06421919626125,-0.00222830329585932,-0.00183694868970912,-0.00235088133499193
0.62,0.0458043824153922,-0.0384548392376539,1.67377150998651,-0.0186441546235658,-0.0253278958256923,0.00952240953276663,0.0731382947545474,-0.0917100461714757,2.14542792146457,-0.105357659554349,-0.0876147936316314,-0.0542472745414179,6.10494334317978,0.000474219308118561,0.000169533367866226,0.00212165718148315
0.63,0.0222606999414003,-0.0586513733241301,1.64902212816572,-0.0643278103927626,-0.0581858937518289,-0.035719090715963,0.0666463493742266,-0.111910756683111,2.19176234703936,-0.0056872361563084,-0.0158788514524236,0.0329141956955573,6.06177127089786,0.000269125314708201,-0.000308760695948877,0.000129671351701866
0.64,0.0272766445291114,-0.0606728203735362,1.68610665008176,-0.0192987943379777,-0.0238543869853039,0.00463814451903391,0.0900525006009253,-0.124546265164319,2.17852492957694,-0.00760048512063581,-0.0319377997248661,-0.00455038792007901,6.06022153752063,-0.00182653279127902,-0.00146375655332878,2.64613150724179e-06
0.65,0.0337496076647626,-0.0718130789274859,1.69084558096095,-0.0234602265516925,-0.0336008698896022,-0.0132614592655714,0.0775725738371257,-0.117582727981587,2.17139507687716,-0.0957895989411116,-0.0794237923058014,-0.00988706928283621,6.0567680276351,0.000493049041462427,0.00013917537673142,0.00109786380952677
0.66,0.0368111416234756,-0.0591755053158564,1.70855613483049,-0.0515541760452861,-0.0455452713442924,-0.00814257966990395,0.0960807914733505,-0.108638361253972,2.18711033834862,0.00414558123457646,-0.011037678875571,0.0197719054371643,6.01724410374537,-0.00082599812696302,-0.00104204077429534,-0.000549515041450481
0.67,0.0602797405633701,-0.0408708442599883,1.74263873459787,0.00318515519431061,-0.00367211541215505,0.0186733661225685,0.126113537425941,-0.094965214475884,2.17728067317569,-0.036828354785035,-0.0449713152794141,-0.00283535812062946,6.03136577760444,-0.0025404114001341,-0.00210272143893717,-0.000731587941517432
0.68,0.0375922881515826,-0.0725856365887344,1.72100834180878,-0.0444418764561801,-0.0482234319773393,-0.0210870777638538,0.0675185514064253,-0.13439914620272,2.16859245715657,-0.132933137389789,-0.112181014277087,-0.0325647418829648,6.01901359707279,0.00233219066201295,0.00137522920327782,0.00254142911681831
0.69,0.046124401461224,-0.0541349902195464,1.75708989668027,-0.0564669924813494,-0.0495433341690905,-0.00705097069353016,0.125148690459657,-0.104459505104116,2.19675810263815,0.0861060502129347,0.0454256140041415,0.0593081746903233,5.96243856376784,-0.00283821565600666,-0.00243298446037465,-0.00246635391867944
0.7,0.0846000163554616,-0.0305217977383341,1.79673045215768,0.0471858258830366,0.0278524416853342,0.0458668713209425,0.15209336104692,-0.0845913557489266,2.16612458368951,-0.111126075871257,-0.0889006269174053,-0.0344222987534431,6.04048021406238,-0.00294081989486494,-0.00266948345068149,-0.000499565542215454
0.71,0.0739650812657991,-0.0455443993773718,1.77885255032393,-0.0524498546192519,-0.0432559049059657,-0.011031512701196,0.106893681707826,-0.0951228382087751,2.24195259493905,-0.13189554381928,-0.115351471888123,-0.00862409142129966,5.90850769921041,0.00210501568943676,0.00129703460245682,0.000933675216474248
0.72,0.0677719436991158,-0.0336045354522521,1.8322395794922,-0.0505159961412733,-0.0447163311170498,0.00929644621062919,0.136400865269204,-0.0947276956770108,2.12431356093442,0.0818615993323422,0.0455403426756901,0.0305234165388374,5.96261984716734,-0.00333107552906724,-0.00273809753879102,-0.00187304518335125
0.73,0.065569719609899,-0.0540223882540814,1.78445967017618,0.0214703003480666,0.00514486734150133,0.0116152678127068,0.120624573079333,-0.126767731159879,2.17623384651627,-0.150834042042741,-0.122127922517155,-0.0409386812520871,6.00079807859354,-0.000760863803488364,-0.000952651888293409,0.00140786453505855
0.74,0.104664726715254,-0.0217896469903166,1.85766894865869,-0.0340157730232467,-0.0224095252528264,0.0214198708874666,0.180171726334261,-0.0531402649759034,2.25304726136772,-0.0149596424630458,-0.0210297135682004,0.0612312541072854,5.84633264371771,-0.00213634613332436,-0.00200214571191769,-0.0038977320221362
0.75,0.100951251629945,-0.0178988487807216,1.880571230344,0.000632627463571863,-0.00409926722890746,0.0423423487521747,0.147562139883421,-0.0909247921931273,2.08986797947288,-0.0876992261840986,-0.0803255451375924,-0.0687185480802688,5.98455020291496,-0.00175924920443356,-0.00151119344265918,0.00126944501841157
0.76,0.0344279931100752,-0.0907859705902472,1.77622357653181,-0.0818939673890675,-0.0790681548065443,-0.0618792089312262,0.0643184720188677,-0.178401772943833,2.19386704047709,-0.1191556085583,-0.102671251210392,-0.00281956311431219,5.91983403994594,0.00359118402493982,0.00181488041044015,0.00306231298393226
0.77,0.0452597032298818,-0.0811406150697651,1.86586371882824,-0.0597011663682269,-0.054179369756412,-0.00170799452595185,0.132528498834876,-0.133408987863802,2.19589727926044,0.129372057031992,0.0529134021909454,0.0648686913805844,5.85763486575244,-0.00405922216276568,-0.00305086272586566,-0.00297699984304917
0.78,0.0328921751221455,-0.109172539487366,1.84536214876611,0.00600565798309168,-0.0275354404914825,-0.00771096428022393,0.0775077755983163,-0.19366502786253,2.09751576660807,-0.2098565807737,-0.163521421971295,-0.0922161589569358,5.98172101987233,0.00168019285787526,0.00100339941008356,0.00473954298669114
0.79,0.0731768143709392,-0.0690848726146235,1.87253780012689,-0.0772918673285242,-0.0610964231702115,-0.0179585547803644,0.171681259092636,-0.105785838423399,2.26615823128898,0.0637255854959758,0.0407993638924267,0.11617906596891,5.78318690968144,-0.00194859217215936,-0.00228025679158314,-0.00464472342163519
0.8,0.0921283568022161,-0.0519820725110936,1.94112095342653,0.021599210861361,0.00823149981948271,0.0546172253653227,0.149353629774052,-0.123474236658141,2.08543426389191,-0.0909022305768586,-0.0986586780311913,-0.0925599200672008,5.94905212052625,-0.0026652969633908,-0.0021005793284952,0.00182840796905554
0.81,0.0911628504268879,-0.0555516077966626,1.88649840558558,-0.0388283350932965,-0.0403213078667351,-0.0245097592177146,0.164564048652647,-0.124820072633929,2.24960173270849,-0.118063535919345,-0.0887005655851337,0.0482075940490476,5.7948100596681,0.000610484001117499,8.23554364524261e-05,-0.00111750959774554
0.82,0.100658418580809,-0.0494784557269141,1.96921927340404,-0.0448700315561251,-0.0336938562003872,0.035603964520102,0.16928409172464,-0.114903698286404,2.10802848826431,0.021322209165305,-0.00480000616834196,-0.0104742327504792,5.85065723548696,-0.00263211475016941,-0.00244765223016156,-0.00117501871251791
0.83,0.122844035612753,-0.029846368219109,1.94259080516153,0.0273356906332868,0.0166880865186962,0.0295075813527764,0.202682237178611,-0.0931484010269527,2.18722080314007,-0.0978409891470518,-0.0874200413885373,0.00202649942693532,5.86509672434881,-0.0032121279000309,-0.00272574044016805,-0.00144805953718658
0.84,0.0919734236855225,-0.0672073749184209,1.94802846460835,-0.059986242305503,-0.0565121902318977,-0.00503570972105414,0.142708261443955,-0.16380340298156,2.18102655535317,-0.155340470566979,-0.131951091515782,-0.0368886096911454,5.78586916450512,0.00260845049455389,0.00158874730233948,0.00198906822976412
0.85,0.0753507191443483,-0.0863057064747325,1.96134089980873,-0.0799523996879018,-0.0724840401488335,-0.0181117487161801,0.142633973167191,-0.151015786365468,2.11868921192943,0.0818070830060787,0.0391902754487452,0.0388336496160274,5.8170386247864,-0.0023806501276819,-0.00218188599151394,-0.00097760440976793
0.86,0.0935243569320301,-0.0688772432361436,1.96440140602341,0.0297573000025206,0.0105974083877102,0.0276645588096523,0.173115547497773,-0.134635747218304,2.18215280716434,-0.107344981306033,-0.0954738706850994,-0.011893385979556,5.8424643979073,-0.00295194146371206,-0.00268399633980815,-0.000705751714810365
0.87,0.11291315307189,-0.057215876993692,2.00993266188087,-0.0403894400431295,-0.0360819892484176,0.0138036548989282,0.196650901251878,-0.138299783987618,2.20531309380828,-0.125447618218836,-0.111057014022433,-0.00063580753149247,5.72423218874075,0.000516372276981661,0.000193696558830084,-0.000614356093875133
0.88,0.0763911029033595,-0.101118965470889,1.99161609682416,-0.0879573934458505,-0.0828809056447805,-0.0215704040480593,0.123730315689889,-0.192618653128485,2.0587249159812,-0.0188248114011883,-0.0330151852985761,-0.032002541594617,5.82961979290816,0.000579448790872418,-0.000111187461982016,0.0025320402626044
0.89,0.0653943068062222,-0.109838637829036,1.95682597597411,-0.0345691248804817,-0.0414082371271562,-0.0236911437348324,0.148042564953149,-0.18207210384856,2.20898040812161,-0.007207325861771,-0.0359526720330727,0.043982955498312,5.75150843722129,-0.00234667194065708,-0.00205895409694585,-0.000952335544549968
0.9,0.0880639618004054,-0.0963762887713128,2.04185255580962,-0.0184379461627173,-0.0318941293817975,0.0187217107365131,0.172307684925287,-0.171726166952131,2.12101767781882,-0.1157944988352,-0.102812282157462,-0.0203947040366066,5.77116857729142,-0.000564566459394361,-0.000657421959675542,9.19514090760065e-05
0.91,0.0433829430070364,-0.145999395034015,1.97110600754251,-0.110856419319814,-0.106698854572531,-0.0552629125374319,0.100976586912353,-0.258234837228919,2.10729654121113,-0.0860293678697506,-0.0872936894575187,-0.0383780148714433,5.78817794385983,0.00376516309685134,0.00168344409980925,0.00443126104956713
0.92,0.0963376297056578,-0.0995640187555643,2.04707899654491,-0.0298795686374041,-0.0329352758517441,0.0050471437745301,0.211414947958579,-0.135980496254382,2.24313624997168,0.148366302208525,0.0600221955528085,0.111775442252534,5.65674500781752,-0.00676027298603585,-0.00518832045975918,-0.00548483595897976
0.93,0.0904778584698951,-0.107718931812258,2.07423148756527,0.025760221991739,-0.0185238746632744,0.027103765769403,0.156478659353577,-0.22219283397387,2.03147641776291,-0.313208384202241,-0.237648859137213,-0.133095153196163,5.84075330081362,0.00256606175852403,0.0017531177781263,0.00504576926173598
0.94,0.117005291241994,-0.0898730922988678,2.0425316075954,-0.120518895356751,-0.0957294187532457,-0.0313945188009297,0.234986272360711,-0.168364305435312,2.26230083247005,0.0913189686515549,0.0701622352777704,0.124051279539248,5.59577581971594,-0.00127359467468223,-0.00215637373197011,-0.00438511965436544
0.95,0.104365260009586,-0.113336795349203,2.11118271488617,0.00468716660204373,-0.00759485161690066,0.0355071908760692,0.152222939179234,-0.187093687809358,2.04289732052284,-0.0884487920374181,-0.11884212146957,-0.105966726609269,5.79777371494219,-0.00245186531007167,-0.00183914318909268,0.0033596141578369
0.96,0.107222685093933,-0.0913504243554631,2.06416285069442,-0.0432136967486672,-0.0542310320263018,-0.029719180932407,0.231594711968277,-0.192858005393159,2.22298435725524,-0.116036823469094,-0.0848379649542583,0.0805445814999419,5.6265356909454,0.000217300509284553,-0.00014877598255342,-0.00240041367927434
0.97,0.139334978187473,-0.090665144398878,2.15148590958075,-0.0503211157651939,-0.0389009418432841,0.047681101647863,0.22109683154444,-0.170234387762452,2.06700169775874,-0.000443677606847936,-0.0220673481512735,-0.0385389550296058,5.69554442773198,-0.00244138658464202,-0.00252810739566136,-0.000416195884108254
0.98,0.116218983918104,-0.105218549735884,2.08340693328685,-0.0237507101480992,-0.0323620888395355,-0.0186104440775826,0.202974194715175,-0.208626348772213,2.12613205622574,-0.126720728088521,-0.127441817094478,-0.012445524309715,5.70249093514629,-0.00036292159595557,-0.000316619951412502,0.00147911695882608
0.99,0.127093130098808,-0.103949290604672,2.13379808723215,-0.0604191115868158,-0.0619255680510896,0.00560730665976384,0.232656331738844,-0.197150700995931,2.14837736777908,-0.0312680568351357,-0.0307579866084143,0.0393974165402765,5.61997767174557,-0.0012013962479201,-0.00137411002894546,-0.00212346046569958
1,0.124092999072078,-0.115969279848683,2.14222341538618,-0.0353491983751859,-0.0366563288768242,0.0133751262897672,0.201926400757192,-0.207148062640107,2.07348171822992,-0.075798975560263,-0.0835263345037379,-0.0478427262480133,5.6915655713995,-0.00118496593809545,-0.00140527684136023,0.00164177256976403
1.01,0.129095176244805,-0.105973383475369,2.13818907433827,-0.0412072368289262,-0.0448768834938645,-0.00886091383360545,0.240533680869194,-0.202923127463119,2.15320378434001,-0.066261760221188,-0.0731343842320025,0.0426738093227604,5.61739531674223,-0.00130716103948641,-0.00120037081025595,-0.00159061772880301
1.02,0.109272745164048,-0.141029986496317,2.1512671105883,-0.0687106813554702,-0.0728933630461623,-0.00365009117073523,0.18848365500243,-0.254107897124438,2.06186465063093,-0.0959835913209799,-0.0935478751181957,-0.05197492580234,5.65996881370275,0.00108080915865272,0.000285732935410894,0.00263192513127759
1.03,0.100454962811248,-0.151845898844215,2.1341854632973,-0.074011485404738,-0.0751897857887603,-0.035357836282859,0.197730334309424,-0.240225592887208,2.13091266530031,0.00387666114479182,-0.0279043959539109,0.0434148251234605,5.61097648667058,-0.00126639753972481,-0.00142523248633634,-0.000383337139903648
1.04,0.149561642243874,-0.103596733858805,2.21563527650901,0.00670317141281789,-0.00848460347194808,0.044241245295331,0.266380417056009,-0.172266700164401,2.12522850568386,-0.0552929391907135,-0.0621631555665974,0.0135942372864637,5.62357497582759,-0.00401750247624957,-0.00352520796731817,-0.0026881087539097
1.05,0.131894731114192,-0.124731305327188,2.18771986289257,-0.055978447776672,-0.0608044653711716,-0.0058874635409543,0.237358788069513,-0.27779797510678,2.0951941683366,-0.200079046909009,-0.176599038444473,-0.0676593212464851,5.5973394987966,0.00296977695709334,0.00185962978693788,0.00348766861848299
1.06,0.14207975895117,-0.144354772756854,2.20315981404059,-0.0979870593721753,-0.0926891526741086,-0.0236551348992339,0.242549532949805,-0.223574205316613,2.09641142066181,0.0928162945844312,0.0486243611970948,0.0766631672568172,5.5685338185856,-0.00265555380439977,-0.00250275082288908,-0.00250515153716892
1.07,0.10666876902713,-0.165524426436161,2.18281038258242,-0.0151778384693461,-0.0362650903305605,0.000871472635738918,0.181524690117136,-0.269932151294961,2.0715357560537,-0.160622437241375,-0.151684859441629,-0.0788334925238764,5.64744883646148,6.62243525901213e-05,-0.000423744709526271,0.00369842397006603
1.08,0.111718517199923,-0.157084836919351,2.20854850776194,-0.0956142859237898,-0.0943411414420514,-0.039713033336087,0.250795204991128,-0.278804353787627,2.14057921468269,-0.0357169901459624,-0.0502195763979533,0.0713373205254874,5.5169042710154,0.000583025448284051,-8.11784385583548e-05,-0.00150210725371771
1.09,0.129601868353535,-0.170778864326598,2.24066341978904,-0.0532248951543047,-0.0600504245536208,0.0136771049616092,0.213892226642206,-0.249917124304167,2.0452212388211,-0.0155775866588301,-0.0477609735354161,-0.0443318990602509,5.59331913348377,-0.00204904393355703,-0.00186154983738023,0.00145794413521698
1.1,0.128137675437317,-0.150537486594121,2.22584624326229,-0.0359374748381728,-0.0496523067611134,-0.0226166073079728,0.255722897628073,-0.269306308638926,2.10800158461839,-0.116449029108246,-0.107537971094072,0.0264699462006433,5.5537457530063,-0.000379750946141509,-0.000706879911214068,-0.000176160658348048
1.11,0.170400532444395,-0.133527726064022,2.28640928464615,-0.0528939713917151,-0.0512465886120313,0.0288345393412818,0.303016228616904,-0.240740151529032,2.0891198018353,-0.027915706485761,-0.0453142591341802,0.0114628879266643,5.51474786723149,-0.00207833394461576,-0.00199237076188316,-0.00189254198304839
1.12,0.188347373325563,-0.125720665577233,2.29114168828683,-0.0176657713464737,-0.0266452242610742,0.0234056407768148,0.304223401436741,-0.235176232710932,2.05908226066936,-0.0979780828888423,-0.0945613152928115,-0.025036245285176,5.55968540498935,-0.00204660167340708,-0.00188105412541957,0.000103373994950319
1.13,0.194561155881698,-0.120901548959595,2.29535292994425,-0.0429572993390755,-0.042879131478946,0.0122252857812377,0.331070151060942,-0.254462318653184,2.10727391037034,-0.0950754718788076,-0.0874607171904878,0.0200703177234563,5.48923301718038,-0.000989159423374734,-0.00120563645118427,-0.00151382240077679
1.14,0.185197490984966,-0.15119749130476,2.30741200560976,-0.061208428031188,-0.0601023236796178,0.0109423942097651,0.291353079792425,-0.272009721999132,2.02944440139181,-0.0679468015348828,-0.0788542724275925,-0.0303560246298857,5.52767227122845,-0.000662184818788615,-0.000860467111032704,0.000924329012060048
1.15,0.180365992249827,-0.150917858305714,2.29540160191493,-0.0444853950755673,-0.050561291663785,-0.00287812938392907,0.298564559609986,-0.257359130457018,2.08599736874945,-0.0508058772395506,-0.0594074258722868,0.0266854707691716,5.49810860877608,-0.00199581646055457,-0.0019481786168979,-0.00111338126684073
1.16,0.151938367334314,-0.180279642796326,2.3014461866283,-0.0671983894938445,-0.0728780787859918,-0.00927876164983717,0.261518994306858,-0.320557542999792,2.03192984629765,-0.128937881398498,-0.127490767219862,-0.0411176686704399,5.51458111310201,0.00140691387100725,0.000515947741980534,0.00238396637325995
1.17,0.153895796982515,-0.19092622930329,2.30322025848441,-0.0875714634276243,-0.0898635692917169,-0.0259108716891137,0.27429209236166,-0.29402284424223,2.0741579215914,0.0161239096662388,-0.020747798176099,0.042607797483893,5.46707014372497,-0.00144803101344479,-0.00149614334921103,-0.000792447057034064
1.18,0.195481000176658,-0.147016762606554,2.36580206581606,0.00333455123958127,-0.0145179445263153,0.0414175540385186,0.321666302857277,-0.229524798873193,2.0731623191985,-0.0701698493916306,-0.0730840483234085,0.00280993461572921,5.49819940690519,-0.00395032269773119,-0.00362068883438836,-0.00204141909246676
1.19,0.205194165962731,-0.134098056497572,2.37126002573185,-0.039007366778225,-0.042555334915033,0.0184889920470313,0.364943259966548,-0.309223459677385,2.07810353578004,-0.178639510625517,-0.162551010193988,-0.0298968550109131,5.43081789278076,0.000853310850035131,0.000447646345765439,0.000554370673337133
1.2,0.214589858707022,-0.175338446420156,2.3748693431743,-0.0920650999522157,-0.088230464405048,-0.00399935449443384,0.331494949203037,-0.294690495583088,2.00766338156632,0.00666995895464727,-0.0116366206515865,0.0175040040300794,5.45188613461163,-0.00127901382888939,-0.0014610838448186,-0.000637578491595369
1.21,0.169148289451656,-0.206496214291986,2.32770196642685,-0.0500287085126289,-0.0597186335438331,-0.0167283713762006,0.259231216215387,-0.320534818195822,2.03391519902643,-0.105134813416078,-0.113686064018415,-0.0341841210517684,5.48632951949898,-0.000210153141143222,-0.000808524506411545,0.00240886944616315
1.22,0.178103729761723,-0.182243828181938,2.38159146823559,-0.0657089642153107,-0.0713994061872348,-0.00814725915235271,0.334313808815671,-0.306079390767216,2.07581426244701,-0.0384909054492444,-0.0629218774835333,0.0553369137913937,5.39683804595223,-0.001423804430356,-0.00130882088104303,-0.00222880220150416
1.23,0.207882659406744,-0.179537040202976,2.41112350179687,-0.0377100761395812,-0.050458471457765,0.0297568196980033,0.32896495786281,-0.294085736325808,1.99876738554577,-0.0847017665141967,-0.0834003308619671,-0.0418550319464946,5.45495671012912,-0.00166117647467857,-0.0017220356458762,0.000589448508715381
1.24,0.190840032348966,-0.193399155049028,2.37760291347505,-0.0723096430448258,-0.0736882348417547,-0.0245538559045527,0.328322357874669,-0.349579694288376,2.03922292975359,-0.10993820284575,-0.110503813939682,0.00509909001441074,5.41270621454065,0.000835341175324106,-6.48694625851148e-05,0.000917566174305649
1.25,0.208193187406169,-0.200770541496125,2.4185835491933,-0.0695177337693567,-0.0722451969778674,0.00679177417784521,0.338884270491278,-0.303134434140687,2.02521416801486,0.00351457515043993,-0.0372106696378412,0.0232067745092374,5.39729272210307,-0.00241025744727527,-0.00202338391017233,-0.00141162375092702
1.26,0.26055411322961,-0.137467326994701,2.46919375827132,0.0192606510736324,-0.000330578679848766,0.058631265078837,0.412773404624546,-0.239821858524242,2.04883975312312,-0.0921091213159966,-0.0770615629673246,0.00983929828091609,5.42848224085563,-0.00451950417580736,-0.00430038824126607,-0.00315886194064175
1.27,0.224873926389642,-0.182130350299397,2.43345466431414,-0.0769676731808188,-0.0739971366281179,-0.00479432475300043,0.38224941253915,-0.407668469319411,2.03397425214982,-0.227096019722816,-0.21438734948321,-0.0755860946857493,5.35285047703467,0.00410527568367028,0.00267927150809239,0.00381256551675251
1.28,0.195846844346941,-0.268827750365305,2.41548212226277,-0.152305496140759,-0.154781344712157,-0.0624774502173052,0.290477797636635,-0.370037962849455,1.9499635841337,0.0976507578444052,0.0433273249388507,0.0536515215366456,5.42299821135426,-0.000301787855750697,-0.000944649448536074,0.000409150154732087
1.29,0.141531489424514,-0.276762064206985,2.37598965664321,-0.0439380608499235,-0.0684225621902539,-0.0295081739685653,0.236118576131931,-0.373724119484985,2.09575832247334,-0.0902446302081297,-0.119460038917896,-0.0342900412677616,5.37191213583423,-0.000848866962831854,-0.0012300800338385,0.00301011666923726
1.3,0.162889611270421,-0.237628516606081,2.48573848193833,-0.0836605720805121,-0.0982132817195421,-0.028617235415854,0.344013689361328,-0.391905218972184,1.98045167962413,-0.0844087225561476,-0.0994541429420306,0.0512708103288357,5.34746019313022,0.000742820459640478,0.000249085051430455,-0.00107889526882355
1.31,0.205218111000091,-0.248355096212647,2.45010688449459,-0.080481091819601,-0.0885345954931883,0.00724577562936843,0.330997513615219,-0.362207058099569,1.98188493762707,-0.0155676309571854,-0.0436762222521729,-0.0338546968807838,5.3709223778618,-0.00130664510636169,-0.00156409590281934,0.00125810916113302
1.32,0.191279688011593,-0.249374625199946,2.454290350687,-0.0622871109144051,-0.0763617881253368,-0.0359932461509202,0.332496085910404,-0.393603225719342,1.99543496891909,-0.108835724256807,-0.120104075975346,0.00793744184998901,5.36002703754221,0.000325406042844882,-0.000345099617117074,0.00132070312332071
1.33,0.261089213809129,-0.194838648162051,2.53238906363731,-0.0391417048509675,-0.0470438282363341,0.0411096919879338,0.447609248341003,-0.308568582867478,2.02925695424628,0.0094418186330787,-0.0239325118485485,0.0601286555823682,5.2952236335634,-0.00433724678637621,-0.00371616955251993,-0.00475219870995537
1.34,0.281247775510305,-0.191810202971,2.53740904794815,-0.0108579126481244,-0.0304321610262578,0.0434251543407072,0.44023260393632,-0.369335941325578,1.94149435474164,-0.197307781871838,-0.170961959005087,-0.0857266112534323,5.37112504155903,-0.000247921990828836,-0.000496115366863352,0.00203098870312606
1.35,0.276431063435945,-0.222097498177133,2.50739711677196,-0.101331211837321,-0.0946907738970694,-0.0216969919867277,0.454141994751628,-0.40774823903664,2.01729711097816,-0.041735508917505,-0.0478420847045494,0.0527951944954649,5.26093283666754,0.000183526770806511,-0.000631885443797822,-0.00147564894339194
1.36,0.280014296145025,-0.244596931998252,2.54428934765627,-0.0441419013414089,-0.0501738407064499,0.0288765176962116,0.392531450870894,-0.332104434989004,1.93741391568816,-0.0234787695999699,-0.0623611039811402,-0.0251827736494738,5.3445750109304,-0.0032033831720354,-0.00277016029174107,-0.000153828609972312
1.37,0.189522330352716,-0.285724961566246,2.46400164278867,-0.0998523742950121,-0.118609593088301,-0.0643211476031563,0.340819550743204,-0.503991085762536,1.94231072969426,-0.215551672743939,-0.196252051294319,-0.0494128475876005,5.34161979664904,0.00543564805832601,0.00291348429262854,0.00538261910859255
1.38,0.271935581408802,-0.253510502942276,2.56251652844098,-0.090133329018155,-0.0892049560050789,0.00898336892331895,0.436386776387405,-0.310752174137257,2.05586435824203,0.206032379897228,0.0971828231662591,0.140308243661395,5.19811719991408,-0.00688291165667359,-0.00557532445552108,-0.00702655688099986
1.39,0.269293598853582,-0.222731923106225,2.59110834520424,0.0511298955947083,-0.00670085035422711,0.0588287928208177,0.402382379462358,-0.376556386809598,1.86941832217214,-0.319582528218562,-0.252305863336735,-0.148928072868116,5.4426320637968,1.31701846239324e-05,-0.000401228095252314,0.00432438092351643
1.4,0.241171003018027,-0.266754068898291,2.5094972651918,-0.181018981927378,-0.161626373939965,-0.0758015348554398,0.466872795416259,-0.537667804044814,2.10950246322424,-0.0656512116348641,-0.0620183441072135,0.0760760347968931,5.15216831881079,0.0051565034036248,0.00189920006268194,-1.18680170567751e-05
1.41,0.247398383240663,-0.357050138137376,2.5922907006179,-0.104148994871872,-0.103299763983897,-0.00973011817850086,0.305506263935724,-0.36043868906234,1.9078158089147,0.138753370243535,-0.00658263836712147,-0.0329262372174947,5.28486959600312,-0.0042830963133484,-0.00268867760030659,0.00201489469007894
1.42,0.231053212721813,-0.239769862461244,2.57135094467397,0.0191855731874827,-0.0416757596652996,-0.010139436948081,0.42520257937878,-0.391254716168563,1.97658743184866,-0.211478099324449,-0.149213720357335,0.0442266552254811,5.30530249757875,-0.00146624538072056,-0.00144834848077367,-0.00157524909369588
1.43,0.318561207489786,-0.216082108779997,2.64591949007108,-0.0831965928387646,-0.0630228870271548,0.0568983454143938,0.549407659815982,-0.449897924813224,2.00594308941582,-0.0641585475741842,-0.073250995931334,-0.000522954570723613,5.13879497150149,-0.000411716303686852,-0.00145470681467258,-0.00265982766497989
1.44,0.331752892271276,-0.283394161955674,2.63351557393664,-0.0577595313364815,-0.0654385652836104,0.00635695461173191,0.467210007633742,-0.400497104508871,1.81791593780464,-0.0515261338339743,-0.097757535425129,-0.0510069806794232,5.31049737350475,-0.00182303651051411,-0.00103165236142822,0.00212001617419676
1.45,0.314923090985821,-0.251820234288901,2.58057588955472,-0.0439028992470946,-0.0664404198814906,-0.00389602258592238,0.500979542426062,-0.425659124820335,1.99377292327259,-0.102793104694291,-0.0735369022200137,0.0578871285440735,5.20238267872651,-0.00124953681530609,-0.00173857983639467,-0.00254152998233463
1.46,0.308778186233514,-0.287174988110325,2.64285980887362,-0.084250269139005,-0.0771774686722941,0.019449101387656,0.468942724137174,-0.471377406657753,1.87078486924949,-0.0938281780647741,-0.120227057064662,-0.0573280821255734,5.23448147933155,0.000699215010150258,-0.000230111036360856,0.00178807817426695
1.47,0.325908962615591,-0.280454455144399,2.62767308838459,-0.0583355639769062,-0.0738308221270888,-0.00432674190610488,0.502827386862987,-0.401162942438238,1.9360868251258,0.00105359472959768,-0.039892166360304,0.0535896099775091,5.2011728341833,-0.00329655484795163,-0.00241106288525348,-0.00231649430213257
1.48,0.286537442472851,-0.3110643819817,2.61789483118059,-0.0687279023458978,-0.0907798590408074,-0.0070644814325359,0.435963183381518,-0.512759445915093,1.85683029487266,-0.199096390250326,-0.167030165510526,-0.073848866605507,5.25183772721438,0.002922084125223,0.00110280642363423,0.00382479425066336
1.49,0.318938431353892,-0.300460502577652,2.64411479472673,-0.102169439825006,-0.0964508262876923,-0.0129400411937587,0.506135809051209,-0.431547950847705,1.95661436255866,0.0878825425413804,0.0122070443442135,0.0956442151376638,5.14186263102578,-0.00330280384753564,-0.00298846942255114,-0.00391048771033289
1.5,0.335823650171726,-0.284902870951664,2.68811512913316,0.0054284235045768,-0.0332418252116027,0.0493141445114934,0.488710912477119,-0.410071719236321,1.85643254555166,-0.167702270403566,-0.154897720118293,-0.0750020838355602,5.26659798904113,-0.00200409092952392,-0.00169705294722582,0.00125456881985823
1.51,0.317434547704892,-0.292244714432048,2.64655184679338,-0.112766449304355,-0.112386218612686,-0.0330118859575676,0.545233907418792,-0.558760382169865,1.95148976605352,-0.131234337913316,-0.115437053401321,0.0227201414152659,5.11207687476769,0.00315613779846634,0.00119863494640845,0.000480182524622274
1.52,0.353101533789559,-0.346662142594762,2.69985772641969,-0.0916612441959084,-0.0898837313354378,0.0115229682054338,0.475374301361499,-0.414074387508319,1.83879180875799,0.0884558421532279,-0.0021417733615757,0.0126478871866811,5.19054854725019,-0.00389318536432866,-0.00304446095157452,-0.00113704767653074
1.53,0.35525504908276,-0.260909395793793,2.69672538082687,0.023295547438509,-0.0186770724015547,0.0366078396311314,0.55138807686484,-0.413316218779167,1.91993493274812,-0.176063561144918,-0.142895690709985,0.00045839481109923,5.21122745284622,-0.00282304306196132,-0.00263347729470166,-0.00169146378915391
1.54,0.353726755938494,-0.29901426110477,2.7100722971614,-0.113211684572862,-0.105205321981598,0.000914228678806192,0.588551318939612,-0.589335649708368,1.9143677184952,-0.158686825841085,-0.153575469495966,-0.036494573557756,5.07592391395677,0.00385529634396864,0.00201677440099709,0.00168372594231561
1.55,0.393934131765069,-0.35339756581795,2.73144968148421,-0.0902694774589174,-0.0952883244364233,0.000372356582665351,0.516318514977441,-0.408145023050025,1.81537747250224,0.124143645265734,0.0411463669642819,0.0486421753612713,5.1655720993103,-0.00496619464010986,-0.00383719390276644,-0.00230305664212498
1.56,0.319590269605022,-0.329416503392471,2.66617111984569,-0.0179356708615119,-0.0587099662375076,-0.00454633418319744,0.479616066494077,-0.522948655743088,1.85498235782517,-0.26648499553392,-0.220804240992419,-0.0703124919382331,5.20942334694974,0.00200337848727398,0.00070395053740506,0.00354641476719279
1.57,0.363120257922331,-0.320791861230934,2.73973997975253,-0.128686034587945,-0.117907245495528,-0.00699433238246391,0.603259798083175,-0.528671905616086,1.9221800340369,0.0505620884497918,-0.00295690839489651,0.0925608402977431,5.03490140409497,-0.00106662302549916,-0.00146850191179425,-0.00405492292541715
1.58,0.425220134653906,-0.319450334224817,2.78759284163818,0.0105716043482458,-0.0182286167436737,0.0719901472502001,0.552849623348678,-0.376772219656366,1.80943595034962,-0.0593889368952075,-0.0800521441716755,-0.0581116545544213,5.20740365408717,-0.00528692712192231,-0.00448423043479826,-0.000581497738251046
1.59,0.35619474429545,-0.311302415048759,2.71172157079879,-0.0810542883751003,-0.0930446633040326,-0.0334641702516585,0.608961539925169,-0.629235751999908,1.90579888700118,-0.271762801429817,-0.235695061444132,-0.0230079682538029,5.0562095800448,0.00534100254071054,0.00319153141489081,0.00267872155191686
1.6,0.379181585752362,-0.422055244706777,2.74815198482503,-0.173934362793252,-0.167309002298684,-0.0306172119546122,0.511295897189216,-0.532416577391578,1.75254060104061,0.151203083680874,0.0555972680085013,0.0390283112626223,5.15440459721707,-0.00106816852834381,-0.00135760918941736,-0.000405770470965899
1.61,0.343605569228281,-0.38277340434811,2.70220873777656,-0.00375064824105251,-0.048209710503668,-0.00292486519597042,0.471113711417156,-0.462185956287241,1.9546005412165,-0.104166867934171,-0.121394520870172,-0.0247039633400011,5.10936342561517,-0.00317537737116404,-0.00280858686173236,0.00132177350345918
1.62,0.363033401606639,-0.320281688062822,2.83090565672732,-0.0754695621322455,-0.0881119310997007,0.00376789418597108,0.638185080422076,-0.598079029454335,1.82333482467892,-0.164894096504392,-0.152386711164078,0.0380080449488025,5.03100109679046,0.00199234249773144,0.000916693260755854,-0.00197894058822677
1.63,0.401864699215952,-0.415469163690603,2.75433657778531,-0.128582190870224,-0.128283048291759,-6.31441798205207e-06,0.547887048552785,-0.55885332729525,1.72995649797507,0.023390310669111,-0.0337465258703263,-0.0551145029344556,5.14178002702691,-5.2986015115675e-05,-0.000610844998566818,0.00259754660813072
1.64,0.384643729219964,-0.384600365505445,2.74250992195542,-0.0398823516539212,-0.0695849496055595,-0.0246097698249711,0.547449010376422,-0.498909352597185,1.89307809933902,-0.0510226012616824,-0.0806933490807615,0.0527258973294134,5.06490103365756,-0.0027579416236864,-0.00248892880486092,-0.00132599315892668
1.65,0.358204608762179,-0.391485406518981,2.79678101151561,-0.094691690479134,-0.113813673834595,-0.00526760937142804,0.57482198672708,-0.640607641500925,1.7462792456688,-0.179514255188136,-0.175715276037216,-0.0511211884781453,5.08875931671434,0.00377856123439894,0.00204237735383196,0.00266303830430913
1.66,0.426584092910333,-0.399206183823864,2.79090862227188,-0.100302930138974,-0.107751416206363,-0.00293032363173401,0.606890369945349,-0.507140352159901,1.83427501555871,0.120250730551696,0.0413112158080947,0.0719234922074408,5.02450435227897,-0.00423342873517304,-0.00360295277816574,-0.00325716208951768
1.67,0.400009596129179,-0.390537678703045,2.8058984139449,-0.0134795208575085,-0.0547905701890271,0.0150815082493709,0.565149500236443,-0.562521223101732,1.74113859843831,-0.230299928778319,-0.206365490330231,-0.0816728677393758,5.13463669011542,0.000843561535123135,4.82363546691224e-05,0.0031561301291628
1.68,0.423617615191414,-0.376916614126097,2.81021015116975,-0.124400988673368,-0.123669045579608,-0.0167473133843994,0.691976667866981,-0.627067481975961,1.85588855109378,-0.00399375223367668,-0.0368112401163631,0.079685512232878,4.95630746465395,0.000348482153421021,-0.00042734915369708,-0.00298767122093318
1.69,0.474257591003085,-0.414814648475737,2.86134494897604,-0.0367328143285474,-0.0568219151777622,0.0461321138263722,0.603126274072605,-0.486140932622624,1.7195404020733,-0.0198303873174966,-0.0623052043118793,-0.0519242211846101,5.09248048086955,-0.00380804595806294,-0.00325180278267118,0.000297622412156614
1.7,0.421488467313907,-0.377649939592551,2.80441686639788,-0.06136305275719,-0.0844203844310326,-0.023283193463208,0.671035218435723,-0.647898029901693,1.79567592358113,-0.206156386856341,-0.185663330730881,0.00276803253607318,5.01581004444851,0.00263332793686423,0.00137631019659721,0.00096673720778826
1.71,0.465386542199066,-0.43657909246103,2.85022055106246,-0.127653834457789,-0.126814103370154,0.00559906471414462,0.656473965716414,-0.597830819898933,1.73207313383026,0.063396832758926,-0.000590539929276143,0.0241257866636441,5.01304608494516,-0.00121213450444574,-0.00139615849410002,-0.00141363355517184
1.72,0.448818672143254,-0.433480948022014,2.82483464799842,-0.0313772029141691,-0.0645974546128381,0.0033805738436073,0.596412846631167,-0.549854289509834,1.76147118887456,-0.101925241695624,-0.117322669040202,-0.0358597830255818,5.05927785137434,-0.00173576065762083,-0.00179023804453479,0.00153946927496416
1.73,0.427104498197252,-0.415134234819533,2.84953658669092,-0.0989687431941653,-0.112871040300866,-0.0213478974399138,0.68187566423403,-0.67860640907579,1.76168319381235,-0.126212810359282,-0.132695626592867,0.0258739187033551,4.97578097943243,0.00252250919785785,0.00114753064522122,-0.000224428522586836
1.74,0.498533938448548,-0.441311221194872,2.88432087151336,-0.080851333641097,-0.0906029783097004,0.0307914584935431,0.67170962347068,-0.542243772561159,1.72624238467801,0.0733018204433787,0.00213834850622155,0.0125718575375928,4.99584127015961,-0.0039695601821473,-0.00326468283265196,-0.00204063771718578
1.75,0.471096490630833,-0.414312002654194,2.86292070219411,-0.0213021737649423,-0.0583267243033332,0.00654631743933754,0.672415835307712,-0.618169956405498,1.71353278887204,-0.208767468434005,-0.184869016413305,-0.0434897146716048,5.04110543763557,0.000688160822198142,-4.71116486712213e-05,0.00175294633457156
1.76,0.453846299188645,-0.47052672794352,2.84534135403347,-0.15652370246975,-0.156445131502834,-0.0386043519385162,0.692361163434376,-0.733878090516237,1.73441692237055,-0.0419856927481318,-0.0759024153994936,0.0184537147621716,4.97127972716207,0.00354984914396513,0.00147638954332059,0.000946901952552074
1.77,0.524763711885248,-0.464710270472176,2.91191340964299,-0.0400417135708475,-0.0617906610643829,0.0354392510267971,0.667328201011493,-0.476861579124109,1.79004538384259,0.120831407367593,0.0215479247843851,0.0441679827176236,4.94696573355164,-0.00728116517225742,-0.00565058026593732,-0.00371605872285704
1.78,0.456485346978316,-0.421122411976707,2.90236619397992,-0.0227856218568034,-0.0742586424584415,-0.000134186465061734,0.702249465024194,-0.726167144498738,1.63790996395291,-0.360499742174478,-0.294859471775678,-0.0962708735121491,5.03184517731085,0.00520990916728326,0.00327313601713101,0.00457589319496073
1.79,0.512216134735213,-0.491884642705061,2.87290689431507,-0.187592742443504,-0.177220063496653,-0.0315898230551331,0.744791134827973,-0.705032700770528,1.74939302230123,0.159880809750564,0.0812721247276266,0.101891256250925,4.92195358113386,-0.000292170613478258,-0.00136344412570516,-0.00333135923425053
1.8,0.50398708872807,-0.518253176322378,2.90410453649586,-0.00525417526838787,-0.0460501313140844,0.0249724247104552,0.599718594635049,-0.539765933238765,1.74271181078917,-0.0746513122965735,-0.123946196975934,-0.0847242554330935,4.99988962914188,-0.00364998431673802,-0.00297363759381504,0.00283763212724425
1.81,0.459681070467299,-0.435170601546859,2.93076238732203,-0.0902493357425926,-0.117783130338482,-0.0387667467930169,0.778957596449325,-0.771407726940918,1.7087575330908,-0.20572839866366,-0.17909918030855,0.0543436931580211,4.89399583592721,0.00439747826293542,0.00261896448929337,-0.000739945892416941
1.82,0.55374147360302,-0.525351964310628,2.93066624286358,-0.130989614120942,-0.126495695681258,0.0277643053517791,0.709290792039653,-0.626981672936465,1.62686605017992,0.138052197066925,0.0425151836320825,-0.010309564196634,4.96179560428059,-0.0028627843562341,-0.0026730707438705,-0.0008275806217881
1.83,0.53954791318012,-0.45525471484103,2.92485664004207,0.0204707367374794,-0.026714297738645,0.0164334968386799,0.729389000090129,-0.581001171924123,1.72631422096871,-0.148493330684132,-0.148255582553093,-0.00167916887096917,4.98108074438025,-0.00302418027371517,-0.00265571940883248,-0.000662258887001129
1.84,0.521018046205399,-0.469709074014481,2.95025813064632,-0.121095625700394,-0.130644995059087,-0.00648193849549771,0.830377416511315,-0.825137920101102,1.7030544953687,-0.17822448160987,-0.170658310434942,-0.0205559798888896,4.84870589624143,0.00543103242292426,0.00325610459708819,0.00128649541184011
1.85,0.587220727007297,-0.561563567156605,2.95641488203831,-0.120526952457821,-0.128814120791668,-0.00412542113461251,0.709226935863728,-0.607997088941425,1.59788786026682,0.174479559945531,0.0698045918767844,0.0314699996171704,4.94882835299166,-0.00423145386583851,-0.00349982979364674,-0.00129164949191984
1.86,0.525686891193578,-0.485157885929407,2.92085669012131,0.0107862678184003,-0.0425435894848876,0.0089206077971219,0.719497673707037,-0.65072875386785,1.68443247989053,-0.224646922983335,-0.200280990560483,-0.0317203229937156,4.97344666084555,-0.000287045643150484,-0.000820606182555647,0.00108751429979228
1.87,0.539619954445617,-0.499397630939635,2.9701661968735,-0.145880853134805,-0.146969172208081,-0.0126040095901606,0.847927772013728,-0.823436279279152,1.69168480448836,-0.0636667943288492,-0.0928542413343946,0.0220321814867104,4.82320554866936,0.00366057868204839,0.0019622128272911,-0.000448366179360934
1.88,0.573943001915005,-0.605645317551419,2.95361272813856,-0.105477549780177,-0.126431944846722,-0.0156374787646176,0.672671524024531,-0.644692269920903,1.56839326531232,0.080182653597465,-0.00660490110342643,-0.0292292021852837,4.95828149154018,-0.00229488483963664,-0.00204931196295844,0.00211019474667271
1.89,0.527625637598081,-0.505560031239433,2.94226169375733,-0.0270731583251904,-0.0721798776118274,-0.0142950296654833,0.756527467921761,-0.689938278417847,1.68252742264735,-0.144814393919144,-0.144957288848433,0.0420896823392784,4.89670943028445,-0.000412110563338761,-0.000857162416996995,-0.00132159666487775
1.9,0.59770543642233,-0.497042816529925,3.02656370420383,-0.0870598913963086,-0.0977780607452546,0.0447811514017731,0.878144067564796,-0.748099240462519,1.62067796513929,-0.0407451410592359,-0.0757959535489201,-0.00521619700768942,4.82879321041284,-0.000156244752031788,-0.00045644688701936,-0.00187491529038122
1.91,0.60246305081069,-0.581299020536138,2.9632050699122,-0.0898099207461347,-0.114843223681938,-0.0183988776315268,0.769462286372897,-0.745885801637257,1.52284607364111,-0.0699808327342779,-0.09475888028593,-0.0538981875640126,4.94792833499974,0.00119199001992868,0.000135448595847987,0.00340723126102481
