time,x,y,z,roll,pitch,yaw,xdot,ydot,zdot,p,q,r,thrust,roll angle,pitch angle,yaw angle
0,4.01841953230695,3.01841953230695,0.0184195323069548,0.0184195323069548,0.0184195323069548,0.0184195323069548,0.0184195323069548,0.0184195323069548,0.0184195323069548,0.0184195323069548,0.0184195323069548,0.0184195323069548,9.10291307249519,-0.00716066496079051,0.006524007260151,-0.00179868604854086
0.01,2.4193717654818,1.8193717654818,0.0193717654817975,0.0186032495720667,0.018426810207794,0.0176671510422539,-0.0625728264783481,0.0990179002488774,4.24995252058805,-0.281821973734378,0.26345672700372,-0.0284188802089253,5.77342812459148,-3.8139799302667e-05,-0.000371063465537073,0.000470504653221545
0.02,2.63916844824224,2.03848868371825,1.72839207843136,-0.112929860411428,0.108454864902288,-0.0106664533178977,-0.0207459668506955,0.0248191233946536,0.921465986511319,-0.00120452315524537,-0.00852094472649438,0.0114009498598679,7.08913612851871,-0.000176406895021138,0.00191205786943885,-2.95647753367113e-05
0.03,2.66017530674542,2.01361768992174,0.407728124588474,0.00438052310833004,0.00478608296946432,0.0111979227267375,-0.254344876302751,-0.249971775921542,2.29317370231929,-0.00450711618512081,0.082203505754562,0.00464931648785505,6.99617182434713,-0.00408383947850668,0.00313012804914829,-0.000772152398427038
0.04,2.53950986718165,1.8760862415562,0.998624250276543,-0.0167371957912585,0.0216758142576066,-0.0133312849624112,-0.0534356505466596,-0.0225375374858923,2.17268110152082,-0.180096874487242,0.113683142309344,-0.0277443586359578,6.69433777425637,0.00023563905169428,0.00272452698540397,0.00193506262118028
0.05,2.6776587646698,2.02508428627152,0.959612617662134,-0.0421700105912254,0.0805231590535967,0.0229797461954261,-0.00947576103920872,0.0125284030478792,1.92837252865891,0.032029026489947,0.136983466167744,0.0677684616629618,6.85839569201871,-0.00434239623226035,-0.000685040096157602,-0.00429675371251526
0.06,2.65532966699302,1.99949401170933,0.850867364421604,0.0116128872036559,0.0574162265244187,0.0246015537364955,-0.186470514384617,-0.100897273759962,2.0947430402973,-0.182330190225067,-0.0198625502626087,-0.0906946534389314,6.82238758378113,-0.000980291776482905,0.00368505726473345,0.0030993193577727
0.07,2.62213503686241,1.99289610915017,0.984127101929073,-0.0404804629220539,0.0305563329802935,0.00122240368004625,-0.0925465875950532,0.0585840025466704,2.10007193945597,-0.0175323122271276,0.178936934851433,0.0935160280402741,6.74245288366135,-0.00358008917261699,0.000244629452098362,-0.00449551103719649
0.08,2.62488128763006,2.02257809026883,0.952783483219837,-0.00585238416232473,0.0786079310356384,0.0382498097616449,-0.0925389209400581,-0.0849453130207948,2.01187737783701,-0.151999981438916,0.0198184557758313,-0.0918857692350365,6.80144810013834,-0.00121726468416832,0.00191563937159313,0.00251833808321957
0.09,2.64092950885533,1.97985191715726,0.944211009989306,-0.0475891096190757,0.0300140435392651,-0.0191947111343416,-0.171127114791511,-0.0117771185144657,2.10477540301642,-0.0431568020622757,0.0976523769200299,0.0662391164183608,6.73646346179481,-0.00233450266831744,0.00200520568315202,-0.00224167165500345
0.1,2.55713134905013,1.95963165424973,0.955855301894806,-0.0507075468176167,0.0159841060904636,-0.00118314552656631,-0.161006018669552,-0.156646200232166,2.01428776426808,-0.1275415141348,0.0614311642498313,-0.0712993104405247,6.79266258760852,0.000783682965339635,0.00333485087788772,0.00343012920695217
0.11,2.58258101694908,1.92065608347152,0.94149297045274,-0.0682475486234887,0.0163479887173578,-0.0386236388385685,-0.114166378492752,-0.148039743316991,2.10173326677323,0.0122368238435435,0.128894799672272,0.0608748677318862,6.72793360860272,-0.00194337969359456,0.00184786495633946,-0.00105330836351265
0.12,2.64063713549146,1.96321614499396,1.02299087422842,0.0224605702493606,0.0804480932273367,0.0459589381157898,-0.0589580984053719,-0.118691829345882,2.09132326698597,-0.0711137521107938,0.101221768429888,-0.00322460588622615,6.71345319227224,-0.00461124669818092,-0.0003517690387093,-0.00204913095410988
0.13,2.61844690048034,1.92987564394573,0.999089303782839,-0.0463829587007609,0.0354267162098059,-0.0163655471896922,-0.232744237409044,-0.0315483902744104,2.06546593925883,-0.207394323940359,-0.0132868471064233,-0.0543878476655733,6.71248381371172,0.00179959365429306,0.00403778714325093,0.00333760518009292
0.14,2.57611338051731,1.99637511935608,1.02414224884616,-0.0779267381874737,0.011857021669529,-0.00633372370424146,-0.122606088621378,-0.104948822320778,2.09726543009856,0.0705367412757213,0.177624231858114,0.0791233640398857,6.67458369861442,-0.00364792401825366,0.000612620982206583,-0.00344298618286613
0.15,2.59833270019531,1.94257129472394,1.03222213009265,0.0142536068231212,0.070167772630696,0.0207681098679254,-0.11444585920706,-0.193908649540687,2.06556789881473,-0.168094211148526,0.0305746596569532,-0.0795463280139331,6.70790076988411,-0.00154163679361531,0.00162974092421108,0.00275424889258207
0.16,2.60829925947674,1.91210900147024,1.03641083494278,-0.0765633457617754,0.018352000716546,-0.0332623940405929,-0.209625169547622,-0.0412241145361653,2.11871308614777,-0.0768452624197097,0.076319352891719,0.0554527653522222,6.63605669125942,-0.000257909982834879,0.00258619771410361,-0.00105788086549216
0.17,2.54168863256743,1.94952710003674,1.04458618113812,-0.0656628207398318,0.0135453589764155,-0.00163527053566023,-0.169908320063589,-0.225584009976228,2.04432347928952,-0.0458711545356914,0.0902477307830016,-0.0443800543960256,6.68294423508401,-0.000735299474594194,0.00239936333672864,0.00217526591640898
0.18,2.56213801001139,1.87606516620864,1.03323338588834,-0.0502153331263121,0.021271478418145,-0.0411963302243665,-0.158462932801071,-0.217866628747258,2.10786698767274,-0.0621863714799179,0.087333563733898,0.0255234553482366,6.6435165209846,-0.000969710509118548,0.00217020400447795,0.000731574221029924
0.19,2.61349183047801,1.92643870346494,1.11055424149234,-0.0153745647885073,0.0630785895623969,0.0287706505205129,-0.103854542119889,-0.12369673451523,2.1215011678723,-0.0384709074324282,0.11362470120026,0.0308811752603138,6.59738934339117,-0.00402507275461029,-0.000286319925251758,-0.00284384311075023
0.2,2.60808411770413,1.9374797670356,1.1080128821805,-0.0252413094433455,0.0542513241905433,0.00858458626931101,-0.198867119368058,-0.110576456611536,2.07620237357264,-0.17928650770861,0.00305908223644152,-0.0614334406855476,6.62288261130064,-0.000138280515009832,0.00258491564935269,0.00247632925941381
0.21,2.55392229288592,1.9293269917913,1.09210232278922,-0.0959743112978793,-0.00376789988190871,-0.0368743807166368,-0.218371270690349,-0.15003843739915,2.10455531748629,-0.0339287824404182,0.105762258168196,0.0393674110385045,6.59472465512977,-0.000200729102251782,0.00244796578262351,-0.000118459413186133
0.22,2.54780966390288,1.91476018839775,1.11630313661934,-0.0390854353764677,0.0387146421699277,0.00210245450717104,-0.13947492975776,-0.259342787153312,2.10363638154158,-0.0368971661632918,0.0985511388790536,-0.0148262779503094,6.57806282055786,-0.00241506300290251,0.000936858627646239,0.000588906304445685
0.23,2.61451625148858,1.90201756063809,1.15927839249213,-0.00899333736933194,0.0677304642026639,0.00876262539621027,-0.145274216286553,-0.131052946894777,2.12030360557083,-0.100178053137783,0.0670724860830953,0.0259354332352413,6.56076366059733,-0.00298845022553084,0.000397064799554418,-0.00167211805088083
0.24,2.58740656797205,1.93181639781794,1.15986873005219,-0.0524361863172196,0.0373913764505939,0.00815790978011691,-0.220501935850147,-0.121363842782287,2.1065531683816,-0.139763927800326,0.031252708135876,-0.0366040227578218,6.54520413052907,-0.000105667318587,0.00238845268107904,0.00132720139601749
0.25,2.56920989102737,1.94995875337824,1.17984322408823,-0.0577980715697161,0.0345120258831468,-0.00341560871538402,-0.165428772487634,-0.16507563414946,2.1155802318068,-0.0138308586102199,0.119314005654465,0.0359486268582053,6.5218738312165,-0.00292532261670236,0.000404369868393964,-0.00155590969919236
0.26,2.58785506321192,1.92641815847291,1.19432240202583,-0.0101969452675317,0.0674647803542954,0.0197555604756176,-0.169452341063447,-0.180360677191669,2.10674122791551,-0.131973163349219,0.0402303577458044,-0.0270817356645037,6.5344470775242,-0.0021592396223537,0.000791577530942366,0.000317620542487928
0.27,2.59327235439591,1.92717049446063,1.2107458027898,-0.0512984537982819,0.0440251381441409,0.00287804082535431,-0.206674800132697,-0.113312578784443,2.14205438510809,-0.0948391508700284,0.0619681048343084,0.0182368160126552,6.47972098743144,-0.00160453452038242,0.00124285548265894,-0.00102392241248348
0.28,2.56796748424052,1.94696520829863,1.23026589231687,-0.0439970452886928,0.0457703642004611,0.0147099194637994,-0.191845721440191,-0.176829675725736,2.09595297828282,-0.0794803768540008,0.0729080783416892,-0.0159085590972377,6.49859449572865,-0.00210472572782441,0.000802915591625516,3.37936051378674e-05
0.29,2.53773647949099,1.88290119362733,1.19285806880094,-0.0711467984226449,0.0178538269289188,-0.0319693134078437,-0.254782028924784,-0.23046575848302,2.09952181236152,-0.127089053589559,0.030029812584482,-0.0211300344110751,6.50161305102898,0.000883147967340087,0.0027666046444568,0.00250145509622163
0.3,2.55122440834392,1.90063240463156,1.23914301275373,-0.0581953666238053,0.0330799465343479,0.000481229282202643,-0.17314409163769,-0.214262185837571,2.15073824160763,0.0204790411603976,0.133408312624033,0.0585851578073194,6.43978841610082,-0.00375941281386499,-0.000250752723773103,-0.00281004940323096
0.31,2.59613750859781,1.91745028692033,1.28508613108526,0.0152860184816663,0.088137592855577,0.0416571003972178,-0.165898276447331,-0.178779904966142,2.11497417573136,-0.158804764093387,0.0291493236804889,-0.0422727776967955,6.48040486039732,-0.00302928071647357,-0.000216185446788996,-3.76521276209755e-06
0.32,2.58759045963278,1.92128234444849,1.27674573294709,-0.0653605943937514,0.0413875545294515,-0.00480798660711965,-0.252778903770915,-0.114373953219649,2.17171565268451,-0.134063930421312,0.0254002825368957,0.0107472627606202,6.3928641496303,-0.000357427877549183,0.00188504539008073,-0.000306189912186408
0.33,2.48435579095253,1.88486677858622,1.25376395111306,-0.115352039321678,-0.0196648751587551,-0.0385832502885492,-0.300458840849355,-0.300976947356147,2.03876940298313,-0.0759976807966928,0.0562985174453415,-0.0448513842618875,6.49122345216892,0.00189681018757885,0.00320952664888374,0.00395294104762245
0.34,2.51679508155552,1.85578906506803,1.25677723979377,-0.0516328490226908,0.0322048494673914,-0.0210294479787113,-0.172065577077609,-0.311652027585767,2.20597180815689,0.0494526518724187,0.142498294721951,0.0791225213175085,6.36842688517796,-0.00445709609549298,-0.000739359659487804,-0.00276259557836716
0.35,2.56421250321434,1.84297489795515,1.33031980675177,-0.00238913837656199,0.0652164488219398,0.0223254526968019,-0.226676145071621,-0.238708914041016,2.07693076462998,-0.212299049952352,-0.0107337402561394,-0.0639950816477747,6.4508413866306,-0.000625817181150031,0.00142529593296995,0.00194266078564124
0.36,2.55243648418841,1.8873561306536,1.30356831636205,-0.0961647746357101,0.0181463171596923,-0.0186590999251372,-0.249371729428547,-0.174102280691851,2.1877377967635,-0.045530859296437,0.0858272096031312,0.0458592639180672,6.34012947531929,-0.000987069668246747,0.00114372115916636,-0.00130272529181849
0.37,2.52206752815389,1.89543290218223,1.34401198664441,-0.0462611773273066,0.041274763331133,0.00881583319236195,-0.229714202272874,-0.29618542610317,2.08444100684508,-0.0745952913723957,0.0584148074988363,-0.0359546259078195,6.39807573189172,-0.00203424680536415,0.00066584886453833,0.00126300716064286
0.38,2.54279124794462,1.85309062950988,1.33152758935848,-0.0483609649241463,0.0410406938662163,-0.0151059217820062,-0.239079322595787,-0.242090665042155,2.15563319673913,-0.107973525730515,0.0498501101833143,0.026493851969643,6.35407370612112,-0.00137167032884567,0.000873669430640345,-0.000564357679769746
0.39,2.56988221848073,1.90910301565788,1.39946361033237,-0.0318994811633148,0.0677606792683068,0.0402841284525009,-0.191605409344706,-0.194899486757065,2.15384852975026,-0.057752750527008,0.0816784023554487,0.0132722374504492,6.32421719527266,-0.00388063881354571,-0.00110422586722388,-0.0025588608425118
0.4,2.56834289392085,1.90745420409083,1.39730730716563,-0.0263629299225456,0.0665792453893326,0.018661151604436,-0.242937861777804,-0.210695000395387,2.12733208388968,-0.17211582187172,-0.00591143652169783,-0.0413594139602208,6.34478561015801,-0.0012866970898409,0.00100718064449713,0.00104369779462556
0.41,2.53456863752478,1.88985740502283,1.39241599541842,-0.0842274184801423,0.0209893085327434,-0.01123753152991,-0.270005349321889,-0.226771077079708,2.15133428791731,-0.0767812720122071,0.0684816880554686,0.0256658719190777,6.29685610738191,-0.000907877891313635,0.00106509234170191,-0.000703587422305364
0.42,2.49864156519791,1.85865033771312,1.39071405871139,-0.0694289060220091,0.0282499949968948,-0.00677944950656194,-0.271706093326982,-0.319065832658289,2.10055583867505,-0.0811134252501506,0.0500168265793734,-0.030143817892965,6.32861520794232,-0.000932099979271364,0.000990889533241625,0.00172930341287882
0.43,2.51909493114289,1.8379353540919,1.39918252772558,-0.0552232737688909,0.0375386386218714,-0.0134397350130872,-0.254090438135013,-0.289224014235896,2.15736823132947,-0.0681938260516444,0.0622710436184547,0.0350251456878101,6.28750181451371,-0.00214727828554286,0.000315978721087664,-0.00104461394155129
0.44,2.52723506095424,1.8520975144848,1.43775643422512,-0.0463659017185277,0.0464764366462211,0.0160018787071302,-0.257536807155051,-0.274129324104164,2.1314525357942,-0.115722294899734,0.038448689829248,-0.0202623246583341,6.28625270189299,-0.00157890330680025,0.000456980576967907,0.000177371264695602
0.45,2.50856223621178,1.84206144261639,1.42627149226431,-0.0794534647923467,0.0243164353022374,-0.0188992790585634,-0.290591322390917,-0.296134986187644,2.13114934712753,-0.103650984707793,0.0344961385518408,-0.00559031124657343,6.27203182146754,-0.000227659878392637,0.00136729998878957,0.00113981871158855
0.46,2.499517443627,1.83819251145107,1.44377443321968,-0.0710835978178172,0.0269159715021556,-0.00802177351201604,-0.271422749372336,-0.320763610571252,2.13857907772292,-0.0459944342291686,0.0728262935764414,0.0184329540695362,6.25471653047399,-0.00201983442991478,0.000267572414763709,-0.000512267737841558
0.47,2.52193691161262,1.8405385519384,1.47507772348443,-0.0340054658021901,0.0568593277127373,0.0143283622638427,-0.251266994144812,-0.297161080660138,2.14557729091006,-0.107700081694024,0.042036992632235,-0.00464162664709249,6.24914195837637,-0.00244658760133479,-0.000303357069142545,-0.00048178592559125
0.48,2.55098655366067,1.87159586524133,1.51135106978862,-0.0377297868886532,0.0667704338504404,0.0258200599180224,-0.23998047005978,-0.239943521812329,2.17057937788466,-0.107411686412563,0.0381426718876501,0.0139869060585902,6.21008728535144,-0.00278186498388917,-0.000609719105649839,-0.00190855965757035
0.49,2.46576827185105,1.80803042479604,1.45784544402243,-0.114173235051446,-0.0107148747650998,-0.0412081397539026,-0.379775997501704,-0.373229991919988,2.07633705371623,-0.185119194487678,-0.0367636475061149,-0.0798210855420052,6.26582805423638,0.00390468759446522,0.00381322730126124,0.00572941725701433
0.5,2.4441610392052,1.78900252424399,1.46269985988906,-0.118909848618095,-0.0181363961676747,-0.0499755549433109,-0.290207578215401,-0.398610089872419,2.18486703166865,0.106199571976241,0.160182074004611,0.103708684218064,6.17930529711926,-0.00322899650767115,-0.000450553025181773,-0.00254971010242662
0.51,2.52591676263919,1.81773923904532,1.55747168402508,0.0396102777974543,0.104055121452755,0.060759531233833,-0.21636939319307,-0.332464801372505,2.15309038323142,-0.151558923733444,0.029866449918821,-0.0364517055520353,6.24297301291319,-0.0047118572257784,-0.00265658846596605,-0.00114755818697766
0.52,2.53820482456945,1.82613219672441,1.54616398891396,-0.0762054872781775,0.0451206706376891,-0.007964571879688,-0.319394768418133,-0.256986682381194,2.22122677684508,-0.216368913172057,-0.0657327835355933,-0.0154626883297302,6.10917081599316,0.00155552778001483,0.00258334279552925,0.0010896411818151
0.53,2.47258052470863,1.84576443325607,1.57081608783802,-0.119042521241821,-0.0107659839534039,-0.00971571848264456,-0.30717236844399,-0.349235635233511,2.06542685530363,0.0227662061108409,0.122218941036838,0.0183139032427527,6.19730483604504,-0.00189113219512136,0.000187996933911287,-0.000419212959440627
0.54,2.49484011953221,1.81688640609993,1.54075787799124,-0.010322088103714,0.0783015113193151,0.0142682192821201,-0.257544212915037,-0.372738515869454,2.19448380678782,-0.106651803662994,0.0402922180883899,-0.00267706545761418,6.16080551601821,-0.00367272765170073,-0.0018300708243542,-0.000556723229702608
0.55,2.48553580319163,1.77312591014953,1.57244298815642,-0.0892299517450211,0.0196045147570374,-0.0218183242232098,-0.355736841748882,-0.357348683667577,2.13053327712747,-0.201070199497004,-0.0595278829362657,-0.0276486525579211,6.13776680964092,0.00238733382317105,0.00304706241061841,0.00232988841460349
0.56,2.4415518108199,1.78491578709542,1.56079442419554,-0.128528762406816,-0.0222913945134171,-0.0284095762696351,-0.330164675884767,-0.405951043879568,2.1193141258133,0.0428609274794637,0.12976702753381,0.0329054396384755,6.1450664149542,-0.00166441219629217,0.000111657887903244,-0.000221128944872875
0.57,2.48112746239514,1.78758087866746,1.59549462673236,-0.00558904064290411,0.0800332123677906,0.0185861150876034,-0.266870238715779,-0.398895615444548,2.18274485748289,-0.100803660945418,0.0365546392332937,0.000283090887368038,6.12801627733752,-0.00403722192859539,-0.00210341102723431,-0.000894613566631767
0.58,2.52912556033625,1.80941694368354,1.65398912761807,-0.0410235406208644,0.0660233359804921,0.0256331340994723,-0.280538804643536,-0.303629599594692,2.17757773582873,-0.177937214614199,-0.0309256589124037,0.0049197100626053,6.07881570669177,-0.00120538460869895,0.00045123317249855,-0.00146515305935457
0.59,2.49835717597456,1.83315879836244,1.65152073903632,-0.0875709824692003,0.0243561165776104,0.0156370344553236,-0.302800262220044,-0.344957126592991,2.1218145656313,-0.0762425348386405,0.0550055278684845,-0.0196140891988903,6.08952677806072,-0.00146757496358825,5.2557625236682e-05,0.000167925332905323
0.6,2.4635358319689,1.78751086388161,1.62140856819076,-0.0712852536541606,0.0352225035489598,-0.0178948411091353,-0.330382556131141,-0.412786046322521,2.12587656709244,-0.106936367799559,0.0209700206200012,-0.00494037780681503,6.09888813479377,-0.00100419346298387,4.76734574154076e-05,0.00106419364255612
0.61,2.48508493462425,1.78806084456132,1.66086870555024,-0.0577590892302706,0.0480874664319774,0.0139073637192104,-0.295344404272974,-0.369374845347134,2.16704097822667,-0.0670214071545298,0.0421537851854052,0.036208777953913,6.05392173743876,-0.00296395387860678,-0.000990779059499102,-0.00238585078411703
0.62,2.46983084474999,1.77742831140875,1.66837938187474,-0.0632952921212274,0.0348798546909374,0.0085983539260303,-0.338252184735515,-0.40515486384624,2.11213698971093,-0.165581738682539,-0.0167472214252787,-0.0550047271727921,6.0803556898741,-6.88411126117466e-05,0.000902983105442528,0.00217966172647706
0.63,2.44236808266003,1.75384211735328,1.65057249684091,-0.112922652641635,0.0021404207707287,-0.0355248022823886,-0.354037478230608,-0.430654016786129,2.14145871356571,-0.0562411786429585,0.0525743976641686,0.0341621224969648,6.04092465037221,-0.000348826728127728,0.000424612789950494,4.96579713181635e-05
0.64,2.44179186469031,1.74814135138047,1.67825614868367,-0.0643182034065007,0.0359675733579602,0.00545561141197948,-0.336432777390833,-0.447293622468253,2.13275977581847,-0.0634986575670395,0.0351340046957113,-0.00626274929323658,6.04540711114589,-0.00242316950980607,-0.000694350620679234,2.73035446466754e-05
0.65,2.44397127094057,1.73218550730755,1.68671875181499,-0.0709155115904113,0.0261274891734932,-0.0149709656437179,-0.353782320301974,-0.444869317792746,2.13030712928121,-0.150135996239161,-0.00987985914366096,-0.00939066911609891,6.03626537657985,-2.82929859169924e-06,0.000815988974929521,0.00113769132221797
0.66,2.44221211464285,1.74251507445359,1.70445435721378,-0.0987643069760073,0.0155281885611192,-0.00772243258515482,-0.341494384576431,-0.440468989215049,2.14002495659042,-0.0463118056874153,0.0551044969623607,0.0206317284805241,6.00203491511242,-0.00145083250825643,-0.000349823758682991,-0.000624256517020052
0.67,2.46095964909754,1.75707196335128,1.73487542522148,-0.0427222488247446,0.0564898456112465,0.0182756539040221,-0.315778728968611,-0.430473637070621,2.13756878473478,-0.0935356594633314,0.0214703656080132,-0.00444408615375211,6.01587906327418,-0.00303983732597131,-0.00138620074949197,-0.000658153896759176
0.68,2.43387796255925,1.72093327041886,1.71813559240112,-0.093221178920081,0.0124557833445096,-0.0232439093960065,-0.3820771549537,-0.476122535262544,2.12488226575543,-0.183982132622603,-0.0437497924030394,-0.0310177162673578,5.9962137120099,0.00187173877834257,0.00194142308394592,0.00255726008638042
0.69,2.43636468900841,1.73655771626225,1.75267312658535,-0.103389896469554,0.0122720496252602,-0.00542384906731364,-0.330002498685151,-0.449616380967378,2.14726591839243,0.0369168475709215,0.108202896562753,0.0596712985741694,5.95444810227532,-0.00347079718992446,-0.00176696796935977,-0.00257519366592221
0.7,2.47083100445649,1.75572772358875,1.78836076911926,0.000915970209287728,0.0878702365430284,0.0440717146590509,-0.305940766833078,-0.433213587261721,2.13291708927542,-0.169582658612083,-0.0235361756552531,-0.0367828338358733,6.01940528702555,-0.00331260744796842,-0.00198830499760898,-0.000322329323980933
0.71,2.45620163390576,1.73681087334779,1.77801076325189,-0.102945637775073,0.0181355610286606,-0.014592076329486,-0.361785775777272,-0.452688548147089,2.19180958603683,-0.177990860940317,-0.0467843007911133,-0.00484458852642837,5.89547367870369,0.00159999982985757,0.00182044393463141,0.000908654950166933
0.72,2.44181340280656,1.74572661716042,1.82470929432523,-0.0963797453598939,0.0184202805575489,0.0114997434269376,-0.331516559039917,-0.451364041771015,2.08591203914853,0.0296643393848162,0.106873758604077,0.0300353743196728,5.95051044152235,-0.00387033418977045,-0.00217611980051697,-0.00197044154208656
0.73,2.43827380175003,1.72079851937362,1.78280209407843,-0.0269746011891802,0.0657906305259422,0.00963999884432878,-0.357870044520327,-0.491059879230871,2.13498318261028,-0.2052562181905,-0.0594569531303351,-0.0430361690331735,5.97700657931481,-0.00103154379512604,-0.000384981472981361,0.00158915418623089
0.74,2.47096587327272,1.74862962191569,1.85344290661697,-0.0838653753404186,0.0389445312395321,0.0186490414821502,-0.3043076608849,-0.42232116796215,2.20238255910575,-0.0577472987260088,0.0435885361273855,0.0651120123869369,5.84677176657041,-0.00273211309879356,-0.00141419013638685,-0.00397168202649003
0.75,2.4608290377145,1.74985312456997,1.87068949781636,-0.0445098863501187,0.0585541732791617,0.0422427480052332,-0.336220159502149,-0.460668329541278,2.06444183247353,-0.14579541511503,-0.0166430733252348,-0.0702761485493396,5.96113582569495,-0.00208320916158257,-0.00107715722752596,0.00133226371571062
0.76,2.39184191784977,1.67266150639141,1.77980211202974,-0.133900865014595,-0.0166400326973867,-0.0635697467989982,-0.435295319139877,-0.55973059808746,2.13687191501098,-0.163133312290357,-0.041892731547907,-0.00145398645121001,5.89844650111634,0.00325840014127898,0.00219892389490656,0.00307248797966311
0.77,2.39385348910701,1.67728290443935,1.85517878574691,-0.106223598671507,0.00766634669632078,0.000237231758486421,-0.371024313433754,-0.516576243862189,2.14287433928561,0.0833077703661768,0.109905197163492,0.0651311712887249,5.85692391144137,-0.00458658570700141,-0.00248780174624,-0.00309115650681951
0.78,2.37785390889003,1.64382803947761,1.83521618527401,-0.0412926591791588,0.0332712961086288,-0.0088055512578476,-0.429412637206082,-0.581435107839084,2.06185543536936,-0.2651045957032,-0.100157021015304,-0.0946808986375512,5.95875289920482,0.00156510781592856,0.00130571710305544,0.00490258519851299
0.79,2.41418118813117,1.68100148492762,1.86875188370096,-0.129180087658516,0.00199705673801788,-0.0196867209438844,-0.345692351869094,-0.499997018427529,2.21025151376329,0.0277106617023556,0.0971164656199952,0.119698245763332,5.78341305491559,-0.00248158102143056,-0.00179414192919215,-0.00473879666918862
0.8,2.42541290944847,1.69488200490857,1.92191569749097,-0.0220380120544881,0.069460328841191,0.055179911546234,-0.364587609206019,-0.517560981525169,2.0563635470699,-0.148141220637088,-0.0386413444796647,-0.0945644267355753,5.93187307927153,-0.00290820009447603,-0.00169013781866421,0.00189386460454716
0.81,2.42298472965316,1.68607283476975,1.88803091598938,-0.0920235307909861,0.0223243155891286,-0.0278706050104899,-0.364700825634491,-0.528729852811493,2.19992440575066,-0.159542810344818,-0.0277360644932138,0.0496267295510401,5.78472349326504,0.000347831478330839,0.000390187422041387,-0.00103619525756062
0.82,2.42235610543057,1.68910491406774,1.9586163403354,-0.091552991873983,0.0301321062906605,0.0355452770771843,-0.357079775922256,-0.516891607202901,2.06725511022,-0.0239433108617747,0.0494487909716879,-0.0086797670994873,5.84211578539715,-0.00304772344247057,-0.00203803575494611,-0.00126583681632697
0.83,2.44322951592329,1.70524462868976,1.93701489698203,-0.0212634444710859,0.0780567834428294,0.0283897134898299,-0.333179347333289,-0.503306451506544,2.14897961301117,-0.148294664983558,-0.0283489408991028,0.000120051787992424,5.8509162368964,-0.00338290573008414,-0.00235611528879071,-0.00130890509559102
0.84,2.40522176538384,1.66209430595651,1.94332838177407,-0.111036229652112,0.00714859582528912,-0.0084168954563243,-0.402661386097698,-0.580278685399701,2.13129761358208,-0.196032600108986,-0.0738096624391623,-0.0338768367243768,5.77667845170924,0.00233326816079079,0.00181351618820368,0.00200005775812392
0.85,2.38078807432197,1.64003539513949,1.95203025614747,-0.127542232735454,-0.00890329031829712,-0.0165066599225003,-0.404081716751857,-0.569927593335284,2.07502876785763,0.0377633194597995,0.09178267642416,0.0391578003702099,5.80779492999899,-0.00270525421934719,-0.00187428128798643,-0.00107344683613789
0.86,2.39674839364053,1.65190102566452,1.95626606002625,-0.0190416949917944,0.0724847685769787,0.0270192598021248,-0.382242777237166,-0.560730207755313,2.13735046838909,-0.155222799611028,-0.0406692680865471,-0.0139097727144486,5.83068154619813,-0.00304421326986763,-0.00237261722254864,-0.00057195781136681
0.87,2.40984081199311,1.65804950414679,2.0002969095642,-0.0912508652639797,0.0268458587385967,0.0100851050816171,-0.366335059347814,-0.568289648322727,2.15817506254479,-0.163198367072473,-0.054698375224511,0.00227101901088037,5.72225684052976,0.000227116181050403,0.000447818868069149,-0.000582294953969184
0.88,2.36514288297493,1.6123200235084,1.98000269917221,-0.134932704908636,-0.0189430912458958,-0.0206710920424157,-0.439993892233976,-0.624424588207269,2.01981899233883,-0.0643981513826611,0.0206976268795389,-0.0312239566500509,5.81420644835941,0.000366674211728104,9.45955034389917e-06,0.00245045583545614
0.89,2.35154974847234,1.59861542783972,1.95072067689016,-0.0851447414464688,0.0216618203262713,-0.0229871093247156,-0.429450164831403,-0.624461489451159,2.15334647824473,-0.0492842655499988,0.0132311343129541,0.0423143425043158,5.74685801754257,-0.00243400074369561,-0.00181426433114862,-0.000903447417310822
0.9,2.36647166667055,1.60483915719715,2.02609672763529,-0.0674330318511473,0.0299663769390341,0.0168109317569443,-0.405036390059917,-0.614300376092049,2.07905427585803,-0.154391892244818,-0.0499496056483505,-0.0193123405934008,5.76572281924707,-0.000765618304428777,-0.000430282473103301,0.000132353401936868
0.91,2.31712237741523,1.55320078263333,1.96039781485405,-0.158978746782187,-0.0433388038361583,-0.0553634992418545,-0.486982298280982,-0.708070208155939,2.05927739071216,-0.127714391105221,-0.0338274173993174,-0.0374266995065791,5.77290745795335,0.00360127704297521,0.00167750640658247,0.0043912454770053
0.92,2.36322097408381,1.59516403438909,2.03316488687864,-0.0797428910015073,0.0309596356958294,0.00623876727400596,-0.383118466800842,-0.591879429396679,2.18759204513892,0.108044597858861,0.104345707495759,0.111006170762599,5.66682780409507,-0.00686820745504565,-0.00487317562071661,-0.00550307866963616
0.93,2.35175694698415,1.57944406693856,2.05724868599208,-0.0228849840277837,0.0426274869922336,0.0251016679317914,-0.436515117066419,-0.676587087679331,2.00187146457062,-0.353787142983941,-0.183031257136902,-0.133481669207444,5.82301614943515,0.00253955014916413,0.00178846696381401,0.00516785797659348
0.94,2.37440873744378,1.59693210494963,2.03803646575463,-0.170923609390617,-0.0314878669138919,-0.0335852546931547,-0.373983606841846,-0.633626132503078,2.20472291427401,0.0578894340450818,0.118481206425016,0.126780953638713,5.60205334987408,-0.00153697062543596,-0.00204711035296514,-0.00441227265758883
0.95,2.3518322744569,1.56781829777685,2.08586654845263,-0.041501449428179,0.0557477463207647,0.0370979786950458,-0.450953854061328,-0.653447458991226,2.00858233581368,-0.136061424995917,-0.0718201803712717,-0.106487615723766,5.78707053555899,-0.00235772756327958,-0.00176735565673729,0.00332994234452001
0.96,2.35455825450675,1.58230579981467,2.06028457619514,-0.0966944419360102,0.00764064818599673,-0.0324609606028438,-0.388327588381241,-0.667235590426636,2.17346274470214,-0.145148539260647,-0.0356280966877794,0.0799856225034214,5.62481753994677,0.000105362844750827,-6.17956599954527e-05,-0.00224401742452059
0.97,2.37481385533551,1.58093290523962,2.13677129266879,-0.0954834560708318,0.0251748391008892,0.0464695463543617,-0.394221384777346,-0.641563062628936,2.0271084459659,-0.0412125715280348,0.0247827398334933,-0.0350992637394225,5.69239339470392,-0.00257817453052097,-0.0024818804257619,-0.000516473768705763
0.98,2.35033918084902,1.56328222337365,2.07090814311486,-0.074466494271151,0.0305385343758323,-0.0184070273705598,-0.424650011822911,-0.690414885632298,2.08291219401772,-0.166139879737666,-0.0806650403256625,-0.0144798456406162,5.69556524731439,-0.000244808545626791,-0.000352472724526407,0.00157668170362374
0.99,2.35271951753061,1.55759729360712,2.12289284913903,-0.110796405345509,0.00128142628016766,0.0030361178576016,-0.400553766252219,-0.682450182388877,2.10166020012803,-0.0610767859889865,0.012742683239334,0.0415771036683086,5.62129014063303,-0.00132710245882667,-0.00129273323170741,-0.00210303385582761
1,2.34334684327322,1.54185740293975,2.12774152995293,-0.0816632147327528,0.0258708922671093,0.0136454921446459,-0.433909237672418,-0.695519283716517,2.03386106553126,-0.116184594996155,-0.0364753948408939,-0.0472974063673612,5.68467164611295,-0.00116744184371518,-0.00147228922617879,0.00161574158112566
1.01,2.34425905804304,1.54697746252596,2.12567728054444,-0.0926139461881197,0.018828978677048,-0.0102340521223343,-0.405758804211485,-0.699092256766959,2.10565632569747,-0.0994036878106144,-0.0304695619487931,0.0422386568632536,5.6186937289867,-0.00123195654473156,-0.00122876829884996,-0.00149669376344562
1.02,2.31579884761883,1.50645968333971,2.1354060521962,-0.116769326118031,-0.0101427420193021,-0.00481748889090987,-0.460600225106965,-0.752224003554398,2.01968155932323,-0.128198584020034,-0.0506252642111279,-0.0498606774539955,5.65539623348589,0.00104043965355543,0.000218363987710434,0.00259361361090259
1.03,2.30217117452059,1.49158827059528,2.12145042954045,-0.122585194571258,-0.0125729233753023,-0.0348850074858129,-0.461143743171762,-0.746860944785894,2.08187690938522,-0.0313300474220159,0.0146172906698385,0.0427367037516588,5.61097898552878,-0.001198150045229,-0.0015270023059763,-0.000365132596902919
1.04,2.34443584640041,1.53346819930083,2.19718089165569,-0.0425892405519608,0.0547777147671328,0.0432270212403323,-0.393605175137202,-0.681601424499854,2.08369741012726,-0.088042931522869,-0.0224806270566771,0.0140871353870632,5.62425833111056,-0.0039020254766181,-0.00351163002205069,-0.00264131362341401
1.05,2.32174683430774,1.50757932152007,2.17263540414785,-0.104660808359281,0.00134727010091962,-0.00783236404333416,-0.433097767472997,-0.78962585063578,2.05112966610367,-0.230164548502044,-0.131738986003863,-0.0665370158419793,5.59626131373768,0.00297843303759129,0.00165723496571022,0.00353459636075149
1.06,2.32291559381855,1.48578013326973,2.18838945388942,-0.146507705067596,-0.0286648616340515,-0.0243771183723919,-0.430917464584357,-0.74146395305756,2.05221602288978,0.0597597290321937,0.0861780675231072,0.0778310528747276,5.57162548137607,-0.00257010036765926,-0.00262497143930791,-0.00252121772064635
1.07,2.28296299812164,1.45769392162909,2.1653231345731,-0.0639040021823944,0.0260065528949413,0.00190294900919249,-0.498505756982459,-0.795130364401553,2.02632189940054,-0.192867035315282,-0.113038901900749,-0.0790614135676038,5.64373104979502,0.000278504707781948,-0.000606680662746084,0.00368401247150872
1.08,2.28221352379271,1.45919644211888,2.19224691063795,-0.145418331933735,-0.0325908944723721,-0.0418832135193027,-0.439455131815059,-0.808024326486808,2.09155702153404,-0.0604425973122758,-0.0115881686815239,0.0711839524581902,5.52314560669453,0.000598468960402597,-0.000225143192789382,-0.00138566983646127
1.09,2.29093151650726,1.44280014105484,2.21919652326106,-0.0990037071493735,0.00303606913112428,0.0136965706848612,-0.475582594035498,-0.782482664701652,2.00475245359403,-0.0504858898832611,-0.00996356213374247,-0.0417130575433542,5.59443819926394,-0.00185488264118939,-0.00208880700416764,0.00134886949505834
1.1,2.286496572134,1.45641803433145,2.2102597172964,-0.086861710632517,0.0124963943192657,-0.0225489111558949,-0.444112374350361,-0.807870799008,2.06345993152659,-0.142202649090303,-0.0716366787231953,0.0242976720699334,5.55478623115749,-0.000181380058513665,-0.000904583516231937,-5.96010835420125e-05
1.11,2.32013762954654,1.46924810199612,2.26709320800063,-0.0997903819066226,0.0108555472774463,0.026201180297787,-0.399229433019382,-0.779567100342231,2.04701268621764,-0.054812175772861,-0.00906403062992493,0.0141013249203864,5.5213998386071,-0.00200374403943003,-0.00214389333807466,-0.00187986798301068
1.12,2.33242564499722,1.47369170517417,2.27324017156375,-0.0652503994196157,0.0357502233457627,0.0233127801405073,-0.403412850527198,-0.778723735689905,2.02294805914526,-0.129485964807434,-0.0567489539929311,-0.0246066326937101,5.55915035334576,-0.00178713961937683,-0.00217312063988689,0.000109153170992887
1.13,2.33233993115694,1.47296257925891,2.28073166606529,-0.0929320819539914,0.0200742178520901,0.0100593673494774,-0.385301499700725,-0.803230501692312,2.06352188584733,-0.118540247604681,-0.054457155345974,0.0203720972249279,5.49424363345338,-0.000813839506577615,-0.00142136560592698,-0.00141111398362757
1.14,2.31459525315114,1.43801435546838,2.28939626117176,-0.107714851644552,0.00148554406658936,0.00958423139491405,-0.427208060905431,-0.823125206743071,1.9899083881684,-0.0953024825991887,-0.0435803245463178,-0.0279871646481779,5.5302955926054,-0.000501241738437255,-0.00114630756259404,0.000890067175319984
1.15,2.30484617947361,1.43329669001222,2.28054872238605,-0.09315009657573,0.0118152937085061,-0.00307369802619512,-0.429196336306997,-0.817710901976544,2.04354236047255,-0.0778726270616011,-0.026475997965585,0.0261486087364838,5.50139933777742,-0.00169782817707022,-0.00226315599639101,-0.00106084872779162
1.16,2.26865413818467,1.39674471603773,2.28254981366896,-0.115395491327726,-0.0108547444766343,-0.0106311174688117,-0.471307314246215,-0.883979675206932,1.98722639014159,-0.151125897472283,-0.0963290980576206,-0.0398128052771231,5.51919362999692,0.00160993920375914,0.000182938032502714,0.00239981976377109
1.17,2.26413332985691,1.3818740239763,2.28385397270613,-0.13458301094582,-0.0288396307973151,-0.026685190141716,-0.465571364188399,-0.864356835618883,2.03103781782266,-0.00886848397299111,0.0103789852510517,0.0431512871113074,5.47370998442262,-0.00120893270222942,-0.00180715710772625,-0.000769623698700796
1.18,2.29907269524439,1.41937879145178,2.34565951947943,-0.0441973802898199,0.0473435996239229,0.0413173455560194,-0.420633457136505,-0.804067253105446,2.03380464643213,-0.0949705132461299,-0.0424590016975571,0.00347811935824437,5.50152514466882,-0.00358864456691943,-0.00392173738792111,-0.00203387249581882
1.19,2.30327156688545,1.42658357036578,2.35163919701813,-0.0869340978118727,0.0188949208111765,0.0163915475666716,-0.387400514806016,-0.884104635660051,2.03548993213928,-0.197788252721946,-0.130984766860913,-0.0295282824090987,5.4395885914296,0.00106021058275852,7.07089819962336e-05,0.00065388700124819
1.2,2.30285526776403,1.38351331682251,2.35491387458014,-0.138186974132614,-0.0264213594410817,-0.00613504542877636,-0.42234055704552,-0.873437748601063,1.97055269829567,-0.0182632285454271,0.0174765201268965,0.0198559444787113,5.45816905339677,-0.000992437323477018,-0.00186843391761008,-0.00063775665149074
1.21,2.2524751125184,1.3461574700896,2.31013845546469,-0.0981777576908386,0.00175008510413967,-0.0156834295774077,-0.503334471180509,-0.910076947593965,1.98951922937092,-0.127071353085909,-0.0867561056339636,-0.0339681365037081,5.49044540359687,0.000185133130540765,-0.00126520499676744,0.0023700511444173
1.22,2.25461192960225,1.36188337851518,2.36015405146203,-0.113264459959258,-0.0112123809421796,-0.00987322501078094,-0.434449171897674,-0.898489492640007,2.03260888498467,-0.0553945561178886,-0.0373114532386012,0.0547393660539169,5.40805040810645,-0.00115787780527866,-0.00162300928635829,-0.00210263934367652
1.23,2.27661071985532,1.36068413182244,2.38928261209149,-0.0825239081302468,0.0101219839497718,0.0286727352491309,-0.441614024055424,-0.888420828301609,1.96296026782056,-0.107885612536186,-0.053509151827431,-0.0389530446508397,5.45990293195072,-0.0012934915542013,-0.00221203815022132,0.000526111438929304
1.24,2.25413557214304,1.34198896216466,2.35774299418839,-0.120680169230676,-0.0120386423957607,-0.025032858159515,-0.453482881756098,-0.950559624287776,1.99573441275164,-0.12741902294102,-0.0864945504734658,0.00400434329576902,5.42213159621055,0.00120722816105758,-0.000570257236400362,0.00100663183307793
1.25,2.26227017659498,1.32926187688886,2.3943617595282,-0.115266577116771,-0.0123739339865225,0.00479812362609623,-0.443687975610757,-0.907899903230337,1.98644862855596,-0.0144670487795068,-0.0143890108749195,0.0253455167846291,5.40771419343569,-0.00207088845703611,-0.00238538740287549,-0.00140178932692203
1.26,2.30997352161435,1.38629737459702,2.45016634788538,-0.026594003677207,0.0593452424608601,0.0587494112428769,-0.375043591022804,-0.848019397379064,2.01533395102388,-0.111549739393422,-0.049416450936577,0.0102845625640006,5.43013246904014,-0.00406362289124667,-0.00475320551506821,-0.00314654310140581
1.27,2.26679472594716,1.33658170951124,2.4129072849346,-0.123651273266934,-0.0123818767780411,-0.00707406267599593,-0.419282916839017,-1.0190729775386,1.98489680622673,-0.241360923044386,-0.18987938880326,-0.0750535524149882,5.36945361477249,0.00441949797986873,0.00203517083299518,0.00390612840943971
1.28,2.22638214630293,1.24669985809582,2.39083505403888,-0.197985443734317,-0.0948707785972338,-0.0649465946410823,-0.50886822670379,-0.988699650596729,1.91461724467976,0.078710390865488,0.0614740535343948,0.0559244199292356,5.43005008303193,0.000104115919548589,-0.00143892917903084,0.000423683316080161
1.29,2.1692070650032,1.22992944553688,2.35670170443706,-0.0903454345147782,-0.00960584427685078,-0.0267220446926831,-0.578948455548338,-1.00650447494875,2.04259985094648,-0.106685900245316,-0.0974235111421507,-0.0337292662475961,5.38636150197766,-0.000310717930147526,-0.0018370374009668,0.00287602464619805
1.3,2.18108961307942,1.25871235413168,2.45674921446778,-0.129919255305453,-0.0388843036526253,-0.0302286706126826,-0.469452169114698,-1.01997509526323,1.94483053772291,-0.094303920499322,-0.08114782872291,0.048691284097603,5.36017672915984,0.00110061100956315,-0.00025214718476177,-0.000867608459316484
1.31,2.21746138016134,1.24822837815734,2.42478315878836,-0.123310087004299,-0.0297959574672265,0.00510893354826761,-0.486902724360149,-0.995169663657573,1.94358257774932,-0.0336596105485294,-0.0222322244825754,-0.0290947770396993,5.3828980069861,-0.000829769764141028,-0.00216448088233072,0.0011488844360902
1.32,2.19703650282957,1.24053231414965,2.42818915528767,-0.109372219449546,-0.0169233278654438,-0.0344501086468219,-0.494814426150294,-1.03294237715341,1.9562403587116,-0.120675738228598,-0.102192807792841,0.00590027306928768,5.37301251748326,0.000843728876551424,-0.000999116149013149,0.00136074072269124
1.33,2.258480151116,1.2890576972502,2.50609578150727,-0.0833610827545675,0.0114230307523566,0.0382432881046216,-0.380047031918992,-0.948238534336852,1.99615046137972,-0.00146042289031419,-0.0084892433426219,0.061261118574664,5.30688165401437,-0.00389101690884308,-0.00412252985959189,-0.00464868661785659
1.34,2.27265769291169,1.2877326492474,2.51445646747387,-0.0542437064915066,0.0275755238376815,0.0433676108555203,-0.394182778700006,-1.00860634883367,1.90641616549545,-0.211286068447871,-0.146854435668735,-0.0832506290016357,5.38017235120643,0.000256219590656936,-0.00124740402877634,0.00194125880954502
1.35,2.25961428426753,1.25407355306812,2.48420298625229,-0.147654785521826,-0.0343632146386314,-0.0241927450524772,-0.391688452938638,-1.05517440017488,1.9785947861931,-0.0517168303577945,-0.0353935663777435,0.0512140612686576,5.27756230971474,0.000688024681928823,-0.00128708165118167,-0.00127452062296465
1.36,2.25338526423551,1.22512781185005,2.51826453719044,-0.0873872988731447,0.00701259341617247,0.0276539304555125,-0.44810933238051,-0.983943272729967,1.90403043603666,-0.0345673443739314,-0.0481945552960719,-0.020610743387152,5.35485581174842,-0.00267707322481715,-0.00331053487972875,-0.000290555154037474
1.37,2.16012721143717,1.17561088342208,2.4427678625268,-0.144353370185987,-0.0615795648110974,-0.063201280231922,-0.51787239711788,-1.16301066859581,1.8993124256841,-0.224484377881554,-0.177313435004168,-0.0520060574923462,5.35739956863768,0.00590530115097762,0.00201948253288039,0.00545741103742257
1.38,2.23053319601124,1.20317151692214,2.53622980883449,-0.134214115479682,-0.0303846477378034,0.00477463814959454,-0.421512204239806,-0.97869145908224,2.02211637450132,0.19450472095198,0.103200478274325,0.14222712114327,5.21398842878862,-0.00621774489817802,-0.00601719935143883,-0.00690480293698977
1.39,2.22302419887691,1.22518029600522,2.5636424737754,0.00794246157679138,0.04896463272086,0.0621434904807081,-0.454447314646219,-1.03854126909867,1.83589539054024,-0.324597521258302,-0.230900069392755,-0.146063307096789,5.44832717437114,0.000562069180849891,-0.00123373561525964,0.00407010188585417
1.4,2.18957189963225,1.1790055503355,2.48506182755958,-0.224983409294718,-0.102437026216016,-0.080157872524744,-0.417661388707746,-1.2114364646183,2.06365103883686,-0.0725729188627615,-0.052707833498953,0.0710504118393156,5.17689490180042,0.00562817828623828,0.00102407075478163,0.000429977309142032
1.41,2.17890478330135,1.08294897830582,2.55623302736808,-0.146209803208261,-0.0466049925617323,-0.0122555175929328,-0.563172647758814,-1.04125673691827,1.86842210817749,0.127195609939875,-0.0021560582123222,-0.0232144598624341,5.30979152560513,-0.00356752391638395,-0.0032643886957145,0.00168659880648145
1.42,2.16562089352399,1.18702148657001,2.55000676520268,-0.0257157014153288,0.011551577501103,-0.00491239327737818,-0.455360454181651,-1.07511310004077,1.95109751325116,-0.211801030211043,-0.132622410712416,0.0375769898900715,5.30565783506885,-0.00083858292465627,-0.00223592770922314,-0.001481726433082
1.43,2.2420831292378,1.20866095887782,2.62341052494999,-0.122992258410151,-0.00389915486149994,0.0506229043741621,-0.340525703761555,-1.12926254932983,1.96261377257946,-0.0692622702970926,-0.0648666535518374,0.00183320246280481,5.16332670338803,0.000113774453604325,-0.00223608242142885,-0.00246429112120322
1.44,2.24486012763124,1.14108828059202,2.59353617115451,-0.100015292565624,-0.00984820228622397,0.00618268125392915,-0.415783761503232,-1.08310852400347,1.79330453451359,-0.0593372605681261,-0.0902776992697371,-0.0465041036750984,5.32878161709446,-0.00112402452492291,-0.00177879487472921,0.00192797947189147
1.45,2.2254119675125,1.16448736045415,2.56221692878861,-0.0877432061507296,-0.0117439358257177,-0.00346053154282087,-0.398998910394817,-1.11894719668085,1.96481863727697,-0.102879802183922,-0.064669191177573,0.0541607207944889,5.21016433328352,-0.000612746340177808,-0.00253567194993485,-0.00237337533999743
1.46,2.20716594902963,1.12179414292788,2.6176103226027,-0.123800055807165,-0.0208370663360725,0.0163940147381663,-0.431742238747817,-1.16257061127231,1.83075880901188,-0.0973187374602659,-0.113963343094839,-0.0533897960900093,5.25823223961626,0.00126513452554796,-0.00107750667231927,0.0017548285304229
1.47,2.21837309471246,1.12546518328096,2.59543491211942,-0.100667437994461,-0.0195188807111404,-0.00458367885134792,-0.403116654055279,-1.10316186354074,1.91156072395831,-0.00393074808120648,-0.0354314029206853,0.0532504308375424,5.2163188337409,-0.00251004502575555,-0.00315593017292264,-0.00227694575772734
1.48,2.1711859449266,1.08497558933914,2.59503026234135,-0.110314550354241,-0.0360499912419086,-0.0074042712975645,-0.477092011114575,-1.21551786052143,1.82197081185757,-0.195753372405861,-0.159692578934935,-0.0726497148602629,5.26978653223846,0.00348349168636121,0.000133260627506499,0.00378993794179265
1.49,2.19545086594641,1.091939271794,2.61435214206542,-0.142037261150421,-0.0418526101027865,-0.0159037722092584,-0.41221941866986,-1.14132678718334,1.92848589161327,0.0830555675908346,0.0118452746606561,0.0952984012412178,5.16201462711582,-0.00256041546357048,-0.00371841467039646,-0.00374674640208017
1.5,2.20445483540802,1.10031892464087,2.65784119488958,-0.0357119045456848,0.0201721276826137,0.0504394039952121,-0.429566579556331,-1.12274857662482,1.82690505219261,-0.165937152966195,-0.14784748270399,-0.0711672269938756,5.28040406149056,-0.00122987726381266,-0.00259820022834041,0.0010355940130142
1.51,2.18031771208079,1.08592686539313,2.62076133791335,-0.153285745759562,-0.058009645630833,-0.0347213616710298,-0.390738744765891,-1.27292850986999,1.91791459770208,-0.12670244376364,-0.114028912895529,0.0184720782547492,5.13618319099944,0.00371781568260738,0.000227947813776883,0.000762752847559313
1.52,2.20270349696391,1.02907627294735,2.66679986291558,-0.129803516035428,-0.0366182117065783,0.00751542740169575,-0.451746083342534,-1.13573803168275,1.81212978940138,0.0837410070511663,-0.00417252803689049,0.0190410869810883,5.21214843257976,-0.00306073577095064,-0.00382649024166764,-0.00124337800003811
1.53,2.20337916687709,1.10470789483282,2.67106122155155,-0.0185922892423881,0.0329804233324906,0.0403467454051351,-0.386476626803613,-1.1398601630835,1.89521402283682,-0.169071382407264,-0.138288868154179,-0.00141003841314895,5.21850619964279,-0.00200277898358418,-0.0035563014332956,-0.00176759702385369
1.54,2.19127541368378,1.06072834912176,2.6834031336387,-0.150641792241741,-0.0509734207340735,-0.00297143466195253,-0.362047141757248,-1.31262226997212,1.87390378501645,-0.152230845822328,-0.154183400432919,-0.0376930221313977,5.10838202354796,0.00438846805679504,0.000979061283803091,0.00192315901182887
1.55,2.21987712528876,1.00532400357827,2.69550285272008,-0.128409684242986,-0.0433174728461819,-0.00315855050294615,-0.424587594517134,-1.14244476526833,1.79845902736552,0.119493617399219,0.0357889057956321,0.0541355502694188,5.18282359157603,-0.00401743105091006,-0.00463164342225371,-0.00239157659822222
1.56,2.14398969128568,1.01741135719706,2.64284684495589,-0.0593477612148213,-0.00783627304529522,-0.000236922481729296,-0.475966732199557,-1.26175522710474,1.8229152027848,-0.254205226221955,-0.217802037478679,-0.0717877760649733,5.22821856702662,0.00273162737637791,-0.000412203818715248,0.00341532345214004
1.57,2.17621429833533,1.02070133115486,2.70864981042475,-0.164876158190446,-0.0650893506611929,-0.0126872899496139,-0.359506521728447,-1.26688161894075,1.89843973765381,0.0541160924651036,-0.0111654777261546,0.0902175744409277,5.05938476525751,-0.000353588304842241,-0.00235829588502808,-0.00367436901089441
1.58,2.22887329066357,1.0190534090941,2.75486810183077,-0.027180383254412,0.0321201528814925,0.0719394507542155,-0.402152335566131,-1.12215571266536,1.78510936794453,-0.056150830265726,-0.0818195953353145,-0.0496287180368349,5.22214976472892,-0.00430314891039579,-0.00539288855939702,-0.000974943534693489
1.59,2.15701981848613,1.01685246355708,2.68448472926445,-0.120427962215266,-0.0423033105176859,-0.0311865773818077,-0.37013480822272,-1.37528452852662,1.87277659140128,-0.256206804676542,-0.238055329003768,-0.0309269607260316,5.08651955539473,0.00593464050274865,0.00201732970656248,0.00294179524517894
1.6,2.16357672215606,0.904126218960865,2.71546542767111,-0.207786707312693,-0.116433493421573,-0.0393925006042922,-0.458482670454176,-1.28429606620371,1.73473954206142,0.149223822948542,0.0443634799092699,0.0450591496448292,5.17797747678301,-0.000207933587995769,-0.00232741779170999,-0.000278844685083847
1.61,2.12622553437444,0.93460196635637,2.67548250334923,-0.0443074619598981,0.000472761772879818,0.00202068116760216,-0.510930045882497,-1.23011661239734,1.92165486372973,-0.0938488831720854,-0.126861093336683,-0.0215774522126005,5.1328581020362,-0.00212401808335957,-0.0038656093063945,0.000936766872143435
1.62,2.13591616996853,0.98481594669425,2.79767689342926,-0.111581339609005,-0.0384293732406574,0.00295458316041681,-0.347867917902129,-1.35180798469695,1.80504839078973,-0.146062346545015,-0.161625874391684,0.0302770599595089,5.05479494221912,0.00256243160337259,-7.79940301664352e-05,-0.00157701404469783
1.63,2.1651272326006,0.893063307947505,2.72176300104003,-0.160395960658019,-0.0796762669347467,-0.00633928279406529,-0.437866299592322,-1.32110258553225,1.70835706547928,0.0220029657841723,-0.0403783476265166,-0.046140423823688,5.17004421098136,0.000852526346607793,-0.00174035598809815,0.00246938892498447
1.64,2.14221956815955,0.914591453414835,2.71175098286308,-0.0811053311620591,-0.0204590849857856,-0.0208358247657297,-0.448861463946038,-1.27632523096394,1.87353148894535,-0.0370752548945232,-0.0934218020836799,0.0504559438585782,5.0866413154863,-0.00168498711781088,-0.00354332226249473,-0.00140425326229463
1.65,2.10575284304519,0.89633435279515,2.76556385620017,-0.1281289679136,-0.0662242027950103,-0.00720343625251749,-0.422881209014632,-1.4057745130783,1.72317377281093,-0.159244899513425,-0.186296712254991,-0.0523401828062531,5.11949842709356,0.00430011307097114,0.0009715534961169,0.00280710331784722
1.66,2.16695093636127,0.889827818070435,2.75900271203053,-0.132587859903461,-0.0605263843184331,-0.00714746003477496,-0.396049750976528,-1.28736453192183,1.82372373252126,0.118491375871047,0.0304187042059808,0.0754404116928478,5.0439318102347,-0.00310083495112938,-0.00465923282269563,-0.00322768138802622
1.67,2.13179719979826,0.887045674913479,2.77507618003663,-0.0528997288416365,-0.00614718392529819,0.0188330955173231,-0.44181332809226,-1.34371896172305,1.71558137852627,-0.206982404988,-0.217924770768082,-0.0805988944569226,5.162611670162,0.00174214726900736,-0.00115556695178521,0.00291557492526278
1.68,2.14769930909903,0.894907154858558,2.7761476787475,-0.155771189755018,-0.0773409001796252,-0.0210965006946157,-0.324405647957725,-1.40387445894993,1.84427572910294,0.010169880945807,-0.0534388447975151,0.075049394453065,4.98215119697946,0.00105505481224654,-0.00144993681049133,-0.00256759689736071
1.69,2.18786864493324,0.855340630626343,2.83060094123406,-0.0696428613840404,-0.0106476480178994,0.0440710089388366,-0.409227146200875,-1.27539318643338,1.70020555259417,-0.0129233921575671,-0.0733580973693784,-0.0425577406734167,5.11663371922897,-0.00266773524446977,-0.00439576463970382,-5.83564217603997e-05
1.7,2.13037336044996,0.880343937328132,2.77320416700656,-0.0985788531352889,-0.0379818088708137,-0.0198776967637145,-0.356452560360299,-1.43658676369733,1.77945547026959,-0.180580286389469,-0.201702719834073,-0.00431675939857995,5.04435487675686,0.00342730614996336,0.000162269279529621,0.00112995987991521
1.71,2.16156351227467,0.818361057144656,2.81898443892867,-0.156472418014061,-0.0817810447358754,-0.00183670602053249,-0.368047938723322,-1.38712983461154,1.72051075077723,0.0737431891583797,-0.018676645207527,0.0280622656350118,5.03947749171109,-0.000353289495645596,-0.00247538171746924,-0.00125422793268277
1.72,2.13966455792648,0.815660183280239,2.79522769166785,-0.0662780177841828,-0.0198621785394812,0.00600366865222013,-0.434584310574669,-1.35327736947026,1.74373073368444,-0.0874395395285236,-0.131840898144311,-0.0320034981183617,5.08629047905631,-0.000592548012323649,-0.00303202248155334,0.00121694992782729
1.73,2.10917774937175,0.822588886651878,2.81665507318332,-0.13270215158937,-0.0677442875917156,-0.0219822268802085,-0.357689135114071,-1.47632023517122,1.7506722490826,-0.0997826783633661,-0.153814002579135,0.0195054856287627,5.0070720591406,0.00327237642215287,-2.60220138418848e-05,9.67818690352411e-05
1.74,2.17034728201444,0.795058737114371,2.85267587244362,-0.108883405786283,-0.0476070012888577,0.025218950393486,-0.364375838787818,-1.34591561259727,1.71842355163191,0.0835245046276739,-0.0163132757417394,0.019864121288529,5.0188988282321,-0.0029401785931708,-0.00435571280152975,-0.00213175033289581
1.75,2.13767549765191,0.813344251006394,2.83370352645704,-0.0558941478947252,-0.0144755518521066,0.0111515263713697,-0.374137348842692,-1.42799153559944,1.69869996083554,-0.186129500622539,-0.201043318081584,-0.044934903943586,5.0682495423799,0.00173113857730233,-0.00138113224126407,0.00158338303909462
1.76,2.10933190825361,0.749864390343304,2.81177365805506,-0.186779799647548,-0.112410153385378,-0.0438722956677794,-0.361315986056847,-1.5407933818162,1.72420905677422,-0.0193065192212905,-0.101224094061483,0.015342996422311,5.00981242260708,0.0043248976243605,0.00022616872203578,0.00133320645874857
1.77,2.17102824727482,0.752779346257629,2.87982790483546,-0.0694965261744676,-0.0205434868168275,0.0323832482296842,-0.381663412562919,-1.2988778176136,1.78442217239647,0.133704345546258,-0.00172535007344002,0.0528506092594044,4.9671806034821,-0.00603322882364584,-0.00668111659504808,-0.00400392578079927
1.78,2.09823115262671,0.782784678701186,2.87452923578997,-0.0554029070871887,-0.0325741080274356,0.00643995216649602,-0.359056461931897,-1.54069353347693,1.6218018254913,-0.327885655730688,-0.309824489596452,-0.101878641112505,5.06437916898866,0.00598717439926881,0.00181341213817502,0.00450955980688742
1.79,2.14153251553412,0.711520240431329,2.83864370465686,-0.21418122605031,-0.133710534596599,-0.0420069691070653,-0.321448527128618,-1.52377778007836,1.7521830468396,0.171349039645273,0.0516426379627026,0.100998452040528,4.95146874622765,0.000773708397589397,-0.00262945886882482,-0.00280644949435638
1.8,2.12454285105032,0.678800419853957,2.87156818200397,-0.0380090052944776,-0.00534451200757866,0.0273730836286635,-0.463381760310393,-1.37225098094786,1.72154985861068,-0.0489038309926805,-0.149300281276639,-0.0730883036042382,5.03867475687707,-0.00245420988253357,-0.00417931719109514,0.00213915489413563
1.81,2.07589836734158,0.748329015783742,2.89699830729368,-0.119138806550938,-0.078768052043396,-0.0353062700585389,-0.297976051447508,-1.59307130446706,1.71408351263605,-0.173698149506085,-0.202995031047684,0.0400302981973766,4.92121487105743,0.00512152694581407,0.00130596799306563,-0.000239942322157697
1.82,2.15644585162166,0.660092044174649,2.90301715580356,-0.155100901698078,-0.0858347812353848,0.0169772169611113,-0.364479824531129,-1.45961039177378,1.62199712519392,0.149348206056065,0.0160930033164084,0.00079410038672034,4.99364657749871,-0.00167024985826591,-0.00397656326963532,-0.000854754060322673
1.83,2.13654946406943,0.719420344447278,2.89155580080962,-0.013055380344085,0.0126716490741972,0.0238330894952612,-0.348569303225692,-1.42119858621958,1.72175207363617,-0.116078865231826,-0.175934142870375,-0.00172865853273708,5.00505249280949,-0.00180601130193556,-0.00391896022836635,-0.00105639065949617
1.84,2.10980357190303,0.69607858770968,2.91931201551672,-0.145717258444054,-0.0918580261946559,-0.008914143605719,-0.260057907216842,-1.65304364950048,1.69343047315045,-0.144718356438118,-0.197719091230373,-0.028414143505208,4.89061623507569,0.00607168847808302,0.00186700177325379,0.00175969097977591
1.85,2.16362352455566,0.605534197858063,2.92275411405809,-0.144868518653131,-0.090319628128523,-0.0123448261707426,-0.373777276392691,-1.45454478036504,1.60582693171,0.184017238268632,0.0380820553933561,0.0420130386535647,4.97685354589647,-0.00287407288818345,-0.00474938648281706,-0.0014154168273642
1.86,2.09811320685057,0.667429050341063,2.89306770734188,-0.0222973671423256,-0.00515776504946558,0.0169585695744006,-0.372462061449457,-1.50004589625747,1.67819636230275,-0.184457253642149,-0.227266995085658,-0.0338113010101109,5.00274994124838,0.000820502415380666,-0.00220171296192694,0.000762361501005213
1.87,2.1018888265397,0.646802415749118,2.93715696836076,-0.167467107434312,-0.108819893421284,-0.0179852360649173,-0.254586651696296,-1.6605629171497,1.69248002654487,-0.0340369729264353,-0.125491264353899,0.0156520143105661,4.86318108575487,0.00440094353690561,0.000558905833005791,9.52706680030472e-05
1.88,2.12438730118029,0.541380522426746,2.92087383817955,-0.130458748687367,-0.0900114227478006,-0.0211647717340896,-0.422140555500271,-1.50361972093372,1.57031829649282,0.0956777634451413,-0.0412327911477068,-0.0171915218395089,4.99804039199056,-0.000942607855752117,-0.00333890637563413,0.00178688849837805
1.89,2.07449170297768,0.625367635214698,2.91261816968657,-0.0580674193135563,-0.0374042292123068,-0.00807434341444296,-0.348066418601767,-1.5487434449146,1.69361796103758,-0.10324248697875,-0.175630917817123,0.0357658381187594,4.92120397730216,0.000671656253498264,-0.00220781607357437,-0.00134912662689255
1.9,2.1336995770587,0.629466248821956,2.99842880271481,-0.106490348097247,-0.0609589324294144,0.0396464979472046,-0.232174820518232,-1.5946700530093,1.62255150891695,-0.0102738359373786,-0.108683200227374,-0.00527892657320445,4.8622693423951,0.000702419909137301,-0.00184882646934739,-0.00164652473415747
1.91,2.12817740062563,0.544959199932762,2.92970279679977,-0.114402893114801,-0.0795013343111827,-0.0196271306136107,-0.339502605565819,-1.60900780444201,1.52858669527737,-0.0479007874728251,-0.130772384854493,-0.0485349404336238,4.98868871460964,0.00243975549238987,-0.0012564177565866,0.00319560602665919
1.92,2.07604579236976,0.526116906249319,2.89650712951414,-0.138077362411326,-0.0993682119473078,-0.0479094311963627,-0.354246673553223,-1.63360026193652,1.65337008772201,0.0134803828138291,-0.114178713835065,0.0468917122762778,4.91169771030299,0.00216281919437622,-0.0013271932523452,1.63420571309207e-05
1.93,2.12799543178503,0.569306504027269,3.01137892836467,-0.0584771629819018,-0.0363308153502386,0.0465541402800046,-0.285068762070676,-1.50726497214469,1.6387145793828,0.0531144298207188,-0.0739465286863921,0.0253862023369301,4.86200063731934,-0.00319487809967955,-0.00474287882020125,-0.00341616801970764
1.94,2.13854583209835,0.596457299079521,3.0100591884076,-0.0500613143408803,-0.0301393292505578,0.0351869380201851,-0.220640203892397,-1.6440753095609,1.55645977262369,-0.171314944916255,-0.212989106636559,-0.0541755899887041,4.89894954439132,0.00255932519942246,-0.000866268918145849,0.000874426296804674
