time,x,y,z,roll,pitch,yaw,xdot,ydot,zdot,p,q,r,thrust,roll angle,pitch angle,yaw angle
0,3.01841953230695,5.01841953230695,0.0184195323069548,0.0184195323069548,0.0184195323069548,0.0184195323069548,0.0184195323069548,0.0184195323069548,0.0184195323069548,0.0184195323069548,0.0184195323069548,0.0184195323069548,9.23712004032728,-0.0109020667548392,0.00449752661942683,-0.00200581604668761
0.01,1.8193717654818,3.0193717654818,0.0193717654817975,0.0188499312353299,0.0179516663315118,0.0174394957505891,-0.0650801178425188,0.101441573569725,4.38545669871391,-0.434182408570548,0.184736052903825,-0.0328323031692886,5.75495191443336,-0.000180423101059949,-8.94045414321844e-05,0.000480066240942937
0.02,1.97227034377538,3.3715093331482,1.77978346989413,-0.174728834559896,0.0765104870329781,-0.0120653418735779,-0.01993022811029,0.024790261568477,0.904137104465522,-0.00896734277234421,0.00318384094827629,0.0116077061860271,7.04606084924132,-0.000921386081133287,0.00152668328076665,-6.04425283784288e-06
0.03,1.99522681390357,3.34411694981436,0.397717893696743,0.000348823871775317,0.00891405997549011,0.0112797505083077,-0.178325272983899,-0.39395450975975,2.26592864830615,-0.0364566197794223,0.0665299955867082,0.00510913031414113,7.00751503909507,-0.00584053542418494,0.00204295270166506,-0.000846076112421275
0.04,1.90426998150744,3.1426973732156,1.00906507716038,-0.030640825796296,0.0148409474383139,-0.0131023107289387,-0.0581377861608563,-0.0400460603532519,2.18437169667414,-0.253554312135285,0.0707012479774565,-0.0293431185579468,6.68889814332816,-0.000825074475729465,0.00254725673936183,0.00190430278083243
0.05,2.01026500530258,3.34911312425047,0.96620919247065,-0.0731608616890108,0.0627875388393545,0.0226037343003349,0.00702309611389232,-0.0225995873070106,1.92401495452765,-0.01375773564306,0.128962308104066,0.0670591280826751,6.85375703684411,-0.00527310029480132,-0.0012356220383241,-0.00430515981776813
0.06,1.99655942292724,3.31584653154067,0.853701589435557,-0.0083065010695156,0.052974315100969,0.0234603777229095,-0.143388858733697,-0.174517345143843,2.09167720185491,-0.222973393141694,-0.0432095831230907,-0.0908873806750362,6.83470747711631,-0.00232808753653004,0.00306140328922048,0.00310007283625774
0.07,1.974141992267,3.29263449332141,0.99044435922804,-0.0591944504448716,0.021137785959268,0.00165731072187517,-0.0760929933100349,0.00455761107134045,2.1124044074076,-0.0760860959919314,0.153785135834828,0.0934405800209533,6.73082757929506,-0.00471440105502021,-0.000259361600531595,-0.00460018465429344
0.08,1.96630782376148,3.33098468134255,0.9587067442928,-0.0313686127795123,0.0667363288211844,0.0374680942025006,-0.0664513978939324,-0.137525678560154,2.0023085703014,-0.201414635258405,-0.00271710107956026,-0.0941144906125606,6.81223007650527,-0.00221707514806784,0.00153232046143628,0.00260218473666966
0.09,1.98624598493946,3.28814997731762,0.948591443362561,-0.0703191819738399,0.020489583276439,-0.0198496094300919,-0.137597383738106,-0.0805527374067333,2.11488785334717,-0.0886626739706964,0.0819395439906828,0.0679261082123296,6.71519603287024,-0.00357089211324935,0.00136559798602741,-0.00235901110802271
0.1,1.90581786424895,3.26122691563147,0.962205440556007,-0.0716494845705058,0.00774140771915033,-0.000636971153662597,-0.132703403133717,-0.221941899505333,1.99558740024132,-0.182445840400184,0.0338414542317298,-0.0738506177181673,6.77396313767013,-0.000263715289208831,0.00298681957799074,0.00346753751765801
0.11,1.928960545124,3.22298181502783,0.944465155668453,-0.0936624341058682,0.004314400964982,-0.0392197845436185,-0.0860951750395647,-0.213427229731001,2.08551394109346,-0.0361597629874805,0.114084715135963,0.0615678763807492,6.70150036662108,-0.00297634956717773,0.00130517134594905,-0.0011084919777255
0.12,1.98710406777374,3.2653362224809,1.02790193160528,-0.000308152838791778,0.0724833460445061,0.0459553387066716,-0.0258035905248089,-0.192812694659049,2.0695964952041,-0.11858873690434,0.0767988279791725,-0.00443279608866898,6.74393744222484,-0.00568359324142282,-0.000952133743312215,-0.00205143049718418
0.13,1.96724441240468,3.2272652894613,1.00460640696356,-0.0693355878855669,0.024059788556829,-0.0172313684036182,-0.203724837703843,-0.104623542316968,2.09301763659843,-0.257267217736228,-0.0389713991974568,-0.0545175630876045,6.6798462683441,0.000664268716569018,0.0037862336020617,0.00332232766592505
0.14,1.92358470850714,3.29549397631743,1.03345193737673,-0.102182181270083,6.7861353446122e-05,-0.00561803318989779,-0.0868141157653584,-0.179222781930801,2.06644213917303,0.0175597784044606,0.165221545191085,0.0786524657203612,6.65960294399018,-0.00464605758446053,-2.85796463684833e-05,-0.00351375091695588
0.15,1.94832663949605,3.24003982498387,1.02927636325725,-0.0111434214390171,0.0627509385478946,0.0201156898067705,-0.0769680284599748,-0.273732219924642,2.05473814787423,-0.215422342863974,0.0017700594293484,-0.0810793166337704,6.72037883246696,-0.0025041948514933,0.00122712298616986,0.00280767613701695
0.16,1.95937055368629,3.20611094029425,1.04744823106111,-0.100494726310906,0.00523734675754897,-0.033691317853225,-0.17761864975877,-0.126819761138557,2.12853494282755,-0.124013470348378,0.05847095468794,0.0564453587511247,6.59819348262949,-0.00141834851786177,0.00217614658819407,-0.00114440072831059
0.17,1.89061612659585,3.24240997372828,1.04919444008031,-0.089492016267847,0.00372279868807759,-0.00116399423699075,-0.129385284943368,-0.308198254589104,2.00962267756302,-0.100692645469131,0.0702385337150014,-0.0463217555384688,6.66853423267171,-0.00165442725353583,0.00192725515381826,0.00219525393072491
0.18,1.91467796343282,3.16822505959323,1.03366516930858,-0.0776885490338309,0.0111741639434886,-0.0417113820982484,-0.120270846767349,-0.305671686199672,2.09537266988244,-0.108165183301257,0.0662769985550637,0.0258484656042914,6.61823582601189,-0.00192312332773685,0.00172933055286109,0.000692731793101915
0.19,1.96519544825572,3.21658491667576,1.11936984982046,-0.039418522342112,0.0519998989116354,0.0288045896904376,-0.0665340856925422,-0.218139278242484,2.09801963613075,-0.0857353199793699,0.0922901535790067,0.0299578302914583,6.60915883132584,-0.00506454060744652,-0.000791408208439073,-0.00285811526144482
0.2,1.95952028723257,3.22453510054378,1.11090112204635,-0.0500813952406758,0.0429995565658309,0.00771365234977971,-0.157188923251677,-0.202876965291055,2.08539297164343,-0.230458974007089,-0.0207069760905631,-0.0618323651340383,6.61131970590615,-0.00109972857740909,0.0022581392833322,0.00248216145655389
0.21,1.90746337871235,3.21768893674318,1.09937118384206,-0.12285762910111,-0.0156929921628907,-0.0365321304533455,-0.174486057604119,-0.246428308345889,2.09105174143567,-0.0828927750299084,0.0897176825132194,0.0393208251646419,6.55725912843887,-0.00118360964762648,0.0019746188452918,-0.000183835034967363
0.22,1.90231283375846,3.20089103850347,1.11652479539878,-0.0651509680580094,0.0291757820132393,0.00205284333851285,-0.0959431322498717,-0.359478219646681,2.07045440867177,-0.0865898909851305,0.0754469216916736,-0.0163168766694952,6.57686792302262,-0.00330548492591127,0.000491231086553356,0.000616245591459654
0.23,1.96947491048547,3.18401699119407,1.16525706498533,-0.035820794538435,0.0556413727504317,0.00797297726473684,-0.102790675284164,-0.234260263234075,2.11827739476734,-0.146695169123093,0.0455354578272172,0.0264099010355156,6.5597190642747,-0.0039245636312441,-8.34802587390628e-06,-0.00170687768324564
0.24,1.9416961616957,3.21389083620234,1.16807687917392,-0.0781737044433745,0.0255292933858997,0.00812348400418555,-0.172931237790687,-0.228216618889447,2.10134976047941,-0.188339472182165,0.0106208268636866,-0.0374782200268434,6.52933486942312,-0.00109728546436081,0.00201153464154876,0.00131637029101764
0.25,1.92594547799286,3.23054994713658,1.18063160497518,-0.0847713070422299,0.0232357752606258,-0.0036767449726644,-0.116838203235757,-0.272042384902639,2.09915700698446,-0.0653226209063783,0.100303147769613,0.0355632600669582,6.51215127217425,-0.00378370831801108,-6.68243138107752e-05,-0.00157736406799859
0.26,1.94514181056026,3.20570160996988,1.19795559209995,-0.0384786918743844,0.0563413183465592,0.0192233470905419,-0.121174696289641,-0.292098953338711,2.09686856620558,-0.178073737137786,0.0165736578949005,-0.0276389659107799,6.53599755173348,-0.00303129906696655,0.000426754978777262,0.000327125968807237
0.27,1.95061916845207,3.20377404927186,1.21840324650584,-0.0778572054243852,0.0312346484533748,0.00254176705304305,-0.156556532090923,-0.23005088958926,2.13936022616623,-0.142196022612913,0.0430315860054366,0.0182794147690973,6.46621605252494,-0.00258004902863078,0.000836586538520553,-0.00106214421046057
0.28,1.92639280489523,3.22182818880602,1.23273257354321,-0.0712407769075605,0.0344861707577572,0.0145120001456317,-0.139083315904229,-0.292660515013435,2.08105875148115,-0.131146731632874,0.0516292519528778,-0.0168634877250796,6.49398458817822,-0.00292043814768557,0.000401681600111058,4.12189172380653e-05
0.29,1.89748651077903,3.15683066947426,1.19641267700992,-0.100501398025575,0.00568039009708184,-0.0324042811556529,-0.201774883404919,-0.351720410880044,2.09249002055168,-0.172928377558122,0.00953070142776857,-0.0211228964738961,6.46995280739346,1.77100485140565e-05,0.00244333647638537,0.00247961255954267
0.3,1.91118512996085,3.17208898602852,1.24537527705573,-0.0854898856074531,0.0210829290886134,0.000600992485893636,-0.11950078850384,-0.339326159214702,2.11981687588406,-0.0276171640003788,0.115441884334881,0.0579532124766142,6.43543492767089,-0.004626638950654,-0.000732303873764205,-0.00283104111990316
0.31,1.95676097867385,3.18574812949704,1.28762003903661,-0.0130276560518686,0.0767818459903518,0.0408736520577983,-0.111034181566924,-0.304445258201902,2.10930212382236,-0.206868857128345,0.0039837544473209,-0.0428212924243987,6.49343831795792,-0.00380813439512641,-0.000547464086990847,3.1018234374197e-05
0.32,1.94897645146699,3.18925915743949,1.28586016374126,-0.0941675180483847,0.0274139591506756,-0.00523269435363534,-0.196127311862698,-0.245126248251709,2.17691913270591,-0.179539101998226,0.00730365559162702,0.0113035340758093,6.37130403619406,-0.00129714933876188,0.00152994012008936,-0.00035899436147636
0.33,1.84716586374259,3.15106480482327,1.25426334439387,-0.143297688734587,-0.0312216132222404,-0.03817795967399,-0.240262045901027,-0.433210219144687,2.01528204281265,-0.128087808845206,0.0365264350936376,-0.0461591851857524,6.45318529490526,0.00112052792176145,0.00286757400791576,0.00395725550805307
0.34,1.88085162190448,3.11956074461265,1.2592509168335,-0.0826056929395086,0.0200594573334129,-0.0213083311319943,-0.114251943531812,-0.446931031449325,2.17032710526286,0.00343821221596795,0.123729234030643,0.079052944211138,6.36295564495886,-0.0051709244655246,-0.00118323489786361,-0.00278144125931765
0.35,1.92837911587779,3.10272483103201,1.33857564807943,-0.0309860490775908,0.0530190064725976,0.0220278531947082,-0.167561591332591,-0.379652220293609,2.06862548990649,-0.255456101178176,-0.0350947484945209,-0.0645065404905546,6.44756046060957,-0.00146196779834471,0.00116797357283649,0.00195368201192571
0.36,1.91664476949206,3.14639969344545,1.31180221762147,-0.124117826012238,0.00408769428073523,-0.0187483234798423,-0.186397819373463,-0.31726283636952,2.17677122229864,-0.0947410171294232,0.0701551770410418,0.0458747604729165,6.31623908336223,-0.0018343168827455,0.000742995162432428,-0.00134282546706358
0.37,1.88832287463336,3.15392497078208,1.34141077247665,-0.0767575282208076,0.030104796282808,0.00859048488122391,-0.165794313037845,-0.438470973637327,2.05995029971473,-0.123999322224667,0.0357598489559313,-0.0369531202445258,6.39465429838735,-0.00267696113912077,0.000325749894507484,0.00129025772484649
0.38,1.90987728013277,3.10885780432684,1.3384512793645,-0.0793950017800612,0.0272655562488788,-0.0155831962168617,-0.175456973840797,-0.392626743666256,2.14774060321227,-0.149834419184023,0.0305593446929611,0.0269039215282038,6.33537307024838,-0.00217423522709332,0.000561549678216115,-0.00059363526743346
0.39,1.93679146251624,3.16231993675148,1.40633690765608,-0.0600734765301017,0.0549954364714921,0.0401521334545489,-0.125274454238654,-0.346546994019744,2.1309945823418,-0.105926137907084,0.0622839018179615,0.0124819988745304,6.33499166296217,-0.00464770809878914,-0.00151610000307406,-0.00254413790757746
0.4,1.936832668397,3.15919987979312,1.39796164226463,-0.0573890626873069,0.0537823933397791,0.0177025087419508,-0.1757726961382,-0.363625567852635,2.13111310872083,-0.219272774438733,-0.0289336350993316,-0.041197613524157,6.33707515257102,-0.00196722128521381,0.000745207172340978,0.00105847172896726
0.41,1.90383181383592,3.14087330034281,1.3990357857945,-0.115164418984234,0.00667277575547304,-0.0111328831129793,-0.200529976118009,-0.385442577643686,2.13635646801048,-0.121087150210725,0.0517302846703748,0.0257674621807291,6.27852251570592,-0.00168896650780309,0.000718135862766602,-0.000749855247821441
0.42,1.86911464807831,3.10639069330793,1.38995737029116,-0.0994151631633162,0.0161401299293605,-0.00690555737485058,-0.200611439587996,-0.480082321149204,2.08001486576546,-0.129444202104497,0.0291239364931002,-0.031292439369129,6.31484295855448,-0.00158999511881797,0.000675604936351289,0.00176333339411715
0.43,1.89077397769575,3.08237757700193,1.40660051802941,-0.0871885942236402,0.0238250071556128,-0.0140256152158344,-0.183120672702653,-0.45351609271614,2.13939266608466,-0.112097279493175,0.0432066276589798,0.0355716244686376,6.27336433481918,-0.00281353835376028,3.50753594559821e-06,-0.00106791851589593
0.44,1.89902260656846,3.09495388834812,1.44377494076764,-0.0767464411971023,0.0332208319496618,0.0159990020908143,-0.184576225487402,-0.44210306355597,2.11194785255869,-0.159861749609817,0.0184273433555351,-0.0209226191282081,6.28127776161904,-0.00229431058482969,0.000150306779579475,0.00018612662055177
0.45,1.88155935025724,3.08277222180294,1.42938838296015,-0.110266176941104,0.01071988043173,-0.0193416347780344,-0.215765682651648,-0.466800555831649,2.11904244193628,-0.150403519670555,0.0154246255743469,-0.00559335355497604,6.25099585043235,-0.000884555879908538,0.00107766888302638,0.0011355740861095
0.46,1.87365494009727,3.07737222179286,1.44755428682377,-0.103193966896823,0.0134966558940242,-0.00808946603657721,-0.195750760831273,-0.493911646939074,2.11313673021083,-0.0905427107882123,0.0539999948595969,0.0181574280918558,6.24339945810878,-0.00264254147580347,-5.266227722142e-05,-0.000519419822190475
0.47,1.89688649348367,3.07671654699869,1.4794374509555,-0.0654860151993637,0.0434212537271485,0.0139581354730582,-0.174480447436335,-0.474730990977892,2.12929576551536,-0.150958343039941,0.0215761691988449,-0.00495140690573948,6.24595075728732,-0.00309128237835369,-0.000587139063450712,-0.000462760519896587
0.48,1.92677893221742,3.10527704131828,1.51848884256736,-0.0689816623854732,0.0526137094468507,0.0253025996669237,-0.161644471119077,-0.419805481257103,2.15857872444654,-0.15190532066014,0.0192165838977671,0.0142147331900083,6.2103350572122,-0.00343232369716702,-0.000920015751764945,-0.00190774162043142
0.49,1.84265533179517,3.04065177209207,1.45921052695399,-0.146161196382389,-0.0244432741353911,-0.0413259491912509,-0.298952668817661,-0.55697425144284,2.06634425941198,-0.230193392610138,-0.0566973367591281,-0.0799973288703682,6.22786419320475,0.00328292079141771,0.0036015428151657,0.00571899410601848
0.5,1.82238800220075,3.01926495067101,1.46464246719297,-0.151418223992736,-0.0322751723173914,-0.0496725583435116,-0.20919030010558,-0.585135307521638,2.14427126316975,0.0616198733855967,0.144865685996677,0.10325275012266,6.16141200806824,-0.00380386742967393,-0.000834707991111815,-0.00256617926442612
0.51,1.90524696057559,3.04299556975841,1.5628558763502,0.00721126255962182,0.0914769312813217,0.0603068009445933,-0.134929607246304,-0.5224539533296,2.13368627727136,-0.193445302498309,0.00525749938763385,-0.0368989059919007,6.26212806035079,-0.00523000238227999,-0.00288773644006671,-0.00107659822274183
0.52,1.91845013774517,3.04847100551241,1.56104047771685,-0.107988961696908,0.028918638119997,-0.00858657365536852,-0.235726903921056,-0.451755930184585,2.22305951795811,-0.257060529248829,-0.0824161454602783,-0.0141536093954417,6.08657598734784,0.000825513590053073,0.00234918577721309,0.00104313788106857
0.53,1.85407644839925,3.06913511667639,1.56493991188979,-0.150562391410168,-0.023999938356696,-0.00895117400100008,-0.221292673941649,-0.541931916076872,2.03510047018865,-0.026467464296122,0.104671318548078,0.0170963372708056,6.18586933004624,-0.00238312515610033,-0.000147380211652529,-0.000423526074381208
0.54,1.8769714420977,3.03821119068792,1.54043377882433,-0.0455375482033428,0.0646001875161817,0.0135533971726402,-0.170580915705566,-0.573686447480702,2.17904039828682,-0.146315998286882,0.0184540884197806,-0.00288764421020494,6.16196531617016,-0.0041286660894205,-0.00204030713213274,-0.00050024263145279
0.55,1.86934607045861,2.98811734381637,1.58782133003967,-0.120878933113364,0.00406410298709925,-0.0222222831097992,-0.267406749592917,-0.562326495002949,2.11700501573467,-0.239730458935963,-0.0761064961473856,-0.0266362019327626,6.11147631243612,0.00168819956629073,0.00282251963176285,0.00228721290262092
0.56,1.8255999915839,3.00047242253869,1.55760977707765,-0.160021571805853,-0.0357831269820799,-0.0277174952534342,-0.23986830924007,-0.610306367869557,2.0852973516891,-0.00588664312885173,0.112523388609212,0.0317726909078881,6.12869627077419,-0.00211532036832729,-0.000208308823266139,-0.000221610468369578
0.57,1.86662312336466,3.0004809007966,1.59702070707537,-0.0413625054936671,0.0661226017765001,0.017918963459643,-0.176172457665977,-0.608701081392609,2.16158240918516,-0.13938119455339,0.014791912778572,0.000162098734396618,6.1325745094178,-0.00444197377489185,-0.00229708511712618,-0.000837596411293711
0.58,1.91611147712711,3.01699870185146,1.66891986420666,-0.072993934571148,0.0502087420116391,0.0251540506146301,-0.18869606573491,-0.517281395933763,2.16631150081425,-0.215011505843277,-0.0474146154582208,0.00595817673693205,6.07377567735289,-0.00187471865690824,0.000199265658508627,-0.00148625979116111
0.59,1.88538836187659,3.04180056904816,1.64824395570819,-0.119145379307932,0.0105111357336367,0.0158539775413646,-0.208594504887842,-0.558863202277122,2.10336370892567,-0.124234898659027,0.0360257912373156,-0.0202621337881668,6.08504826164305,-0.00189514071898527,-0.000203857505672276,0.00017704265193456
0.6,1.85207902751112,2.99446977266994,1.61919246816505,-0.107526397823616,0.0202561238175085,-0.0183706291817583,-0.234910861316935,-0.631732703945148,2.11176795623895,-0.14554856328837,0.00229792903497479,-0.00490766129914195,6.0845279044885,-0.00140346730226595,-0.000145541880232735,0.00108602668898875
0.61,1.87467172544191,2.99052495747821,1.66971960578871,-0.0904672445406804,0.0331193992343178,0.0136125239260963,-0.198442158993674,-0.592571831338979,2.14293291192863,-0.104511325093729,0.0254441518983701,0.0365003436651212,6.05189753032708,-0.00352705172520932,-0.00125715109549466,-0.0023806997157969
0.62,1.86036321129058,2.97691301038103,1.6715115986389,-0.0957689031302698,0.0206111948710561,0.00836477763380333,-0.239987782980181,-0.630331099539611,2.09727303393824,-0.209737854901419,-0.0367584548870045,-0.0550529690398844,6.06982018328114,-0.000466209028054841,0.000724576930635014,0.00219578937039542
0.63,1.83403338414982,2.95215449948504,1.65342093622536,-0.148330194397189,-0.0135952295389006,-0.0355927155393616,-0.253760296692473,-0.659623827688154,2.11826360285186,-0.0944218088851149,0.0370808985764774,0.0343017251164938,6.02230876714539,-0.000775459594747288,0.00018841398033006,3.94281322056788e-05
0.64,1.83480504488205,2.94357028239439,1.67938721267104,-0.0975607243048993,0.021965760456029,0.00529311121105061,-0.235067389737181,-0.680090640073807,2.1066696259145,-0.102492008231555,0.016104889277963,-0.00662802819874843,6.04152397138933,-0.00285683640779509,-0.000909368069019575,6.01947377219045e-05
0.65,1.83850737209826,2.92226179885038,1.69616633339267,-0.104744968913781,0.0106332799288655,-0.0153641183202824,-0.251163053576159,-0.680981289170296,2.11282769978851,-0.189828719880489,-0.0275930886589319,-0.00885089080462831,6.0188222461357,-0.000392532057779611,0.000648927196191756,0.00113516007193944
0.66,1.83727346090321,2.93236347811127,1.70804708657833,-0.133099233864186,0.000419884208802779,-0.0076456609178468,-0.237084891066015,-0.678797859678351,2.10955172626327,-0.0843699473348973,0.0390885788998526,0.0203949554850631,5.99448641107321,-0.0018594266440467,-0.000588081328671286,-0.000616794783047772
0.67,1.85743351860187,2.94442368446596,1.73465150396457,-0.0766357509074902,0.0420031252506942,0.0178324712173944,-0.210397964246755,-0.672840844086106,2.11921433051383,-0.132324554419017,0.00223609398200746,-0.00442182266571395,6.0156025723493,-0.00339404551497416,-0.00156271212624722,-0.00061749641876381
0.68,1.83162209715618,2.90398087104761,1.72716751674796,-0.1276614670318,-0.0034569185975337,-0.0235143382893736,-0.274895411079705,-0.722517750439209,2.10749252291475,-0.220960355962225,-0.0601718682059858,-0.0303176073812326,5.9744562794262,0.00147365446283942,0.00177774692013142,0.00253926137615998
0.69,1.83495998281716,2.9188355647608,1.75179764280513,-0.137316296070082,-0.00263881434294001,-0.00523578415791009,-0.22139797225909,-0.697322164289568,2.11345496599475,-0.00202386409952462,0.0922650281512369,0.0591010052386736,5.95361859640182,-0.00382180125287769,-0.00201272411799074,-0.00255478636607398
0.7,1.87101277999972,2.93419976452659,1.79050880240345,-0.0340319879243708,0.073178186693502,0.0434157755935047,-0.196490684896167,-0.68557600200409,2.12013882613263,-0.206246229939305,-0.043852647649149,-0.0364432471596628,6.0231007128129,-0.00359314225588078,-0.00210316960414841,-0.000258752922619765
0.71,1.85746738877717,2.91152312301916,1.78971705399246,-0.137181752531679,0.00143437941580294,-0.0148027975834696,-0.249676203446418,-0.70986412519277,2.17346934198069,-0.212593647609293,-0.0607218970849911,-0.00367395398754149,5.8795681207987,0.00115885997395434,0.00162596294872411,0.000867764337293401
0.72,1.84455728377733,2.92006433744876,1.81530685674122,-0.130021649342826,0.00422869098887775,0.0118392452884619,-0.219329184029066,-0.707245957477143,2.05750847130417,-0.0112902055200351,0.0891702445950602,0.0289978701838586,5.95482006431013,-0.00412412561595256,-0.00238519866767188,-0.00192937253253855
0.73,1.8418739177672,2.89115887559121,1.78732608270446,-0.0634319635424662,0.0500749970664475,0.008861598624282,-0.243300685669727,-0.754903533440605,2.12472467219296,-0.238583835812112,-0.0780558985492691,-0.0422524536702418,5.96587845181219,-0.00128036608157935,-0.000467565276246047,0.00162515130173311
0.74,1.87599397505079,2.91490584251535,1.86468613477034,-0.11739529524416,0.0225904115499456,0.0186316370857989,-0.187787127763059,-0.68759304089312,2.17121980437959,-0.0913717857547604,0.0305342693993887,0.0657005663194071,5.85080408451027,-0.00315059423322761,-0.00165251074490845,-0.00398279969978886
0.75,1.86705915276918,2.91585555942817,1.8613253372306,-0.0783830579784212,0.0444790746353481,0.042016451126885,-0.220203564916008,-0.727601290938922,2.05242101745679,-0.18590797554517,-0.0369449475552344,-0.0706222376470747,5.96427572535816,-0.00226130303838815,-0.00119056344791882,0.00139269389842498
0.76,1.79882453406981,2.83492327666143,1.7863299750742,-0.170572127178351,-0.0339688298029938,-0.0639144386650439,-0.315369512579709,-0.834118304747191,2.11978211648627,-0.194536166724589,-0.0554323119969196,-0.00033662379099595,5.87008776032678,0.00295784346612628,0.0020519792803275,0.00303878829129831
0.77,1.80266655365776,2.83654279679726,1.85370367547315,-0.139661866373334,-0.00688236509538468,0.000520772581641875,-0.250266215019596,-0.790562076958407,2.10372258561692,0.0474486544819575,0.0937578907625036,0.0642668687661443,5.86179724466255,-0.0048679234150636,-0.00269501484384929,-0.00305118374923578
0.78,1.78883077110928,2.7970570451991,1.84218961056675,-0.076767887998866,0.0177649025501716,-0.00935335817368294,-0.307251971620405,-0.861774888041197,2.0498158025921,-0.300026607115057,-0.119262683587913,-0.0939022506902687,5.9379228884331,0.00143339941774301,0.00126775498215369,0.00492023071658136
0.79,1.82582847354068,2.83246774450677,1.88068253001999,-0.164316453471085,-0.0152293015923864,-0.0195644526400558,-0.221122595782778,-0.782546729492799,2.16872945904177,-0.00208143103197714,0.0861499720500465,0.119880110135436,5.78180259842503,-0.00282043181829429,-0.00201356509518186,-0.00474457212989449
0.8,1.83830189928669,2.84596691478119,1.91173558242107,-0.0554155274695086,0.0558693506112581,0.0549021767648494,-0.24059285542082,-0.802113134024155,2.0405754972725,-0.185354301188527,-0.0590233700139225,-0.094755778855199,5.93942548588864,-0.00303639551695059,-0.00177811884705505,0.00196617245153765
0.81,1.83719424117898,2.83101455557849,1.90149762398876,-0.128498672635149,0.00440891912553838,-0.0283299257760746,-0.237891713089784,-0.819634053899602,2.18399041616486,-0.189479148561544,-0.0405157865097996,0.0510166919720012,5.7666990947582,0.000116945339150551,0.000275678144779303,-0.00106086370364872
0.82,1.83757633037623,2.83412654660138,1.95297714538575,-0.12541635074444,0.0155215475309861,0.0358275690661239,-0.230277202746882,-0.804814361949593,2.03180802299121,-0.0572001000242107,0.0337036673872463,-0.00932265394882198,5.85323531342583,-0.00326849533091522,-0.00220274476191898,-0.00122517818761484
0.83,1.85946897717235,2.84722497465546,1.93647560555234,-0.0566671234154777,0.0620986744079629,0.0276691676990699,-0.204036063778169,-0.80022266105111,2.14081630822984,-0.181452838657084,-0.0454322953154361,0.000909685915494174,5.84829464857967,-0.00348296436481372,-0.00240709363604446,-0.00125566377171383
0.84,1.8231420102897,2.79906387220963,1.95252232796967,-0.146567030224989,-0.00949518231058847,-0.00848597577935898,-0.271211112718564,-0.879391561466855,2.10308136664078,-0.224446082177512,-0.0864559579650633,-0.0328682502044012,5.76685647610948,0.00208721682483894,0.00167446630814316,0.00197101108278836
0.85,1.80017454010085,2.77643049292411,1.94061533827628,-0.161351999267284,-0.023873300366207,-0.0162656510666646,-0.271706465678137,-0.870590020429603,2.0472646174767,0.0032658541624348,0.075919921789166,0.0384119930849494,5.80690958578666,-0.00283658428920835,-0.00200417919447485,-0.00103569726904405
0.86,1.81778561766632,2.78283602603145,1.96187245977751,-0.0555531416101303,0.0563178316467111,0.0264247857755204,-0.247349332200619,-0.867749175330476,2.11791095432293,-0.184732843972303,-0.0570760477192401,-0.0131479631443836,5.82740851656275,-0.00309280405119143,-0.00239132024450259,-0.000524330202009163
0.87,1.832940508862,2.78393969723404,2.01217769340464,-0.125864046350112,0.0101794339550821,0.00996837405306421,-0.230486495774015,-0.876925271070255,2.12826367177811,-0.189740850330904,-0.0661526513998237,0.00317430616101343,5.71887667215803,-2.58244141126348e-05,0.000301143277427257,-0.000593502541027912
0.88,1.78867377884583,2.73945016647205,1.96779251284033,-0.168556578461183,-0.0336311913710984,-0.0204946793935103,-0.303626581188064,-0.934973125929876,1.99460227447729,-0.099215433715423,0.00413412856458719,-0.0315670695125515,5.80805451850851,0.000306314622030978,-8.85223333050863e-05,0.00247076753745541
0.89,1.7762491853678,2.7212591687514,1.95256861789795,-0.122254143044024,0.00468952122821857,-0.0233700952971225,-0.289032236782899,-0.942490123881719,2.1266171591401,-0.0765475445287154,-0.00106030501233868,0.0426717197072298,5.73933867841031,-0.0024636519920294,-0.00185083335547657,-0.000874227458183362
0.9,1.79439339615755,2.72044170071882,2.0363189213892,-0.101765199003397,0.0140899498621583,0.0166408983452844,-0.265141858358615,-0.931294085969009,2.04910211425996,-0.180020778845722,-0.0627794287784688,-0.0187559969363788,5.76115972143271,-0.000946206382722041,-0.000533606274589922,0.000148163737435517
0.91,1.7448805781377,2.66933707156186,1.96037251888443,-0.192746185311046,-0.0589004807044174,-0.0553170204633816,-0.344641323281841,-1.03118655089936,2.02900447134912,-0.159884069897218,-0.0484825844648172,-0.0371906975357934,5.75621504776173,0.00354950763871404,0.0015825130909743,0.00438550177574482
0.92,1.79252284076389,2.70838946546501,2.02928466516376,-0.116295930786766,0.0144833393036452,0.00595733029295872,-0.238606544725027,-0.917894425639288,2.15064216666795,0.0810540647098366,0.0899986513306038,0.110800610718238,5.67707414136505,-0.00686083838879767,-0.00489890165315699,-0.00544525375331437
0.93,1.78459706974019,2.68425297940892,2.06751995256739,-0.0577260400390475,0.026808253943079,0.0248163937017991,-0.293312679059326,-1.00416731141578,1.98671424232226,-0.377711732015267,-0.196218897816993,-0.132261848164291,5.80566668842021,0.00244635105714159,0.00173689446869366,0.00516875144612362
0.94,1.80586404051067,2.70370847927669,2.04217154556314,-0.204317805162512,-0.0478197731782132,-0.0333376749543906,-0.226417959274227,-0.966906095028063,2.15865430065865,0.0287144742755649,0.106550703859817,0.126652919433119,5.60566584146359,-0.00163061430807223,-0.00216856729411554,-0.00440732319201583
0.95,1.78578179176884,2.672148817181,2.06803039831531,-0.077469142531657,0.040747120204312,0.0368975519663564,-0.303106635110001,-0.989617902427715,1.99008023595824,-0.164111858452216,-0.089028072624065,-0.106380571375457,5.7896234226442,-0.00222066514987121,-0.00173053101400185,0.00337941151960051
0.96,1.79124951474731,2.67674976219669,2.07794189174465,-0.132040205414734,-0.010562687344372,-0.0328826105793753,-0.23848446334794,-1.00783599880164,2.14672250811545,-0.165076668408415,-0.0441766856335093,0.0809496426363873,5.60937032626526,-3.90589445948396e-05,-0.000149047657081564,-0.00224331443969894
0.97,1.81130203476677,2.67786423841659,2.12877513049898,-0.128002818585496,0.0111407955655457,0.0466259176236237,-0.245161953406388,-0.978802007272854,1.98649083020057,-0.0715468297753659,0.00950102469946367,-0.0351351580991911,5.70714334095296,-0.00255725167942655,-0.00254550718905212,-0.000490073227170695
0.98,1.78803528261582,2.65737257223947,2.06727894982508,-0.111219599454543,0.0133300947122485,-0.0188182500657526,-0.272171959505128,-1.03877658204562,2.06952827640132,-0.190308746966002,-0.0938444787164109,-0.0139494024474198,5.6805810092304,-0.000136103536473827,-0.000328204440393878,0.00160411747960756
0.99,1.79237495215886,2.64583055154258,2.12839270364373,-0.145238315595546,-0.0151162695333108,0.00284499904740051,-0.246758333101702,-1.02871929331837,2.05847119685855,-0.0815350684196082,0.00265498685388798,0.0420892888162054,5.62537648683459,-0.00142600215466454,-0.00137890354282966,-0.00209400549198933
1,1.78427923070014,2.62913661144294,2.1188003081959,-0.114840546231293,0.0109026975530657,0.0136425785887533,-0.279025154613103,-1.04724228951819,2.01083416797362,-0.144806958598769,-0.0513708476978412,-0.047127733784661,5.68298298311829,-0.00105959766227313,-0.00147537777892216,0.0016415517126903
1.01,1.78717267541576,2.62870882414962,2.13092253775922,-0.129082460410813,0.00144850884331091,-0.0106158589702814,-0.248483868071571,-1.05502595391243,2.07434561122342,-0.120086640650382,-0.0412491139729947,0.042739287991352,5.61280849770833,-0.00116242733847212,-0.00122610604376667,-0.00147287481417619
1.02,1.76005072011257,2.5857463930261,2.13125907751733,-0.150347472613342,-0.0255116473574087,-0.00488042685043603,-0.302832939639279,-1.10859935161501,1.98471637885751,-0.149980092427111,-0.06204946790618,-0.0493881131937027,5.65376756835563,0.00102879464301976,0.000153505864117375,0.00259539272957789
1.03,1.74770436450847,2.56783296327509,2.11845457246165,-0.156596183473237,-0.0286502811177858,-0.0349806283762588,-0.300053622475496,-1.11021553257108,2.05062633133901,-0.0567972839282799,0.00140671903512926,0.0427329649813983,5.60578710617721,-0.00106169273406955,-0.00151529112876459,-0.000339383678283319
1.04,1.79274554014878,2.6040041406667,2.20021421317967,-0.0783777816637688,0.038319475993955,0.0428669154850202,-0.231990966965315,-1.04535110609217,2.04972510789188,-0.106959496959217,-0.0337859291308429,0.0146318863786396,5.62684208486917,-0.00380312097277439,-0.00346213413505614,-0.00260292598088834
1.05,1.77135103407534,2.57507177162325,2.17524345507457,-0.137882691190834,-0.0145737583674829,-0.00790371343774229,-0.271268083430638,-1.15749245442326,2.01973909511174,-0.250782708832864,-0.141116935823146,-0.0657397954795542,5.58907909329917,0.00300134658105026,0.00158820279099259,0.00352398815482846
1.06,1.77262509821676,2.55286087307193,2.1767873920012,-0.180422386819171,-0.0442049314542105,-0.0244387446472891,-0.26647803393536,-1.11203262515217,2.01379587520793,0.0357542695901156,0.0729099092862126,0.0775475855265858,5.57746126890588,-0.00241134997526081,-0.0026072873345462,-0.00248736320956855
1.07,1.73533163884969,2.51917602784798,2.16205602512545,-0.0995773968067471,0.0095365681542554,0.00171684377979868,-0.331066914428183,-1.17194763546865,2.00079955948197,-0.210700547721616,-0.124298440846637,-0.0783083290099476,5.63353452620225,0.000457719458058523,-0.00054961968289301,0.00368803338237424
1.08,1.73763537017897,2.51354900581463,2.20213358662632,-0.178369127682565,-0.0491767984106304,-0.0420267644093037,-0.271513069975942,-1.18572618108817,2.04720112865588,-0.0781451413522038,-0.0198817708779907,0.0712232663733453,5.51906224292825,0.000615025385772831,-0.000277918758333941,-0.00136439725151353
1.09,1.74617347999684,2.49854415969969,2.20674505491774,-0.132317649749641,-0.011665125988165,0.0135076343725163,-0.306387527866299,-1.1629594820014,1.96835113185492,-0.074067692829716,-0.023786039003919,-0.0412572585152008,5.59982656524972,-0.00160774225883982,-0.00202966471968464,0.00136126354873867
1.1,1.7447115127814,2.50481062958494,2.21500408869751,-0.122442540847081,-0.0050794978313443,-0.0227266678216505,-0.272899038038338,-1.19414975246296,2.03428293737511,-0.156868369792565,-0.0801277744343299,0.0245635010630567,5.54256622662613,-2.63735886647199e-05,-0.000857339880178389,-3.74458429178339e-05
1.11,1.7791281640241,2.51583521298899,2.2662525824904,-0.132045034212463,-0.00427083622131573,0.0259549557365321,-0.228430065798039,-1.16366741887338,2.00068714479701,-0.0727959815163226,-0.0186154715166163,0.0145628237369443,5.53060861947988,-0.00191907641195523,-0.00215649914332042,-0.00186190486525902
1.12,1.79212165778112,2.51900860628975,2.26331807730294,-0.0989154761625079,0.0200907335932233,0.0231975849996793,-0.23079997520967,-1.17025213067875,1.99688565546332,-0.150283066969059,-0.068586179048883,-0.0242073738991102,5.55754134133666,-0.00151088369891328,-0.00208333783048037,0.00012970968084881
1.13,1.79393200947977,2.51279348249623,2.27973296880513,-0.127756060697014,0.00320122977189964,0.00978661031347502,-0.211144742398539,-1.19660086409956,2.02552767335125,-0.131696201654886,-0.0619391876446622,0.0208044763639456,5.49492781821597,-0.000671032843636956,-0.00138900994776643,-0.00139149118252809
1.14,1.7774312602087,2.47591020759865,2.27734343956653,-0.139671221879824,-0.0134216264932045,0.00947491107863666,-0.252446173914503,-1.21801960190459,1.95475115645914,-0.113599596991219,-0.0536191586531731,-0.0275607375548755,5.53441782969465,-0.000329570008109986,-0.00113586554464021,0.00089888794664779
1.15,1.76923866176355,2.46705158285717,2.27453073222926,-0.127176456949036,-0.00443432890617328,-0.00325949148245021,-0.250753333356095,-1.21940214908889,2.01070218466689,-0.0951268620775097,-0.0369752381887367,0.026348507659565,5.49937995848579,-0.00141303100400999,-0.00215744105718818,-0.00103609406618156
1.16,1.7358862258151,2.42487275021915,2.27983915596292,-0.149233330575712,-0.027041772673525,-0.0108391711020108,-0.292195074070862,-1.28634467058977,1.94765245147587,-0.16350524096652,-0.103514375021961,-0.0392680746557835,5.51677110349079,0.00178796284064626,0.000197523064530215,0.00240219689035554
1.17,1.73243687785504,2.40784379763203,2.27616559554444,-0.166402850771529,-0.0441036692824089,-0.026871158671988,-0.284153450499008,-1.2709321642354,1.99110353049934,-0.025737636146738,0.000176022680399412,0.0432069015944024,5.47594553302235,-0.00098707581502999,-0.00175487680263099,-0.00074647895550267
1.18,1.76986938656763,2.44019494900349,2.34221109092533,-0.0780964397659324,0.0312744070774671,0.0410738483246021,-0.237413773297119,-1.21396740333213,1.99771747029347,-0.109579521994018,-0.0519477060773805,0.00401693175793934,5.50170988341194,-0.00326968402467196,-0.00376112050921701,-0.00201230143303288
1.19,1.77642912553625,2.44248155758005,2.35273793234566,-0.119902994954568,0.00279287912107891,0.0162791733361226,-0.205094630786736,-1.29615102704162,1.99572090335767,-0.208554268984881,-0.13585812459158,-0.0290419635118721,5.43809429526725,0.00124119210624146,7.22594494978041e-05,0.00066109246601655
1.2,1.77538179495815,2.39991448422599,2.33713177834041,-0.1696347574778,-0.0408601926934392,-0.00638940680922785,-0.238505662496488,-1.2874205090516,1.929713884716,-0.0346633442774617,0.0067671402547875,0.0200188458093248,5.46750829579119,-0.000720694023699478,-0.0018026079508392,-0.000617141301751889
1.21,1.72706915238335,2.35776572616707,2.29916621116503,-0.13209667513837,-0.0147946967490426,-0.0157865378095628,-0.31461656475809,-1.3318423065179,1.95740100306451,-0.139519195098184,-0.095328543561519,-0.0334785124750582,5.48507770945363,0.000551704018662661,-0.00112854383850066,0.00236902219099818
1.22,1.73328946387028,2.36546876112557,2.36249523354842,-0.145512787454864,-0.0273204671570552,-0.0101601991342692,-0.24609192505258,-1.31941575214272,1.98692929807808,-0.0641009554763283,-0.0427116117732195,0.0547404396943727,5.40861027513401,-0.000968030259779356,-0.00157684119355928,-0.00207030881161276
1.23,1.75545055123429,2.36390701389083,2.37912243762022,-0.113557197506627,-0.00421461413493643,0.0284215962321244,-0.25253706031024,-1.31217209922471,1.92259287858384,-0.12331000694176,-0.062997900062681,-0.0382176472750545,5.46434307227589,-0.000946925623397138,-0.0021045947698476,0.000526313227602157
1.24,1.73482174249506,2.34080827957037,2.35180564619231,-0.154248320913386,-0.0286464074224599,-0.0250915589186378,-0.261768761534928,-1.38073801564665,1.95789164762356,-0.136742331626075,-0.0928978423191621,0.00404279638633364,5.41814602545676,0.0015470198155303,-0.000467478276661431,0.0010223574751783
1.25,1.7445647693639,2.32459582949821,2.38341209958998,-0.146585493084363,-0.0274803692077331,0.00437836459663379,-0.251338764411874,-1.33684446984915,1.94081955812,-0.023748123620761,-0.0212480172911272,0.0257152433327384,5.41552958285144,-0.00181857122452812,-0.00229957078252661,-0.00138229337561242
1.26,1.79423582517283,2.37741470699001,2.44326955304164,-0.0579897128704018,0.0441253040082723,0.0586528333631034,-0.181105420342818,-1.28245410702893,1.98065655413358,-0.124100546589853,-0.057155508815741,0.0107653092570265,5.42915125231389,-0.00367330176483919,-0.00456228885852722,-0.00313133822341076
1.27,1.75302511122799,2.32316679661164,2.40859013172368,-0.156386829894381,-0.0281069986805962,-0.0071664252895071,-0.224878374637456,-1.45759218152272,1.94064875744374,-0.248313335356569,-0.193299203232535,-0.074683836205295,5.36893980713229,0.00474118837303454,0.00205028575300486,0.00390591181826075
1.28,1.71298234601391,2.23217732478821,2.36536312242213,-0.228369021402589,-0.109369570899657,-0.0655043694751988,-0.311842980249578,-1.42747564721706,1.86985531158065,0.0687625733611115,0.0519255057910555,0.0559389577055196,5.44268194295547,0.000417304954163742,-0.00134912969296648,0.00045596062837163
1.29,1.65905116641983,2.2088402164263,2.34940772839931,-0.12233301188995,-0.0257625051153777,-0.0268045278149969,-0.375151481198225,-1.45613889713121,2.00414931662538,-0.116332320156445,-0.104991770427815,-0.0329529083443938,5.38020751145913,0.000183264279092169,-0.00163725573533669,0.00285263078027358
1.3,1.67790512684196,2.22516660129145,2.46684658204702,-0.16150990068921,-0.0549716213592323,-0.0305018659206984,-0.269724871452776,-1.46470158491606,1.89314005038537,-0.0968215907027344,-0.0838077736730587,0.0482391758749064,5.35624513188925,0.00136952170567286,-0.000189084971671874,-0.000822932473248391
1.31,1.7104836238355,2.22103225744865,2.40946153371569,-0.152326474457974,-0.0433770895628698,0.00458830775875821,-0.285597825437247,-1.44312382153223,1.89293107088824,-0.0448816958550994,-0.030583038810621,-0.0280848961031951,5.39373448570885,-0.000432553893528271,-0.00203568529809893,0.00113688175326675
1.32,1.69292185283238,2.20718479887774,2.42014575245214,-0.141709271705452,-0.0333305089221878,-0.0343393627884292,-0.290092902192949,-1.48920641318885,1.91789476849306,-0.1267809546758,-0.107562990178443,0.00571574822092111,5.36663208416656,0.00132781554709358,-0.000825292340425424,0.00137289003796927
1.33,1.75660687907577,2.2505517231186,2.50077977289664,-0.113810067628613,-0.0035720165352232,0.0376271460889601,-0.176722317538689,-1.40034193368632,1.94333229964185,-0.00373609151710062,-0.0122707791359309,0.0615743596824806,5.3145576093554,-0.00360982505772514,-0.00397129826632157,-0.00461783044912326
1.34,1.77114402814962,2.24823334188626,2.50094577307731,-0.0833133244839333,0.0134936006525733,0.0434158090258352,-0.190854939652411,-1.46633429432575,1.86703158842295,-0.221447451000783,-0.151763156895784,-0.0825101046316949,5.37950306076176,0.000729619171077829,-0.00112145347488001,0.00192095479537583
1.35,1.75883793850763,2.21099200930326,2.46964639504243,-0.179532555601292,-0.0498925708364664,-0.0244937198022768,-0.185088734982426,-1.51847019045157,1.93123903770468,-0.0544609139191563,-0.0403081175672305,0.0508202916694919,5.2845657006043,0.00111659757335601,-0.00113870802776828,-0.00123364524383035
1.36,1.75480538277129,2.17808085950915,2.49481225637384,-0.116736242600462,-0.00753024514849267,0.0272603564147096,-0.239929105807799,-1.44559531861745,1.86178101761362,-0.0384542274435117,-0.0530365186100278,-0.0196639700788344,5.3622778082512,-0.00228974650342774,-0.00312593347309049,-0.000305631622389562
1.37,1.6651979837425,2.12144458219514,2.438658745892,-0.173919504052984,-0.076683777877587,-0.0631063341153897,-0.307671523283865,-1.63340285152474,1.85678774148487,-0.230110534073844,-0.180345061089699,-0.0522467416287265,5.35059491797175,0.00639843772520775,0.0020706608706394,0.00546989593981297
1.38,1.73619512191543,2.14662143513505,2.52039692190436,-0.16449333925615,-0.044989018701424,0.00382816508549448,-0.208868902790978,-1.4474552010412,1.96307431755523,0.193144427219949,0.0954170108680894,0.142536390939722,5.23247773458952,-0.00581014630585405,-0.0057220503767798,-0.00686801457276672
1.39,1.73293163623275,2.16261241082498,2.55337432014281,-0.0212799116107166,0.0337651494133277,0.0623747162242048,-0.242472896234171,-1.51064919669016,1.80262103396854,-0.328498719015975,-0.23033168836537,-0.14515601659034,5.43229953928283,0.001073069312696,-0.00108541838035888,0.00402961128941242
1.4,1.69990570275302,2.11308595872577,2.48135497561357,-0.254266642326854,-0.116423117571085,-0.0804641547580166,-0.2028584703267,-1.69262715827096,2.00110773362934,-0.0730092843999192,-0.0562473770714267,0.0702309489576098,5.19161746805574,0.00604590024185194,0.00105400404793112,0.000487436722286402
1.41,1.69000914010457,2.01535775112564,2.51484986734103,-0.17477782565616,-0.0605498298773926,-0.0130158433755277,-0.344154864740335,-1.51971878987893,1.8227254080495,0.123735683731839,-0.0112973621630892,-0.0219115875442015,5.33062759953785,-0.00302771887493664,-0.00294943546533994,0.00166251107637016
1.42,1.68444151110649,2.10520860014499,2.5569609497978,-0.0551390790158504,-0.00547772964629438,-0.00490019551041311,-0.236372084190647,-1.56067849600813,1.91598197728649,-0.210305588627137,-0.130360532690039,0.0371797854269956,5.27875992903861,-0.000333833248004734,-0.00202874666598114,-0.00145744105689153
1.43,1.75958190156218,2.12800079475831,2.62054214533512,-0.150688561041637,-0.0158820018206487,0.0502342999016297,-0.125296207264601,-1.61137454373308,1.88663144512953,-0.0688963198288077,-0.0668132102827201,0.00242827151148577,5.18458626802425,0.000529789037642692,-0.00214431429317378,-0.00246798858087795
1.44,1.76030276207917,2.06356770870297,2.55318213021694,-0.128024896089091,-0.0237839004615063,0.00613777679272366,-0.196701564037478,-1.57123419410309,1.75978748967849,-0.0623837475044385,-0.0965654652174766,-0.0464926979626526,5.33452175257778,-0.000543006038451773,-0.00150456543785767,0.00193394783924553
1.45,1.74458510417777,2.0781588625417,2.55309425047833,-0.116989471860763,-0.0277893423923607,-0.00399476111688047,-0.1774682643852,-1.61122012667153,1.9166016192267,-0.0992483368206996,-0.0635793171773518,0.0543684675523745,5.20706493440622,-0.000121327112554923,-0.00232859037147619,-0.00235406807923302
1.46,1.72848441733869,2.03185460177498,2.5994673745449,-0.150701337422485,-0.0331663177942507,0.0164109890094979,-0.212199714176526,-1.65221038490416,1.77443547117608,-0.0968191982217888,-0.115810572644993,-0.0528848261528538,5.27061371987327,0.00174284602489094,-0.000972648913936501,0.00173306484685565
1.47,1.7402358549348,2.03392706869508,2.57238167561503,-0.128476595976562,-0.0338424431443536,-0.00493875529685218,-0.178041386976775,-1.60105648859151,1.867027017902,-0.00404701487119416,-0.0407487493345121,0.0528722521867747,5.21965015684155,-0.00192795721239582,-0.00282834684743435,-0.00224013093320471
1.48,1.69713257619705,1.98542716313757,2.58141350567565,-0.138766262398272,-0.0509486628374093,-0.007835007432867,-0.252547840812862,-1.71344898772203,1.76939280149217,-0.191124469867101,-0.156770416558785,-0.0717714003336733,5.27247254191531,0.00401597295910521,0.000244079919223173,0.00377097335332306
1.49,1.72227177780658,1.99045355271281,2.59431790075823,-0.168133276728241,-0.0544026356575857,-0.0160750253876481,-0.186259484501296,-1.64197025327253,1.87472686418293,0.0856373996481405,0.00691528992117349,0.0949827724191473,5.17441395814537,-0.00207560690699038,-0.00347785882394005,-0.00372245575589365
1.5,1.73373485867792,1.99402592822595,2.63946696464075,-0.0631618884201265,0.00569319719410493,0.0501833976629361,-0.200709163697089,-1.62676616962898,1.7788137213599,-0.164676592281344,-0.148275832146838,-0.0705393397856495,5.27618976820593,-0.000591096550464731,-0.0022877306799594,0.00101746302749147
1.51,1.71261808944191,1.97342396571271,2.60842572656286,-0.180600227449652,-0.0720578210439618,-0.0349509111065102,-0.163153056079145,-1.78132514852913,1.86178452050281,-0.119456432670442,-0.111012515229805,0.0181673462520318,5.14497626719254,0.00422336610179632,0.00030317178143607,0.000789765153530361
1.52,1.73412110989731,1.91619817968886,2.63229606185043,-0.155065815385645,-0.0484283482319526,0.00699761555742052,-0.221377666483894,-1.64232985326653,1.75925901519814,0.0860174149233086,-0.0104573952297657,0.019711784441295,5.23053999328136,-0.00250148858682833,-0.00351914822872932,-0.00125141122547659
1.53,1.73968866625436,1.98395203313094,2.65903819433618,-0.0457830230314823,0.0173184155463705,0.0403837504832792,-0.152726564527867,-1.65476420712948,1.85237494719614,-0.164279141376892,-0.135585945135077,-0.00146521781624151,5.20173699591589,-0.00136325802988657,-0.00320979138533089,-0.00177139320770351
1.54,1.72961071090675,1.93517217775019,2.67000676485173,-0.176743334673499,-0.0631810181238082,-0.00326488187672845,-0.132182132769914,-1.82687390301074,1.80557539683999,-0.144076636743894,-0.149743072440714,-0.0376820324706614,5.12717195239614,0.00490391810161455,0.000996870965443426,0.00193839628836256
1.55,1.75643346842189,1.88070476436136,2.65164055980861,-0.153071957862747,-0.0549908933583952,-0.00377352168279464,-0.189127187490271,-1.65910445727637,1.75353059080205,0.122773647899193,0.0276932263808828,0.0545558255975825,5.19944825329994,-0.00340890622442304,-0.00423808173967493,-0.00238484292261721
1.56,1.68660063460353,1.88319933806017,2.63171764877062,-0.0862488395087162,-0.0238897043056329,-0.000191185609177205,-0.237802541343859,-1.78462834688423,1.77577870119749,-0.24663110390418,-0.211627287708583,-0.07152238829224,5.21522303607943,0.00340766826554877,-0.000177262171680392,0.0033983131284363
1.57,1.72076333371365,1.88238470200418,2.69281633821125,-0.189514084138592,-0.0764582931782189,-0.0132199632819818,-0.125566179419357,-1.78765669201752,1.82982474054475,0.0643478053092879,-0.0105666193476998,0.0899496843550033,5.08117403777401,0.000132769786663838,-0.0022174498441272,-0.00363605017784696
1.58,1.77189793927163,1.88114392386202,2.71833315031489,-0.0512348759530565,0.0198172203732799,0.0717874229726087,-0.162035774796309,-1.64669621211504,1.73917637667027,-0.0531199826700699,-0.0851131968482423,-0.0487058109143091,5.22367307158274,-0.0036127701863708,-0.00495001478975564,-0.00102033787414203
1.59,1.706520207143,1.8686861088469,2.67431377057845,-0.146772723256631,-0.0573784589444446,-0.0310614555247514,-0.131078086888681,-1.90708073271612,1.82243040044107,-0.244932583491212,-0.229345801221031,-0.0317942823823502,5.08352429472084,0.00657774862162533,0.00210903706668396,0.00297822128287601
1.6,1.71129074911656,1.75591998368431,2.67792532841955,-0.230992613600879,-0.126350336302347,-0.0406240674120953,-0.220359834443893,-1.80929989148953,1.66913804396329,0.158865277528994,0.0396642847968401,0.0459392723087588,5.21413458733314,0.000319967571850926,-0.00212262196371703,-0.000261452558308348
1.61,1.67665698403614,1.78220913176215,2.64971218747102,-0.0683333801347879,-0.0142537201552329,0.00220629603524704,-0.261750088767304,-1.76933247655488,1.87693213039038,-0.0883709302322892,-0.127408079573155,-0.0210829225062595,5.12369322977562,-0.00133833174271438,-0.00339092199907103,0.000896077089250333
1.62,1.69592070493183,1.81747138318955,2.79566630208172,-0.136933306883316,-0.0521284566637633,0.00267932868459188,-0.107561602913567,-1.8864323738353,1.74074088515505,-0.130081628652165,-0.15144610150413,0.0295085398622585,5.05711333121797,0.00312419339924931,2.3873362659744e-05,-0.00152881862446658
1.63,1.71817803868435,1.73315713615224,2.68180055311308,-0.181676485507155,-0.0885590900306335,-0.00711898798368937,-0.195778187559134,-1.85503677573882,1.64723008774058,0.0292016866817948,-0.0445679200206819,-0.0449983865621203,5.1985023210149,0.00146103965486675,-0.00152314388085347,0.00245195874522621
1.64,1.69870336703494,1.74907703187543,2.6849837698793,-0.105599365108623,-0.0356596321546107,-0.0207800215399549,-0.197117131438478,-1.82289529750303,1.82674136813013,-0.0278337471010942,-0.0930337464790451,0.0501976034617339,5.08256391752658,-0.00089487537321388,-0.00305294671644405,-0.00140106391039759
1.65,1.66934259448807,1.71975312598816,2.75261512777629,-0.152181036239439,-0.0787972952732427,-0.00776071421776901,-0.179276157818635,-1.94567749958176,1.65824316232584,-0.142182050547793,-0.175393410497228,-0.052166734032616,5.1307202667456,0.00486203295419733,0.000999889974427831,0.00282553446008945
1.66,1.7263896314197,1.71650722589891,2.72443184617805,-0.153040071058957,-0.0696840559757775,-0.00769404426466103,-0.147667267255804,-1.83174595489799,1.76691397912776,0.12651875133647,0.0236811782896703,0.075953161593539,5.06257410740843,-0.00245223691008065,-0.00426485986979073,-0.00323059813200777
1.67,1.69637714823534,1.70614642568442,2.75270884471286,-0.0773666989863755,-0.0213794665134181,0.0189627809531741,-0.188855591461624,-1.89404124584215,1.6628857148454,-0.194927542072041,-0.210600244197204,-0.0805366464752827,5.15512600874311,0.00254092477868979,-0.000791858977029581,0.00290221992735366
1.68,1.71552909643629,1.7081257024571,2.75466890002457,-0.177870385291072,-0.0882932826224308,-0.0217776277232853,-0.0776245998788954,-1.95280926996937,1.77864843194535,0.0282005475412841,-0.0468557414049418,0.0748734785666663,5.00268118037059,0.00160131554197432,-0.00133913722691086,-0.00252721482555045
1.69,1.75288286562659,1.66895626697036,2.78957130419261,-0.0898334472308099,-0.0204836053723521,0.0439011771565461,-0.156189852766404,-1.82618089313505,1.64665590645423,-0.00473197958597649,-0.0765277151443474,-0.0415862053456328,5.1275852635005,-0.00193112085075942,-0.00395954232564959,-0.000104562677626588
1.7,1.70228311528508,1.68470608511528,2.75487860471903,-0.122150836365372,-0.0528046679268303,-0.0197934960615736,-0.101729681105361,-1.99567846126625,1.73013837645401,-0.164505902747099,-0.192207134269981,-0.00518945115579203,5.03930150641103,0.00418513303215548,0.000427190620373635,0.00116692877764844
1.71,1.73321224408872,1.62042676529071,2.78574883234606,-0.177062772784615,-0.0910285460567479,-0.00287160293852676,-0.118224882941823,-1.93925696399364,1.65074673809114,0.0909907996326542,-0.0156321823116872,0.0289655724794536,5.07041017182793,0.000221691704959754,-0.0022937306731559,-0.00124894068083404
1.72,1.71164276665045,1.61558503770175,2.75963526770077,-0.0863625542428318,-0.0314618299585566,0.00626596229514357,-0.175107398355257,-1.91563599717292,1.69683287176808,-0.0771816924763667,-0.13200737951957,-0.0317719428074513,5.08554079216451,0.000213149894110609,-0.00258034046272631,0.00118801349992528
1.73,1.68864373183857,1.61191868528053,2.79996351453763,-0.15528283412403,-0.0811470183407101,-0.0224159501077142,-0.101417827372171,-2.03981042035919,1.6890472017879,-0.0800529600430317,-0.143393206989958,0.0189948673023806,5.01691445162612,0.00397952985264071,0.000180996284074667,0.000142926506939178
1.74,1.74749645687857,1.58473071145939,2.81338197475035,-0.127810073183331,-0.0562236825694997,0.0245193035597619,-0.109373005919441,-1.90558652068324,1.65706984812812,0.099596430096532,-0.0151937202041398,0.0209654820268451,5.03977763066478,-0.00231447975137753,-0.00405127610608,-0.00215604915404365
1.75,1.71778997050313,1.59775845254102,2.80663014851758,-0.0761217856984443,-0.0269037397772155,0.0115629552130888,-0.112333862064142,-1.99730038863311,1.64986706383392,-0.172960746951394,-0.196079077291566,-0.0453301835823063,5.06118789970927,0.00255904551792196,-0.000984917847086058,0.00157913223332259
1.76,1.69306583181988,1.52829600235947,2.78424805875124,-0.207874562183442,-0.123767050595319,-0.0447351628034416,-0.103092083000354,-2.10972813609499,1.65725287028395,0.00216208348087177,-0.0925707532653607,0.0153622915970268,5.04073220033918,0.00501288720230026,0.000369252645799647,0.00137666422525779
1.77,1.75367266095661,1.52974648270082,2.83543661873281,-0.0874305615764286,-0.029757152979945,0.0320323540412605,-0.118823272013895,-1.86845777201253,1.73142926575468,0.149912195897547,-0.00275249461215221,0.0538921938849184,4.97695383437868,-0.00534781461128731,-0.00618433265749327,-0.00404793494575524
1.78,1.68873788404435,1.54861741005874,2.85904486068242,-0.0754337065337082,-0.0455820292630168,0.00680607696488399,-0.0959014417767797,-2.11582904598943,1.5694164408654,-0.311347215641068,-0.297062976076084,-0.102687892205139,5.05385420431544,0.00682270014044527,0.0020329636899933,0.00453225527614745
1.79,1.72986507440134,1.47816168685694,2.80124494289424,-0.233470622584658,-0.142367475033267,-0.0434391436090646,-0.0611560693294372,-2.09800927222885,1.68079122869547,0.193958002469876,0.0539754869822105,0.10161102692205,4.99644860455621,0.00143435762157176,-0.0023849269946467,-0.0027662051566833
1.8,1.71329718623692,1.44251661149302,2.82520644713674,-0.0554908092020332,-0.0163035007759706,0.027667511687473,-0.193713357736772,-1.95074910943187,1.67166562171927,-0.0328294340756651,-0.145910834296098,-0.0721156527803694,5.03987173079147,-0.00165862161768893,-0.00368698959058283,0.00207471922691962
1.81,1.67555136193095,1.49746180557216,2.88589952011847,-0.138285095215557,-0.0909381737849965,-0.0354812465214618,-0.0332417095998576,-2.17547562997055,1.6591067768286,-0.15205035857012,-0.190164423632981,0.0387825574653635,4.92192797853457,0.00590157027649691,0.00149168123759733,-0.00016856275544243
1.82,1.74997198153774,1.41356175543916,2.85784060048897,-0.172471954896575,-0.0930361752401875,0.0157857801893345,-0.101265639539587,-2.03593586662519,1.54908743313918,0.170640020521143,0.017416904836794,0.00244501756106701,5.03407117501161,-0.000992736253444795,-0.00365383777530513,-0.000877655317350171
1.83,1.73335595596366,1.46842513688493,2.85491900107733,-0.0301986544895403,0.000434550132522325,0.0245571147762702,-0.0755991323341789,-2.0086531551834,1.67884709587305,-0.0984684949424473,-0.169170545951022,-0.00208957913752117,4.98823782189083,-0.000980707076194447,-0.00338900414440394,-0.00108069727917862
1.84,1.71318921061924,1.43531315848333,2.89904107419774,-0.164292081033171,-0.101837693189757,-0.00949013615865073,0.00571664329500837,-2.24002791760359,1.62529150398721,-0.120871890918577,-0.182951065129445,-0.0288078880881576,4.91392692152947,0.00684427537472752,0.00194162438035766,0.00181004259564248
1.85,1.7624378479119,1.3461687406636,2.86635313853937,-0.160789488842762,-0.0971763496328904,-0.0132568146828246,-0.104137464129872,-2.03916814641732,1.54859320451794,0.20610612055557,0.0352555428930648,0.0432248291739146,5.01046712450641,-0.00217397471546182,-0.00429824053111424,-0.00143125867495157
1.86,1.70359349220699,1.40046394246819,2.86555716533343,-0.0390004003659962,-0.0185443729333505,0.0174166973678458,-0.0963304222048258,-2.09304849792503,1.62813398559357,-0.164896306520459,-0.215159244335188,-0.0340177271092884,4.98661518595627,0.00167216178617975,-0.00173857102207783,0.000751718060383963
1.87,1.71158848691465,1.372945144606,2.91161568353746,-0.184707160829994,-0.11686014171983,-0.0186112259528796,0.0125424942431997,-2.25285851674907,1.62275444258559,-0.00815866227710138,-0.112960477269503,0.015563493195883,4.89558001071168,0.00515720910880971,0.000638969709125653,0.000132772131134045
1.88,1.72901509688971,1.26835309065799,2.86479582113395,-0.145270228737289,-0.0972390467250604,-0.0217340200623199,-0.146710042388833,-2.09531932736583,1.51419346603759,0.118061805313916,-0.0435092394700872,-0.0162574585003735,5.02876496544577,-0.000189788781623456,-0.00285490980739372,0.00177181061997453
1.89,1.68845928447401,1.34277070052756,2.88794168475501,-0.0739577032240042,-0.0509188332727267,-0.00812018285832263,-0.0695186244125334,-2.14817175182602,1.64275865854165,-0.0807481552776748,-0.162102511622648,0.0355761414681602,4.91101986411553,0.00151660155026155,-0.00175771280386473,-0.00133347303942296
1.9,1.74930721141957,1.34237029453064,2.96923286810588,-0.122466846302635,-0.0676515561316308,0.0391884235651078,0.0361471792381933,-2.19000087276595,1.55113697665385,0.0161649648294355,-0.0960822979165671,-0.00481057653505464,4.88635820182158,0.0014515499966665,-0.00170178156658888,-0.00164649046239777
1.91,1.73921722267213,1.25832673149656,2.8784829253124,-0.128442455566227,-0.0868622451401483,-0.0197710954344281,-0.0608659531774874,-2.20792780135748,1.47835861073718,-0.0248278980116825,-0.130048592422459,-0.0483949084154387,5.01116256191504,0.00323260858018529,-0.000822258115782688,0.00320074680073614
1.92,1.69432480324464,1.23259577434007,2.86192710226181,-0.153192999228479,-0.111682489325561,-0.0486429338884548,-0.0738051101585299,-2.23790097793768,1.59787080421576,0.0384223047838172,-0.10238195399391,0.0471329134579401,4.93059900782157,0.00301711823421554,-0.000937723834600164,4.68011895149863e-05
1.93,1.74909677848493,1.26947478382055,2.97616946115292,-0.0731065124827313,-0.0433908209390616,0.0462227751241703,-0.0111593987551926,-2.10794598437386,1.57680576951858,0.080910906726891,-0.0632770413259103,0.026163083851043,4.87109087262308,-0.00245848535019694,-0.00443066739438391,-0.00343904738353352
1.94,1.75961866992216,1.29269284125587,2.97586233626661,-0.0631573754449359,-0.0380196026471953,0.0355060803653429,0.0593683594933089,-2.24830515856032,1.50323059234827,-0.147905379014305,-0.205094262726541,-0.0545293425096775,4.90167593980349,0.00337165753535815,-0.000469241079958874,0.000879417041568014
1.95,1.78036988702343,1.21459715965623,2.92651076429164,-0.163032843788963,-0.104524037273433,-0.0126286993656456,0.0624011851767903,-2.28244016069915,1.53127534156876,0.0779577034580561,-0.0561901093220998,0.0304000403606808,4.89444189562786,0.00266739124858077,-0.00128733708446087,-0.000859857436856124
