time,x,y,z,roll,pitch,yaw,xdot,ydot,zdot,p,q,r,thrust,roll angle,pitch angle,yaw angle
0,5.01841953230695,5.01841953230695,0.0184195323069548,0.0184195323069548,0.0184195323069548,0.0184195323069548,0.0184195323069548,0.0184195323069548,0.0184195323069548,0.0184195323069548,0.0184195323069548,0.0184195323069548,9.43040481713373,-0.0107681824827059,0.00864443204963026,-0.00193512813120599
0.01,3.0193717654818,3.0193717654818,0.0193717654817975,0.0183444933534227,0.0179688174939763,0.0169509336012674,-0.0686937564357145,0.104934129595625,4.58060963505448,-0.428722370879039,0.345811464459153,-0.0313258561763384,5.69355957995674,-0.000486934384206453,0.000304102008905508,0.000476903297752843
0.02,3.30292657252929,3.37310386708152,1.86149072283887,-0.172430550282532,0.141965009915551,-0.0112068707746456,-0.0188789145625095,0.023222601531084,0.844049427005541,-0.0202242309407412,0.019754494412556,0.0120742712259648,7.03907955968692,-0.00099864374905573,0.00219044901381852,-2.99589720392679e-05
0.03,3.32603766781789,3.34340581813926,0.377040900913379,-0.00430927547147109,0.0166088302203846,0.0114774339060255,-0.333680919115064,-0.391121721547852,2.27605117876347,-0.0397426916278245,0.0940126962617804,0.00461686328654782,6.98008495988168,-0.00577800523525706,0.004079993797486,-0.000826318743907201
0.04,3.16417397213977,3.1388924221737,1.04295299019933,-0.0320598231579974,0.0270874566423213,-0.0137048648976775,-0.0837768013618317,-0.0501619378850603,2.15742076361588,-0.251002858756081,0.151861831960785,-0.0289008701847347,6.71607246567456,-0.00081531616716093,0.00373124106509582,0.00196091285681138
0.05,3.33081788762298,3.34499964318563,0.961464289885694,-0.0719525241050658,0.0969650193744845,0.0238714267462088,-0.0267621151767141,-0.0260362018301762,1.95294311484624,-0.0135099849223904,0.177469642296922,0.0684223507401177,6.83179762428598,-0.00557264747822815,-0.000157805502449281,-0.00440918149195301
0.06,3.31330921014026,3.31425374948381,0.87256939221075,-0.00879761185274479,0.0741641021850661,0.0220023254944157,-0.22401032595934,-0.173512122859391,2.07688819027407,-0.235655880527,0.00188883835924691,-0.0930711453584849,6.81656605931212,-0.00217076597715092,0.0045859533608989,0.0032493668096311
0.07,3.26928758109596,3.29156610176652,1.00438059040947,-0.063339597418314,0.0413776637997463,0.0023401360255275,-0.133395627720816,0.00257896229418553,2.09815633869491,-0.06915624778744,0.216576779002477,0.096698705086942,6.74546431039581,-0.00484732156422154,0.000935406677224281,-0.0047531971673023
0.08,3.27216445952057,3.32997705317399,0.967850872337525,-0.0294829931791399,0.0942224710925547,0.0370713142948393,-0.124259926808758,-0.147000183829908,2.01908419164053,-0.208111627137197,0.0480547847731134,-0.0973100323881088,6.78260832314076,-0.00229777010777844,0.00271667814727582,0.0027538240502978
0.09,3.29215222518266,3.2835206661222,0.966936100331415,-0.0722084865597459,0.0438275045869426,-0.0204066935418281,-0.210896579444279,-0.0792375994415525,2.09054205227964,-0.0910109986042627,0.132749744980955,0.0712393194033588,6.72610902016804,-0.00357526845909048,0.00264551478865095,-0.00247111966104405
0.1,3.2037221286649,3.26112565916892,0.970333298025335,-0.0734059659127716,0.031206988816833,0.000464642876799246,-0.20221079834493,-0.226355711864005,2.00726873373791,-0.183608204122536,0.0885637494596923,-0.0761565493714859,6.76284252362455,-0.000268948457805327,0.00408679661677122,0.00355206279514812
0.11,3.22939306764389,3.22031994992795,0.960962215001356,-0.0936295112284218,0.0297869270307513,-0.038792889328623,-0.158464483329891,-0.217248478948006,2.07449875976967,-0.0356375241403403,0.162344637419881,0.0634607435834773,6.70890992746246,-0.00311014462323004,0.00248798400661961,-0.00118246477603741
0.12,3.28640766248152,3.26296165352348,1.0335983203478,-0.00076281125454971,0.0955406035492366,0.0457510045408757,-0.102892548601495,-0.193124141290423,2.0773324630498,-0.125068085922141,0.128813145388811,-0.00596749490626095,6.72639930774336,-0.00572123921911353,0.000335956259726743,-0.002006818449548
0.13,3.26389776638248,3.22626646566151,1.01740225654353,-0.0719993513363531,0.0491103446900528,-0.0187525354337079,-0.279685948268117,-0.108533816746587,2.07860619589795,-0.258617352755321,0.0177846681855226,-0.0534939439923353,6.67745421213522,0.000729590373546262,0.00478396331252258,0.00334512300168134
0.14,3.21959726498724,3.29368648433901,1.04602421966992,-0.102595880369421,0.0272913088338795,-0.00343469483388197,-0.168374896998583,-0.184454516679687,2.06541991330362,0.0203742776975864,0.21053666948374,0.0792750583590332,6.66675521592802,-0.00482696221481033,0.00111681453196693,-0.00361196165744164
0.15,3.24233622466753,3.2368586495825,1.04179778471713,-0.010779327855655,0.0855300003739792,0.0186967682488917,-0.164641309694414,-0.276790233233833,2.06087676623447,-0.223518410500674,0.0536421581329896,-0.0831484112695241,6.69809733365595,-0.00246274857894893,0.00242448792253678,0.00293766093314802
0.16,3.25075089880913,3.20380721559823,1.05966956625197,-0.103247620474686,0.031070137390008,-0.0336389539092263,-0.260790159877196,-0.12834036732556,2.10829245530718,-0.121573842432488,0.112900215598468,0.0593162240148417,6.61179307610955,-0.00144601171138644,0.00314870024839276,-0.00126428309163832
0.17,3.1828542539298,3.24143386414474,1.05739487717819,-0.0891448257923869,0.0308678351447706,0.000395643145077937,-0.219891498739596,-0.314524566667153,2.02228608702676,-0.102974809176959,0.116181878070157,-0.048778508500261,6.65887710835378,-0.00171329566895728,0.0029780716148976,0.00225636830514926
0.18,3.20402656575201,3.16439731648862,1.04964841811628,-0.0784356883607845,0.0352937406196266,-0.0423026906541634,-0.216452591202508,-0.306376759382601,2.08383300865564,-0.110155965897734,0.115841118437067,0.0272047686991751,6.62153535774173,-0.00193498549051508,0.00281095916908533,0.000668693373930604
0.19,3.25209126364286,3.21527548084141,1.12476815648248,-0.040630122469743,0.0778165177936681,0.0293720735264989,-0.15957743504361,-0.220047623950976,2.10082264728831,-0.0871000558085352,0.143329356992587,0.0295129471765027,6.60196466284713,-0.00513637595791008,0.000259238198233822,-0.00288730290442205
0.2,3.24715813452591,3.2228410828569,1.12236864900673,-0.0510093734431235,0.0697405892045313,0.00636527729446588,-0.25519903740505,-0.207896712024683,2.07981570617757,-0.233842639912822,0.0296973562070111,-0.0623965522674862,6.60160962956019,-0.00106957056046549,0.0032386204967153,0.00254273961653034
0.21,3.19187147312518,3.2146992895503,1.1135674357674,-0.124088519654073,0.0110766455879137,-0.0356278109338549,-0.277153609028491,-0.249984358002848,2.08185482694694,-0.0812585643883217,0.137553972481907,0.0407228308556639,6.56656849857171,-0.00123657860043008,0.00294216773883665,-0.000270410865693478
0.22,3.18451642824019,3.19841915236111,1.12822389773167,-0.0650102738715378,0.0551811162698762,0.00283952787542401,-0.200955030386016,-0.363234858483013,2.07651935194822,-0.0896575744451406,0.123267196727777,-0.0180993586153458,6.56649597721059,-0.00334786567011909,0.00149918301793406,0.00065721759653299
0.23,3.25087421020955,3.18133872255504,1.17571960268371,-0.0371725638179064,0.0820122380981317,0.00669465015113896,-0.208716655052672,-0.236181432600084,2.10777811057501,-0.148512432945735,0.0954408240871003,0.0273256796097966,6.55551064868552,-0.00394456591050599,0.000974409655490072,-0.00173271094238035
0.24,3.22185931649993,3.21203783712612,1.17674918535143,-0.0793157175939433,0.0529680955552709,0.0080635746207827,-0.282872875132001,-0.232732303436227,2.09821655134268,-0.189857729470989,0.0598438238295358,-0.0379485496440654,6.52563853493246,-0.00108701362075881,0.00291146356127097,0.00132363905121261
0.25,3.20346643917116,3.22777637068487,1.19647811746632,-0.085456476762157,0.0507265697922356,-0.00327023088443467,-0.230095649074056,-0.276519029944167,2.09487773542509,-0.0649707046987856,0.146615391354728,0.035805573486056,6.51045522526441,-0.00385306502822976,0.000886576862167755,-0.00161911115517605
0.26,3.22116446118667,3.20251281604858,1.20952027254684,-0.038819448285139,0.0829080584545755,0.0185111585998703,-0.237254386529263,-0.295787350086274,2.09409328710044,-0.181637486270004,0.0654129354655597,-0.0284903189324244,6.52398433882043,-0.00303738804646841,0.00135862389354677,0.000350691847491266
0.27,3.22495375878727,3.20088357014328,1.23016182504273,-0.0794129638241272,0.0591527991737447,0.00209456036854783,-0.274417707394108,-0.233710356266678,2.12802504590014,-0.142556329608097,0.0914409844859554,0.018858844093203,6.46758198932496,-0.00257807334435882,0.00170814742544562,-0.00109634919274164
0.28,3.19896405849717,3.21931378868203,1.24503593318629,-0.0717860840748962,0.0624963246240293,0.0146214997419939,-0.260840561171382,-0.298063076639906,2.08159489743609,-0.131809429891877,0.0979670142779007,-0.0175247486623415,6.4850551968456,-0.00296386483883488,0.00128385491789481,3.6139554733509e-05
0.29,3.16805957137269,3.15312414139985,1.21080550346665,-0.100985088203324,0.0331592556457204,-0.0326919853948429,-0.327462233202996,-0.355728883747261,2.08160380535176,-0.174728484290091,0.0566623684144958,-0.0211709418864818,6.46990241824688,3.52162922940094e-05,0.00326440390574692,0.00248540911839641
0.3,3.17973052882383,3.16901750075227,1.25550612547199,-0.0864474895954777,0.0491531419420844,0.0014054140332668,-0.246945900559085,-0.342156420737431,2.1164215789508,-0.0272588651661255,0.160386061511819,0.0581476093300227,6.43573598854974,-0.0046824931293371,0.000140174311592837,-0.00289550502732096
0.31,3.22430700612294,3.18322160573041,1.29677348507618,-0.013438994326102,0.104212499671943,0.0396700700392805,-0.24095018675341,-0.309173304023909,2.10775353604289,-0.210177109914317,0.0513775147149533,-0.0441841516714768,6.47616553424788,-0.00382011824130296,0.000323625484544911,6.27605880902921e-05
0.32,3.21461533972637,3.18581568351083,1.29793470555485,-0.0956109564568434,0.0561692748804659,-0.00611857273632241,-0.329143737622791,-0.249991431303564,2.16044385179394,-0.17990163805574,0.0551289000646446,0.0120532328595299,6.37540599896395,-0.00126539878237242,0.00230113440772149,-0.000389430617233231
0.33,3.10972700304905,3.14824594099308,1.26740326718202,-0.143858148873341,-0.0020442097113176,-0.0371898155856517,-0.377164893968145,-0.438751773748313,2.01581701332324,-0.127270007495891,0.0804863618004064,-0.0467271001711157,6.44980519202782,0.00109315748518644,0.00359202430750177,0.00394254907472308
0.34,3.14207767966435,3.1154949722754,1.27348674286636,-0.0824567923600171,0.0479686231137318,-0.0206030918804763,-0.256323154932596,-0.449120152182077,2.15998571165544,0.00232459099969097,0.166226375850455,0.0787788902843573,6.36519406805389,-0.005232379427883,-0.000327947944412093,-0.00282421624625372
0.35,3.18731606273082,3.10054271562323,1.34059697377578,-0.0320784483288118,0.0805618110318847,0.0206111105848034,-0.308521028124306,-0.382804741549389,2.06720771702487,-0.259063047341615,0.0128118655500811,-0.0654275131337117,6.43523672630704,-0.00140614971603598,0.00190628685735982,0.00199729951085092
0.36,3.17511460883743,3.1436939248957,1.32334726791387,-0.125660508200401,0.0340754914403043,-0.0187001084195812,-0.331395092409067,-0.322321204349913,2.16280911985693,-0.0921696507091303,0.113905404720112,0.0468879145586343,6.32321997221389,-0.00186227700381635,0.00146859250330307,-0.00141091145639166
0.37,3.14396612604356,3.15071181596709,1.3525743446078,-0.0762463650821235,0.0586944532492892,0.0089611597265476,-0.314377728896378,-0.444184724736089,2.06220346900567,-0.126180441952541,0.0792775842337248,-0.0383784349854727,6.38245652126085,-0.00270864187939261,0.00107437924343205,0.00129941189995584
0.38,3.16349272022363,3.10456267095809,1.35054740203178,-0.0804814910972514,0.0560781332728374,-0.0163692347678349,-0.326687699180115,-0.39553003575028,2.13198296734444,-0.151073968165262,0.0753559377650046,0.0271225754314745,6.33625562866973,-0.00214925382368165,0.00126600986587369,-0.000609639172803221
0.39,3.18868697798602,3.15953280112035,1.41348509651386,-0.0610142980887255,0.0845749968339419,0.0399827005307274,-0.278511703571036,-0.351267362401731,2.12905650339226,-0.105922204908696,0.105565364304223,0.0121723876112678,6.32608075304114,-0.00468337473419539,-0.000782923325616579,-0.00259137265203923
0.4,3.18695435937803,3.15558582059196,1.41074119862266,-0.0577701893937124,0.0830206639829084,0.016605022067647,-0.332644969673647,-0.369380095834226,2.12065231785297,-0.221262335683861,0.0158235333879809,-0.0421925953380119,6.32787570916465,-0.00195591147397395,0.0014255109269274,0.00108036767824996
0.41,3.15100826201191,3.13666961584276,1.41228959938758,-0.116234442132076,0.0367629828808733,-0.0114636344678792,-0.360643539754101,-0.390097885917513,2.12466124452086,-0.120634731427741,0.0946823807865308,0.0262841730426355,6.28009579656648,-0.00168229920356845,0.00136434076604368,-0.000791173199798912
0.42,3.11421659210472,3.10280141409004,1.40215113552379,-0.0996836457645724,0.0457570635991327,-0.0065979787945318,-0.364181534199033,-0.485274921913115,2.07539041489536,-0.129943001413923,0.0709161625995453,-0.0321541722480321,6.3065798463016,-0.00160986208911591,0.00132345355360085,0.00175377139655694
0.43,3.13432155787146,3.0782567193769,1.41593463470203,-0.0876795504872463,0.053241838233681,-0.0143231789538027,-0.349672612458386,-0.457307461686908,2.12555443254282,-0.112996424375346,0.0853743562303206,0.0353773353369049,6.27386441891425,-0.00281476556364352,0.000652968986707185,-0.00109070981927774
0.44,3.14048515456133,3.09150272801187,1.45012196552227,-0.0775631203134653,0.0630370081090798,0.015553939389729,-0.353355030599442,-0.446727067015453,2.1073649253145,-0.160831512958938,0.0609055125085783,-0.0214065610622216,6.27377348210228,-0.00228286073946084,0.000766547974608294,0.000173272561888689
0.45,3.12110399715998,3.07903754558778,1.44042364297293,-0.110981075444404,0.0409132117357833,-0.0196247220835504,-0.388161257963443,-0.471898427399811,2.10656974556388,-0.150096750192072,0.0568740790801688,-0.00584950897089737,6.24958166544369,-0.000887817394451675,0.00166816109661172,0.00112268611437877
0.46,3.11071786451642,3.07332471609176,1.4569013436266,-0.103454781254485,0.0435284286749282,-0.00795244614185285,-0.371258234768431,-0.498476882713519,2.10516994018578,-0.0911114086665014,0.0946232469238568,0.0178920408345592,6.24028289754038,-0.00265567571291267,0.000547519751374125,-0.000553946679673093
0.47,3.13193526559971,3.072781607238,1.48771072431778,-0.0661231986123103,0.0733696914190782,0.0134581703586665,-0.352470935837387,-0.479119269232765,2.11991788555639,-0.152201448809565,0.0628578000729593,-0.0057049004211339,6.23848160542064,-0.00308432707879806,4.70287293321573e-06,-0.000472873314863915
0.48,3.15995036223388,3.10145675471787,1.52628201231614,-0.0698601765980443,0.083085613100163,0.0243937915739212,-0.342213777053814,-0.424881633028297,2.14723955504105,-0.152124902509335,0.060479399117667,0.0139943092443295,6.20489022571728,-0.0034355479821113,-0.000337718525402612,-0.00193543895848215
0.49,3.07314377328458,3.03662944351197,1.46995255515358,-0.146669112345062,0.00624791893889524,-0.0416675554012453,-0.483895090057818,-0.562654335120523,2.05528846665634,-0.23070911366575,-0.0156431880955869,-0.0805814056053514,6.22513284076962,0.00331508240137782,0.00406953580911216,0.005741065527169
0.5,3.04998232094979,3.01474520592471,1.47727471633618,-0.151966068331987,-0.00146546215932369,-0.0485605673656049,-0.398390992997789,-0.588644862983908,2.13122023554721,0.0634370483870644,0.181437765370042,0.103745795888422,6.16652226361786,-0.00385246819728293,-0.000259782636937829,-0.00265839237621088
0.51,3.13111727156915,3.03964097280686,1.56459830165909,0.00741664716735242,0.12069971234255,0.0596035687228703,-0.324698044870892,-0.526988558971158,2.12892342885137,-0.197042271873151,0.0463791183875743,-0.0389512264110432,6.24352576609938,-0.00523581221780016,-0.00230932018600564,-0.00107356895738434
0.52,3.14292502964968,3.04483605185932,1.56494865442039,-0.109784603016407,0.0603107923097815,-0.0105670184997471,-0.429289127435345,-0.457372591233622,2.20146268981712,-0.257159878343214,-0.0405770250806577,-0.0140942805930779,6.09097258984954,0.000906142571747118,0.00280477508771704,0.0010717255626344
0.53,3.07429993427006,3.06583793800689,1.57804515840018,-0.151031597685307,0.00788007622801234,-0.00842060674458655,-0.416190077942824,-0.548306703735527,2.03316779918109,-0.0235482298878195,0.141485829997516,0.0177269072424092,6.18034376192639,-0.00245160190883358,0.000331419153193525,-0.000505177255040449
0.54,3.09646976680523,3.03292940102034,1.55386293402689,-0.0447711639081859,0.0946926704133402,0.0134121815217569,-0.371919391802669,-0.577799212222169,2.16329425574424,-0.149787669445447,0.0564817691486795,-0.00469487644398645,6.15102488669526,-0.00413778202896985,-0.00150203689667781,-0.000498070937638352
0.55,3.08581824620105,2.98431234913795,1.58809523264309,-0.122691649097995,0.0349051496175837,-0.0236145961606339,-0.469730855941459,-0.566716801486608,2.10050336674962,-0.240345656923406,-0.0354088859504207,-0.0266216625633022,6.11453028675285,0.00178158527261045,0.00322201416086847,0.00230936994957619
0.56,3.03963218801668,2.99681200420304,1.56858185910436,-0.160681858876668,-0.00367524117042545,-0.0269887941292988,-0.44542585666701,-0.616308158500926,2.07928083561454,-0.00221930857541527,0.147694958369782,0.0322504056329979,6.12594780647783,-0.00218890249673345,0.000235855744828646,-0.00030058603383307
0.57,3.07909375161977,2.99550532094305,1.60524804360537,-0.0402939230478644,0.0962359067048363,0.0178012777420934,-0.386201528251798,-0.612852628474119,2.14725135073188,-0.14321966841699,0.0520330356116706,-0.00160741442235516,6.12248987033598,-0.00445097544426731,-0.0017964150071839,-0.000839846195529965
0.58,3.12580567771059,3.01322923640702,1.66846565462807,-0.0749652850020409,0.0814277172239494,0.0233686881827918,-0.399453286089819,-0.521768716462256,2.15146532481517,-0.215848158094456,-0.00763977074303682,0.00585835372060578,6.07161243810467,-0.00179070225200402,0.000607598762231272,-0.00148330012424923
0.59,3.09253334687589,3.03808808374753,1.6597847428039,-0.119903288511834,0.0429503043646091,0.0153890902720331,-0.422264014036732,-0.565215284741741,2.09524367148279,-0.121467373999393,0.0722861250889507,-0.020219926485763,6.07775020281252,-0.00194408859466825,0.000183746974903097,0.000142288190629213
0.6,3.05687400041141,2.98920559507531,1.63245863783501,-0.106837875851414,0.051507805380634,-0.018584545559534,-0.453184251127397,-0.636909046626559,2.09498518663219,-0.147711803612144,0.0378353669371577,-0.00570351003306777,6.07864173224629,-0.00140719682063496,0.000272807155365293,0.0010778787411436
0.61,3.07714341721754,2.98564902119638,1.67413304975496,-0.0917645012962618,0.0642945245936842,0.0130485482888017,-0.418943437429049,-0.596959291897695,2.12813299994996,-0.105144599763614,0.0623846227148419,0.0362698505683874,6.04861911804821,-0.00347774271744205,-0.000861089302284725,-0.0024131129073966
0.62,3.06053791611997,2.97263978569979,1.67706101135392,-0.0964252092890914,0.0525756544106732,0.00764315364295944,-0.463378887165042,-0.63625688468905,2.08560690433848,-0.208565775741779,-0.000527670962624557,-0.0558121638637581,6.06270398562922,-0.000478954012702615,0.00106026539789258,0.00220416109039827
0.63,3.03166632704343,2.94698229509459,1.66250811609925,-0.148307947406517,0.0182776113915474,-0.0359157906132493,-0.481379783766699,-0.664913151561211,2.10138524908846,-0.0947148988424101,0.071092547186042,0.0344421936754877,6.02250113046777,-0.000775454168800186,0.000558641023388222,1.06220223135338e-05
0.64,3.02974234859014,2.93876164066312,1.68472905720231,-0.0980860367601897,0.0531737023667556,0.00539481970754095,-0.465364666759783,-0.685013247136601,2.09448643799282,-0.103343029403494,0.0515420625183163,-0.00732008603683777,6.0342596062938,-0.00283413131524927,-0.000565012663288465,2.97226939674667e-05
0.65,3.03113750334423,2.91773174249458,1.69866867289667,-0.105496121836544,0.0426171133902984,-0.0160941044027911,-0.484352248093472,-0.686112211788026,2.09559629598535,-0.189199730604302,0.00706303860759715,-0.00957906902318453,6.01787551856465,-0.000381815020810674,0.000957459307985694,0.00114989009454136
0.66,3.02739021549275,2.92755053394588,1.71295080298038,-0.133272739806862,0.032291646378243,-0.00801169489709981,-0.473425962043195,-0.684332974346725,2.09803048347347,-0.0842899108456003,0.0724643303901496,0.0206511255952459,5.99101059068737,-0.00186087762951101,-0.000253002341456038,-0.000657298336209816
0.67,3.04505886523457,2.93948715351481,1.74068153121181,-0.0769935279757389,0.0735752966831603,0.0176284991788305,-0.44924703927386,-0.677950126182626,2.10460728162861,-0.133106352419765,0.0367291164763884,-0.00537791339145928,6.00738426855539,-0.00338325723704521,-0.00125084858311108,-0.000637844581927073
0.68,3.0167024155806,2.89909282845666,1.73003514835821,-0.128403865042769,0.0287692193280843,-0.0245104986463129,-0.517670343395862,-0.727822710622404,2.08958080158424,-0.220775429250388,-0.0263506800195426,-0.0308300321071658,5.97428500454658,0.0015045587110204,0.00203494596227791,0.00256570665406609
0.69,3.01683815511569,2.91388534092201,1.75907683525704,-0.137705060912754,0.0295017388943716,-0.00529116471881353,-0.466645582410884,-0.70290328864867,2.10152349855233,-0.00093440631819583,0.123964555463385,0.0596063167620237,5.94969634751981,-0.00383849950883361,-0.00170047621513753,-0.00262270087863939
0.7,3.05094968164739,2.92910683973494,1.79435606573062,-0.0339304700526431,0.104662598285086,0.0429582195758097,-0.444155138631082,-0.690800088858425,2.10478229268452,-0.208036870884261,-0.00989192238442339,-0.038020358861655,6.01104095325488,-0.00358515059429696,-0.00182361136201078,-0.000263439255459991
0.71,3.03485961913825,2.90644981022135,1.79177249363775,-0.138390347154063,0.0340486790839635,-0.0164027818598315,-0.502341093690579,-0.71544752963695,2.1531091998865,-0.212245763168301,-0.0276419606753591,-0.00384269826128362,5.88246578542055,0.00121862675354945,0.00185962265795446,0.000902019431618504
0.72,3.01752267221967,2.91538395052336,1.82560357560619,-0.130326940215274,0.0366853272239404,0.011776765393984,-0.471946930311152,-0.713606469061606,2.04868546749473,-0.00934389650361118,0.120285495706858,0.02965708522784,5.94520906741777,-0.00416709684608122,-0.00213140371959996,-0.00201038214545675
0.73,3.0141863624823,2.88538422678286,1.79294540980778,-0.0629986764650054,0.0819108901673998,0.00851013644785607,-0.501469791455576,-0.759747956389095,2.10281863040417,-0.24100353819485,-0.0460566914117419,-0.0441095979238983,5.95970189413927,-0.00125932171480366,-0.000237061528882045,0.00165374101299334
0.74,3.04494560083621,2.909769855657,1.86493156180542,-0.118881967825605,0.0549754640856731,0.0171373900453925,-0.448612733820424,-0.693234963349883,2.15604330661726,-0.0906384265573565,0.0620065646304802,0.0662337269270906,5.85039270606639,-0.00309344945762168,-0.00140000501907738,-0.00400332142221124
0.75,3.03279081431222,2.91083232473009,1.86994192734595,-0.0784003517401369,0.0768716898505257,0.0415885635027505,-0.481770914664459,-0.73387724670372,2.0412127409773,-0.184762072898112,-0.00477354446600702,-0.0711758720659261,5.95010465885787,-0.00230369341911926,-0.00101492646572399,0.00136256374462376
0.76,2.96277288388747,2.82887276396659,1.79322972626692,-0.170678310437587,-0.00112079495608899,-0.0646712590622357,-0.583964063631148,-0.839455800412982,2.09354537918117,-0.195712440646755,-0.0261008008816304,-0.0010583534339649,5.87372201817502,0.002998399537105,0.00222891996893507,0.00307835160191221
0.77,2.96239576863717,2.83118303272874,1.85743953014158,-0.140569243886702,0.0250037256229448,0.000561246021493075,-0.520587652977033,-0.796735314587653,2.0910564356568,0.0486604992235224,0.12308709013883,0.0650171960889381,5.85683952156044,-0.0048507655481092,-0.00247649946485497,-0.00313309907134039
0.78,2.94656789194313,2.79183536230677,1.84124292236715,-0.0765302135485119,0.0498181670620054,-0.00947598582528256,-0.580578020648087,-0.867162635571054,2.03035196118671,-0.300250001667869,-0.0882195661828103,-0.0958036870622186,5.93404792446591,0.00142449450858062,0.00137390850359934,0.00496089279554107
0.79,2.98118551740307,2.82701804214745,1.88001092510499,-0.165058965481087,0.0176423775733489,-0.0207919068873195,-0.498554243570032,-0.788343087675594,2.15263539103734,-0.00195418417405427,0.113198715946951,0.120679523777669,5.78475832043999,-0.00277355672308161,-0.00179830866197431,-0.00476499845895687
0.8,2.99042645966991,2.84083508877877,1.915240739911,-0.055531975178488,0.087394165232165,0.0549073933816316,-0.517907084391257,-0.808585432776944,2.02905586225246,-0.185082804886886,-0.0279681145974936,-0.095345014020842,5.92368453408301,-0.00304708711370372,-0.00165052476207711,0.00191711344285487
0.81,2.98727846387994,2.82501544679479,1.90303246963718,-0.129043945314019,0.0376804268057145,-0.0295452611547673,-0.521556127222655,-0.825075165880503,2.15690226996307,-0.189287384560355,-0.0126044988862624,0.0498761729018483,5.77295835497029,0.000152908916909793,0.000405758433310868,-0.00100073096228057
0.82,2.98314048137664,2.82878399043196,1.95722693074958,-0.1256561257187,0.0477241118808601,0.0349946112671328,-0.513230688359222,-0.811931456603669,2.02442601720163,-0.0567029275282095,0.0616797867178483,-0.00815130968705267,5.84161562840787,-0.00326008601268428,-0.00205632462544632,-0.00129456488185705
0.83,3.00400728493346,2.84091951694658,1.94223897147939,-0.0568569227921209,0.0944792440304432,0.0274823999945703,-0.492194246535459,-0.80530117329624,2.11664189465916,-0.181498412532636,-0.0168810579770969,-0.000707205596199481,5.84296642337032,-0.00347833439440813,-0.00229745547505286,-0.00125327170894243
0.84,2.96386177065004,2.79332116503716,1.9518430415538,-0.147034569699203,0.0233091824989233,-0.0101103750322214,-0.563619923705194,-0.885496032478373,2.08574540025028,-0.22457753542147,-0.0590491675563584,-0.0329262322698701,5.76654421833882,0.00213399884585997,0.00175844989871508,0.00200955646655563
0.85,2.93682022098478,2.77073636358563,1.94954982062286,-0.161911222429083,0.00862361538574909,-0.0164291769575029,-0.565375514324655,-0.876982619045687,2.03141759818355,0.00513264712325676,0.102157826271301,0.0391356833922347,5.80096118044351,-0.00284889244096632,-0.00191172994775008,-0.00109858475734876
0.86,2.95312170765582,2.77675999608114,1.96173276888379,-0.0550798321101506,0.0885199344027354,0.0264306354807595,-0.545684107486919,-0.873260010613293,2.09615311102639,-0.186021170820856,-0.0304784163816009,-0.014648873617215,5.82236523090799,-0.00308101728026615,-0.00231050597622711,-0.000522851507557538
0.87,2.96478402688909,2.7783641979094,2.00751800474805,-0.126857218613781,0.0426819164561673,0.00830921684025375,-0.531950276044975,-0.883173807370339,2.11106887420003,-0.189524138053803,-0.0397428200356498,0.00308941962077085,5.71955033260576,4.25974249928808e-05,0.00037922216089296,-0.000561346113653198
0.88,2.9166341693047,2.73373287324767,1.97523414661173,-0.168865197550027,-0.00104776420566078,-0.0208913147091214,-0.606131933129704,-0.941420250095079,1.98001890417472,-0.096746634131623,0.0302711131575399,-0.0309915933655309,5.80113538962036,0.000266744253886181,-7.53556184669495e-05,0.00243193078268182
0.89,2.90261589901137,2.71482759274271,1.95521948519396,-0.121764905546367,0.0373513012694793,-0.0231868295370471,-0.598291991929283,-0.947803913004599,2.10227782953193,-0.0781513889538438,0.0224920363578146,0.0417133024910353,5.73936787108405,-0.00244086373687017,-0.0017914484051109,-0.000878273812837793
0.9,2.91657813790323,2.71503164437014,2.02899737567881,-0.102681032245352,0.0458387498153104,0.0157568974174839,-0.574534397468922,-0.93807173661179,2.03355012527029,-0.179807591543852,-0.0373397006021654,-0.0189900836995021,5.75896058586348,-0.000882439253447668,-0.000490070683061169,0.000152136832649308
0.91,2.86484296410778,2.66309804266162,1.9611285266706,-0.193109015091503,-0.0262761936948448,-0.055863114011925,-0.659054632894403,-1.03719563557554,2.01056254151354,-0.157279244944259,-0.0236081620760602,-0.0372176388436071,5.75580340247835,0.00351188308150054,0.00154784007357484,0.00439207572206309
0.92,2.9091249909171,2.70225624402765,2.03055335931385,-0.115786632392597,0.047086406804465,0.00601587774560822,-0.556388609907674,-0.924238168412031,2.13181389552406,0.0795051733641899,0.111748629620423,0.110816591404175,5.67455817429282,-0.00682539119323069,-0.00483434349938157,-0.0054956184709324
0.93,2.89754260463939,2.67883629264268,2.05914412731015,-0.0583655659589546,0.0582698388383694,0.0242803860526375,-0.611055316204557,-1.0103820503049,1.96847782992949,-0.377484255322901,-0.170634306960037,-0.133522004247178,5.80304498304117,0.00249084961505331,0.00169584417147244,0.00520202391433275
0.94,2.91699829176725,2.69736629251461,2.04297943609675,-0.205127369933365,-0.0147983962388477,-0.0349613263406542,-0.550878072563351,-0.972955111231368,2.1415897729005,0.0312667021589834,0.128622456562868,0.127290693338137,5.60801492804143,-0.00162370932339782,-0.00216471119606142,-0.00438720901320815
0.95,2.89263761300572,2.66636376251014,2.070875498929,-0.0763824323973228,0.0726434417913245,0.0372636058224047,-0.626841648555971,-0.996333380932008,1.97371431580359,-0.16529941572159,-0.0656246382206637,-0.106131551422555,5.77891212546549,-0.00223226907942476,-0.00178067653908467,0.00330708801736633
0.96,2.89595038405453,2.67055491922114,2.07195215312603,-0.133312239813111,0.0219350204721956,-0.0337172652458707,-0.568748489303048,-1.01359769893925,2.12159671250942,-0.164897756356669,-0.022813207933914,0.0792892977628006,5.61738817337824,4.55270072531231e-05,-0.000157247731858225,-0.00216373252075202
0.97,2.91145539128006,2.67176665692571,2.12962707499245,-0.128040582170293,0.0430107468954279,0.0454048442372384,-0.57383644344434,-0.986318686884975,1.97847245135186,-0.0691553818112075,0.0324596387919129,-0.0335759015891034,5.69621700475555,-0.00258050446953503,-0.00259687795045163,-0.000545799184737262
0.98,2.8871247739713,2.65050449503661,2.06898000491843,-0.110730184123183,0.0459494194577316,-0.018644899891656,-0.607244731662064,-1.04370979458679,2.04280216733947,-0.191173391368455,-0.0727815950008291,-0.0152773228270332,5.6831205829628,-0.000127414972012526,-0.000407064695450913,0.00162248930043704
0.99,2.886919108732,2.63961221931754,2.12433973474811,-0.146034783940341,0.0168572849882082,0.00156140714460517,-0.584225237924163,-1.03602047547519,2.04518164047455,-0.0813897247282286,0.0228696524221656,0.0423569763758159,5.6232622063685,-0.00135332806560985,-0.00140766071014651,-0.00207930761164373
1,2.8757295270973,2.62228626058403,2.12070076034771,-0.114980030167872,0.0427104920801526,0.0133908324418697,-0.618724867264872,-1.05328935172111,1.99191851365015,-0.142465702854132,-0.0294170583383319,-0.0469612141180202,5.67861105290877,-0.00108985867172289,-0.00158626092593504,0.00161093205221885
1.01,2.87599942776384,2.62227292810385,2.12678809539669,-0.128709762457439,0.0340538784334554,-0.0111962884556552,-0.592645169070337,-1.06110308707347,2.05404135898425,-0.121143904856177,-0.0224708270810697,0.0419619651904452,5.61552022182084,-0.00112406326239026,-0.00130157104287732,-0.00144207639172966
1.02,2.84484336241967,2.57918304567037,2.12952413234671,-0.150959829458933,0.00593998048181976,-0.00569868372164983,-0.648815683919557,-1.11583213399112,1.96997524698066,-0.148967413936736,-0.0419038601030089,-0.0488707550191473,5.65037451341858,0.00106310189871442,5.20149552441377e-05,0.00258413964339931
1.03,2.82969388009947,2.56083219938342,2.11789295278537,-0.156760279847176,0.00346032144372635,-0.0351408904725383,-0.651150819225235,-1.11621809736974,2.02968982868418,-0.05516043052928,0.0204397193635104,0.0423706278062436,5.60705408871586,-0.00107391841946248,-0.00163989073883451,-0.000338119853966185
1.04,2.87105394922311,2.59767592267713,2.19341179162857,-0.0778843256059796,0.0701136175542119,0.0424111182095012,-0.583869321882809,-1.05263026263099,2.03371383998274,-0.108097036655582,-0.0156453298883655,0.0145056666705669,5.62467840695495,-0.00375044564753601,-0.00355290445330054,-0.0026174078051925
1.05,2.84684192991047,2.56830805253955,2.16995297396036,-0.138632220135155,0.0169574661922247,-0.00878684182573555,-0.627351333575873,-1.16357882593601,2.00133627727405,-0.248939044746587,-0.121683042130871,-0.0661851767130877,5.59104415756366,0.00302083136834037,0.00143803702631984,0.00356070931920859
1.06,2.8440539444671,2.54621640679233,2.17921482275023,-0.180339652879904,-0.0120632353104904,-0.0253605513371393,-0.624779847525554,-1.11880434890136,1.99875711597318,0.0368433321072797,0.0900862945056809,0.0782275021483724,5.57467812503417,-0.0024111878275677,-0.00274635712537046,-0.00249761442632048
1.07,2.8040770094639,2.51231683116849,2.15863359656269,-0.0991061815986625,0.0409364950759669,0.00208318563260203,-0.693550967831098,-1.17827667411811,1.97870431270846,-0.211487934756226,-0.106863802748324,-0.0786923030878349,5.63446216710032,0.00047943211990503,-0.000717764666371188,0.00366540028166152
1.08,2.80249563209286,2.50722722621939,2.19206104158817,-0.179411303500484,-0.017647312775964,-0.0430822445933607,-0.637816315290636,-1.19258639719485,2.03124573630088,-0.0768593327001078,-0.00345131014088051,0.07063090266584,5.52412286131298,0.000669789252392908,-0.000417951603829518,-0.00130533851821235
1.09,2.80748550207047,2.4916569009412,2.20559860772808,-0.131807613889763,0.019648690295322,0.0131081780053815,-0.673357478371227,-1.1704706427828,1.95494203025605,-0.0725500200921411,-0.00648750192666394,-0.0401429347389894,5.59497350810134,-0.00163004759433467,-0.00222665328953072,0.00130616545910737
1.1,2.80337139625242,2.49794529305485,2.20793982266615,-0.12234775999257,0.0266410182665556,-0.0226942469759277,-0.644607885057106,-1.20014342199463,2.01221288314013,-0.157594288682841,-0.065184612882566,0.0232581409009075,5.5488248989596,1.78588567552817e-05,-0.00102717071693157,4.65610326274467e-07
1.11,2.83396145995502,2.50918707367277,2.25944438923088,-0.132561517701944,0.0265906963647186,0.0246611770997638,-0.6010694915566,-1.17139148389965,1.9903129067418,-0.0714181081316641,-0.00251283346883391,0.0152425381761072,5.52805562603593,-0.00187250122011441,-0.00232229148491568,-0.00185832801511329
1.12,2.84412756841902,2.51160680000715,2.26244247399722,-0.0986051311267103,0.0515348138963566,0.022986948382566,-0.606500097176935,-1.17585720678524,1.97817389710854,-0.148695771268421,-0.0525326550967194,-0.0242679130380279,5.55742907467801,-0.00152656283075042,-0.00231286292992842,0.00011599783347919
1.13,2.84245980686671,2.50597944435015,2.2751526608486,-0.127566769840404,0.0347056347066911,0.00887964259591539,-0.590413765443298,-1.20299829459258,2.00931358703289,-0.132342369040667,-0.0483386415124245,0.0203950547743402,5.49674306640079,-0.000618567687180094,-0.00156930379950843,-0.00135354713722306
1.14,2.82199727796654,2.46878879482822,2.27698527235468,-0.140149248091925,0.0171971616837772,0.00861997642345173,-0.63346582493343,-1.22484917513384,1.93954901427203,-0.111774450650213,-0.0382085158868521,-0.0268780486685966,5.53251801606552,-0.000312362118085881,-0.00136037060718829,0.000886272559187029
1.15,2.81085516868904,2.45965439807542,2.27227292191069,-0.126892130415221,0.0270032947862169,-0.00353006832231709,-0.636610591553522,-1.2255130095578,1.99201603544267,-0.0943576702624228,-0.0234296374094803,0.0259610903251831,5.5016820103202,-0.00140662765695847,-0.00240026290261343,-0.00102500650451684
1.16,2.77341359342575,2.41789536535004,2.27359203951446,-0.149087636482125,0.00371824274638515,-0.0115210702460887,-0.680257638493839,-1.29350261517536,1.93210202290107,-0.163511712357549,-0.0907179237237953,-0.0391567971471816,5.51919701397249,0.00182064421530468,-2.77752648198021e-05,0.00241388041422022
1.17,2.76672310066895,2.40040111050539,2.27253687254207,-0.166911018531467,-0.0135737254584758,-0.0274898064211987,-0.676308058550646,-1.2782726142431,1.97579575652037,-0.0242523584064918,0.0135867762930495,0.0433459468841103,5.47730780537032,-0.000959687803617921,-0.0020057284513323,-0.000738311059670277
1.18,2.80036404325117,2.43289177259413,2.33546020830047,-0.0775622460067307,0.0621722386895951,0.0409532919047194,-0.631179157001718,-1.221232616957,1.98216246342267,-0.108925312817747,-0.0396690913862029,0.00405455115306503,5.50290838496617,-0.00324625101168136,-0.00402397444189837,-0.00203123171048675
1.19,2.80370185078989,2.43538482462131,2.34370466180397,-0.119918179382007,0.0332691218011369,0.0154520788174531,-0.602127590247447,-1.30239582903004,1.98041756303713,-0.207753448704862,-0.124101226571293,-0.0295616987836189,5.44301294530587,0.00127534129184475,-0.000169507909816365,0.000705449957975755
1.2,2.79866453783461,2.39272495597705,2.33793030843023,-0.169757815396772,-0.010531963468786,-0.00761208384421978,-0.637206512526187,-1.29438705962978,1.91777758053269,-0.0332586519934642,0.01936912098838,0.0208639263881828,5.46530517386133,-0.00070610119698453,-0.00209343960169478,-0.000614162467636163
1.21,2.74737241419969,2.35016997882394,2.29714010978698,-0.131692841895993,0.0160134356935422,-0.0155809747446712,-0.718554185478426,-1.3383279034313,1.93737524248301,-0.139099341603135,-0.0849381009310071,-0.0335372370628846,5.4894328844054,0.000551084738176055,-0.00143475868738749,0.00235098526718759
1.22,2.74927398042386,2.35849707537321,2.35150228732522,-0.145809667711862,0.00260826358925838,-0.0109278278808406,-0.652344750684369,-1.32730799504366,1.97407615287589,-0.0640113274492188,-0.0329309307070995,0.0542522141652221,5.41361340097913,-0.000897405766175567,-0.00182443037775934,-0.00202501056697841
1.23,2.76805990237925,2.35609357478777,2.37434086031676,-0.113508059617197,0.0255719008944397,0.0278121685675516,-0.660148720321194,-1.31968519852489,1.9108146369691,-0.120857212947982,-0.0510960419848675,-0.0373736162782147,5.46417094759236,-0.000948835451307963,-0.00243909837035622,0.000500074775954799
1.24,2.7443521731827,2.33319884565953,2.34557564806933,-0.153751223838897,0.00202950778108665,-0.0254547370312408,-0.674198304069461,-1.38687528197901,1.9407151968659,-0.136582048385538,-0.0845112311070898,0.00338789288896826,5.42513602707797,0.00155570123990167,-0.000777677091588459,0.00105931879632751
1.25,2.74986495773507,2.31731333274689,2.37778172101847,-0.146755261233824,0.00183571380054598,0.00340936870681688,-0.664960542677504,-1.34555543067519,1.93039444447409,-0.0234995276077788,-0.011942912155442,0.0263988822373907,5.41612989323371,-0.00175289893518101,-0.00259007025724536,-0.00138119948910252
1.26,2.79635025604444,2.36923490613637,2.43748702195603,-0.0579966748344036,0.0738882528945995,0.0586292140167942,-0.597575762783594,-1.28930170565489,1.96592622314418,-0.121690662578737,-0.0473059287128216,0.0106724773112025,5.43178257673934,-0.00365035236285187,-0.00491297263428311,-0.0031446640389846
1.27,2.75136535851598,2.31572146416728,2.4003693079383,-0.155615556782133,0.00190285700260722,-0.00808120017193635,-0.645747290664017,-1.46304759651499,1.92524223633436,-0.247451473675647,-0.185816641050913,-0.0750609028799094,5.37734702126812,0.00472494948726251,0.00172171987336201,0.00395624605572313
1.28,2.70653138325083,2.22506795646138,2.36704346129428,-0.228687555106425,-0.0802596427838869,-0.066831015791275,-0.73416056323003,-1.43628883627763,1.86032413298795,0.068399884522985,0.0603154445710612,0.0569329420409644,5.44010777682495,0.00046896302850543,-0.00169503452212468,0.000464225060196205
1.29,2.64979708665442,2.20056089615093,2.34313865484834,-0.122404236530041,0.00390375029855394,-0.0258964297730796,-0.805869701125102,-1.46356603242734,1.98407134115514,-0.114569527035571,-0.0976244519036382,-0.0328955081313184,5.38989416247364,0.000176997285936084,-0.00203831722058378,0.0028026435590081
1.3,2.66223203744052,2.2191879101415,2.44707358932651,-0.161255040788955,-0.0258222051358143,-0.0311691265730068,-0.698150177677821,-1.47306989881853,1.88620251907035,-0.0968908991579877,-0.0787194777115566,0.0470888366770968,5.365501329864,0.00141799706415074,-0.000496216097468138,-0.000744663294330457
1.31,2.69393455665796,2.21290647037545,2.40465476535586,-0.152314867898495,-0.015097959629236,0.00357005594803185,-0.716753331309956,-1.45220522339053,1.88587890564221,-0.0431734936960511,-0.0219455069902263,-0.0265182049250124,5.39363860809713,-0.000410613973725734,-0.00243519744426472,0.00110302329249207
1.32,2.67239772468307,2.19914605734909,2.41118738160925,-0.14142219090387,-0.00355246275436588,-0.0339577436785398,-0.725988793891331,-1.49579064190009,1.90228804346435,-0.125647330497493,-0.102781760329339,0.00490602848778737,5.37734726464466,0.0013219407779372,-0.00122373016402903,0.00138707358218372
1.33,2.73183613010037,2.2432109080348,2.48947147636836,-0.113537388269383,0.0246539567341441,0.0365131040316803,-0.612327983598054,-1.40955973575802,1.93882028056342,-0.00405158926980539,-0.00743281335902012,0.0617898982967426,5.3170404057252,-0.00351693009496849,-0.00429671602989994,-0.00458620257639884
1.34,2.74349187960618,2.239649861412,2.49584165646392,-0.0833105397900802,0.0418231160421681,0.0432825199113804,-0.629213105854214,-1.47238139213247,1.8542792219944,-0.217954304080461,-0.144346567390947,-0.0819372470330443,5.38549355781179,0.000710699960505249,-0.0015651106441143,0.0018900552124798
1.35,2.72742846640028,2.20329667816304,2.46433203813171,-0.178880438253453,-0.0205083276535849,-0.0256094376493302,-0.628491817566164,-1.52436047971312,1.92114177030879,-0.0548058766463163,-0.0374627321376221,0.0501077476597276,5.29068894705973,0.00114200862363234,-0.00152968862696398,-0.00115495514532635
1.36,2.718707246817,2.17044789214243,2.493141299148,-0.116767913556408,0.02007975113282,0.0265749458844606,-0.682895717623311,-1.45463907303888,1.85205714813963,-0.0375975782548742,-0.0484299434858769,-0.0180797473591493,5.36422569933358,-0.00223442121399933,-0.00351880293231077,-0.00035522853043492
1.37,2.62595690634832,2.11306066841808,2.42874772810436,-0.173889709329551,-0.0483945153436952,-0.0627928114002886,-0.757943128678943,-1.63939742127278,1.84214735834227,-0.227624569404296,-0.176057171302781,-0.053378158077681,5.36376399243774,0.0063483825917474,0.00162357608118749,0.00550199323572074
1.38,2.69211938493731,2.13883674171192,2.51377062763829,-0.16399956620116,-0.0168365542795987,0.00208404691210983,-0.659823688883343,-1.4583740324214,1.96226520173826,0.191242453024118,0.0977944655216335,0.14316285708892,5.23180065020272,-0.00568517901977056,-0.00611878064197356,-0.00682132422358852
1.39,2.68525381032557,2.15398279708728,2.54373046653199,-0.021357081472008,0.0613417952133144,0.0635862436196104,-0.693305757316737,-1.51760654031745,1.78760282327731,-0.324093112444913,-0.226234688870188,-0.144272145727876,5.44463029531226,0.00105002383225257,-0.00156187471383859,0.00392337607012732
1.4,2.64941854445276,2.1053065406847,2.46919147014999,-0.253713142697609,-0.0881669492375048,-0.0821925947412101,-0.664319554230097,-1.69788667530187,1.99519458936375,-0.0734010849672097,-0.0552206824466816,0.0679445708569582,5.19990280490158,0.0060540528992567,0.00062431469337958,0.000669753000471689
1.41,2.63287811294934,2.008365903199,2.51761254676276,-0.174680572434409,-0.0335779489516165,-0.0144361541567425,-0.802188035611046,-1.53115890479914,1.81461666141321,0.123858054622135,-0.00890717831629597,-0.0181128611090255,5.33152073560349,-0.00297403796334162,-0.00340886971076184,0.00154699473076525
1.42,2.62443733063498,2.0973755460051,2.5404662423122,-0.0553479891147913,0.0219711751430022,-0.00272483432831032,-0.699458662269652,-1.56814870521036,1.90421360041284,-0.207903970545372,-0.129282540309045,0.0346469398847161,5.29598755321506,-0.000307015548019981,-0.00250999188929565,-0.00144552718292146
1.43,2.69589126037211,2.12018380658689,2.60753999876614,-0.14968599241785,0.0110603437286051,0.047811648496472,-0.588992835474678,-1.6185194281585,1.89034863549338,-0.0680186274908999,-0.066474560060753,0.0026299592014248,5.18818487877641,0.000563651856915628,-0.00257242955525787,-0.00236947928637922
1.44,2.69401784677246,2.05555118922938,2.5537271193999,-0.127849605837315,0.00293357528747727,0.0056940531666013,-0.660597095375934,-1.57790405377408,1.74980545045324,-0.0608789097168697,-0.0947589846692574,-0.0444616539493738,5.34132575710864,-0.000534400478727933,-0.00200348337355544,0.00185369040948033
1.45,2.67458383602756,2.06980513193464,2.54565100629387,-0.116800457599562,-0.000499050236392934,-0.0036618981246285,-0.648447241126078,-1.61862314901115,1.91035148252912,-0.0985214402015478,-0.064750368201599,0.0526125125200125,5.21638245442658,-7.2728100471207e-05,-0.0028088245980673,-0.00229223794318397
1.46,2.65310692937303,2.02337993262636,2.59298696839384,-0.150203361659692,-0.00710857059189253,0.0149432640545971,-0.682241100608025,-1.66009154560672,1.77042117689033,-0.0949199995124518,-0.1162509045447,-0.0516273572488541,5.27799011859017,0.00174811201498695,-0.0014311163117062,0.00173771102784101
1.47,2.66237537463725,2.02530442230153,2.56656515168167,-0.128199854383437,-0.00744108980381225,-0.00513391557792118,-0.653078128817186,-1.60896290649632,1.8623252115823,-0.00347009797875308,-0.0406874349867193,0.0529255535781154,5.22770636446465,-0.00187576572901025,-0.00335211698227029,-0.00223790654779984
1.48,2.61399456557781,1.97680178941285,2.57371114542072,-0.138275137169763,-0.0243625949508612,-0.00795179718633141,-0.729479915715617,-1.72137626486441,1.7644494016615,-0.189007944622335,-0.159394263868416,-0.0717773834704671,5.28322207131426,0.00399948651219552,-0.000247829988834289,0.00377121287823105
1.49,2.63575542820807,1.98177864398447,2.58699985869218,-0.167889594006262,-0.0289310305553191,-0.0174638894901644,-0.666108376581193,-1.65094999261936,1.87437843189778,0.0852240614918262,0.00550799480849149,0.0949518001870976,5.18057006649613,-0.00199268882493036,-0.00396292069313032,-0.00365960851522782
1.5,2.64298092556287,1.98519378138799,2.63152958253277,-0.0628223864650807,0.0317494624290752,0.0505872099450344,-0.681833366232833,-1.63534137630042,1.77415435191067,-0.161424288757174,-0.149732419271676,-0.0692614867569475,5.28805291022457,-0.00058017284533276,-0.00285331810137168,0.000933170481497502
1.51,2.61793208885993,1.96472012953145,2.59820733069928,-0.179926362054594,-0.0461104222292635,-0.0356249963709133,-0.649829223735044,-1.78736747412438,1.85945374574894,-0.118622622897695,-0.115817086088512,0.0163511286941752,5.15641086485897,0.0042228786258027,-0.000175643403239305,0.000901909854524097
1.52,2.63483477865335,1.90805986232699,2.63115433424584,-0.15469425800804,-0.0238979325892206,0.00523111445053289,-0.706562482008757,-1.65312176106187,1.76020117125645,0.0860425869873218,-0.0119654254418469,0.0220547398571548,5.23371646195911,-0.00242624201006012,-0.00405275447538555,-0.00128252799612488
1.53,2.63723429235654,1.97464994977994,2.64906047125005,-0.045699932667575,0.0432001495297138,0.0417801544658995,-0.643372992270573,-1.66236546647172,1.84632969552365,-0.161028855026936,-0.139521334378466,-0.00216702431001424,5.21874165665851,-0.00132889146400978,-0.00379572528668687,-0.00180936085815697
1.54,2.62215155445173,1.92666167914559,2.6592967516415,-0.175547027837108,-0.0383188679035645,-0.00472717922911469,-0.625076183333179,-1.83282389355312,1.80799071997118,-0.142561890310508,-0.155802670800423,-0.0385116396646059,5.13696562181377,0.0048796624286954,0.000517011733758059,0.00204016738336725
1.55,2.64531988771303,1.87254631264037,2.65409466314918,-0.152785597389185,-0.0309928581327464,-0.00532299421770468,-0.682029690703998,-1.66934125568361,1.75427530530583,0.121965672963661,0.0255183486689031,0.0566898468850248,5.20227793969781,-0.00331238593421921,-0.00481477197029267,-0.00241622739998483
1.56,2.57169883871485,1.87392521615315,2.62170337130008,-0.0862128524370269,0.00169429696518435,0.00138248075839167,-0.736607530917859,-1.7922706146023,1.76963077051428,-0.242630143548377,-0.217798186327798,-0.0722239271557578,5.23582633800535,0.00337914090208161,-0.000767914018702978,0.00335089991017677
1.57,2.60089352257478,1.87380324451528,2.68131260597794,-0.188488497410529,-0.0525751106141985,-0.0153673258437036,-0.625240867770063,-1.79589868710172,1.84007689971122,0.0632740329769091,-0.0172458591414833,0.08893092367081,5.08621836981798,0.000202877543696935,-0.00271464836427159,-0.00349124418761684
1.58,2.6489834244947,1.87197074537282,2.7180069596588,-0.0511913864557701,0.0435934125864552,0.0715631775894817,-0.661911944314763,-1.65656362256192,1.73736790651644,-0.0501045605534161,-0.0887511524686642,-0.0456601786355576,5.23391613127906,-0.00355007241341475,-0.00558003916334251,-0.00115901109790105
1.59,2.57918828827934,1.85971318533781,2.66152856603429,-0.145924430409835,-0.0325573632759912,-0.0302091168209335,-0.638639921723027,-1.91200009236365,1.81816850113452,-0.241864935937061,-0.238467093565628,-0.0347480766372905,5.10489041288456,0.00651248932990171,0.00156442527749207,0.00307008005992535
1.6,2.57853420295602,1.74782689089008,2.67720098951328,-0.229896840990417,-0.103916303646179,-0.04389205422791,-0.724802902154588,-1.82112926372216,1.68180837170988,0.155915865552757,0.034343241854425,0.0478750785429958,5.21134663785166,0.000420805287896256,-0.00268289557068073,-0.00020382750728122
1.61,2.54169901000097,1.77184147053416,2.6455984853807,-0.069309703661907,0.0100221217011972,0.00377218769029837,-0.775103024491468,-1.77910257488719,1.87133170897931,-0.084095207314279,-0.134018167287586,-0.0198796647427987,5.14446084307015,-0.00129766395023078,-0.00407249573209084,0.000758434190632641
1.62,2.55310084763033,1.80988577856687,2.77562436090682,-0.135397684207952,-0.0285935088492435,0.00249603590152487,-0.618504009664664,-1.89283799047582,1.75122286253777,-0.1280349743124,-0.163141692743062,0.0265842808990836,5.07285985285445,0.00309576949226443,-0.0004739782914567,-0.00138779349241218
1.63,2.57463598673631,1.72444274633654,2.68274677715886,-0.180673078258738,-0.0672544751669827,-0.00954571342459683,-0.707749288800761,-1.8656086297783,1.65606383970032,0.0280601346725515,-0.0490773117475597,-0.0420193951058992,5.20150539575987,0.00152456873519582,-0.00213870250185797,0.00242016831649192
1.64,2.55112984163438,1.73901954119666,2.67916423954067,-0.106409031915653,-0.0112992072331813,-0.0196245804065595,-0.716834323380147,-1.83224153169062,1.82756170291985,-0.024712100179613,-0.102598111853456,0.0495204733370396,5.10129728532804,-0.000840722173060918,-0.00373277693191427,-0.00143040828835576
1.65,2.51493079932305,1.71101560954034,2.73858880643509,-0.150521377068962,-0.0566205655037308,-0.0084111336290166,-0.69597503495264,-1.95350385160472,1.66851782971132,-0.139726662851603,-0.187624010323018,-0.0527929181295775,5.1450033180624,0.00480684720983249,0.000502445935393923,0.00287947843402766
1.66,2.57071297443177,1.70705710887668,2.72271886751231,-0.152406834940553,-0.048650156118094,-0.00931436702373131,-0.668716431734774,-1.84322061596415,1.77868383519725,0.124458524671867,0.0183741767118157,0.077096391486231,5.06721986457339,-0.00231413020050115,-0.00493403279380182,-0.00321289360697381
1.67,2.53509171643496,1.69613492773729,2.74426055448154,-0.0776049718971568,0.00251660267833847,0.0201573678477886,-0.712595532439223,-1.90256342397464,1.66466409672071,-0.189099087013765,-0.222834069070003,-0.0801638579527316,5.17870428365435,0.00251201950940611,-0.00145376072237545,0.00281876462922688
1.68,2.54991325282557,1.69895887239275,2.74363068052405,-0.17611522320621,-0.0673036152061881,-0.0232627499059082,-0.602849407067299,-1.95989091788394,1.79450186785252,0.0272189374112821,-0.0590280079482463,0.0731115951584768,5.01063623932871,0.00163247119850532,-0.00187564682419504,-0.00237964251337605
1.69,2.58403826451998,1.65965356235463,2.79156436368044,-0.0897355165722797,0.000465860812336606,0.0429666210084483,-0.682458183631538,-1.83777279083939,1.65363729468356,-0.00306713867114591,-0.0842045498166766,-0.0384513661123621,5.1386323900192,-0.00183964758981682,-0.00465938191909666,-0.0002159075672026
1.7,2.52847321102549,1.67476692901651,2.74342651021124,-0.121733577738448,-0.0301687085489396,-0.0186680636396595,-0.633828618535779,-2.00166002901964,1.73453951306584,-0.160187657836522,-0.206519205716135,-0.00753766310211289,5.06281418856722,0.00413569923356353,-0.000200821416708053,0.00121626501348786
1.71,2.55475196841931,1.61142520713726,2.78219702468972,-0.175235430192115,-0.0712305933071322,-0.00545099043381998,-0.647807934494357,-1.9496671388525,1.67042212781444,0.0890065358610923,-0.0270292524545657,0.0300216165929225,5.07280729856561,0.000295138187955137,-0.00288441917297019,-0.00118266573350125
1.72,2.53051972642143,1.6050912187226,2.75862880788291,-0.0869670130756991,-0.0103672136972816,0.00693285835191893,-0.7107171726958,-1.92574689684795,1.70077558703116,-0.0737245742056542,-0.142502861699731,-0.0303513507603696,5.10555978323035,0.00026677997623904,-0.00330460857312908,0.00108002171857622
1.73,2.50101890121602,1.60250405317486,2.78654353064184,-0.154043530140673,-0.0598370317891541,-0.0226204885635077,-0.63867551955259,-2.04662352647757,1.70403133654112,-0.0773980478470535,-0.159366351590915,0.0167251500042671,5.03386418073951,0.00394002453067206,-0.00042192309629095,0.000252236260572509
1.74,2.55686624525852,1.57534219936867,2.8132729509233,-0.126525602931157,-0.037286516441929,0.022492534922908,-0.645396829149595,-1.91745602005697,1.67443744232572,0.0982823234064732,-0.026529848493893,0.023300322434321,5.04585998367644,-0.00220127055468869,-0.00469462767762468,-0.00217676774257317
1.75,2.52339287128302,1.58711814979841,2.80069418948344,-0.076416609220967,-0.00607371125472771,0.0130193776961387,-0.654322867724311,-2.00550150860084,1.6560953931378,-0.167800870642014,-0.209312596610143,-0.045745293530305,5.08557987772734,0.00255599937973052,-0.00170602386441868,0.00151898222313121
1.76,2.49313414502988,1.51862878307031,2.77596135185986,-0.2060176424315,-0.103819282664011,-0.0465494692409551,-0.646483756530013,-2.11677600669743,1.67686794814296,0.00219150147938502,-0.108968761946051,0.0141118263550247,5.05043402314113,0.00499202750148203,-0.000247535767565549,0.0015139762097584
1.77,2.55033502480762,1.52009601860143,2.83785841770544,-0.0872415686697828,-0.0111247828852576,0.0307685476313398,-0.662657085972929,-1.8821430850878,1.74632568382577,0.149551318501252,-0.0155279432460253,0.0568313108549375,4.98786087124341,-0.00517505449675963,-0.00687879200252504,-0.00413625848986031
1.78,2.47988050483851,1.53842411259497,2.84719318499045,-0.0750195717106934,-0.0256068475153427,0.00910827789296172,-0.643597601928195,-2.12195107412116,1.57752114696909,-0.303723032073899,-0.312877196969946,-0.104528829591883,5.0829746440595,0.00670123494326638,0.00135125699696153,0.00449861139107796
1.79,2.5175191279237,1.46876273482166,2.7978474071364,-0.230960167289324,-0.123693709527848,-0.0468942637471555,-0.610182072766068,-2.10662472047846,1.70965023430337,0.188586786508282,0.0388312532227936,0.100928275856866,4.99493599833579,0.00154185339825625,-0.00307103665801699,-0.00257744027532408
1.8,2.49711339086974,1.43228098308318,2.82844682173625,-0.0569110068553429,0.00281902996742194,0.0281316066594342,-0.744930353914829,-1.96319642180402,1.67837071022785,-0.0278913518969923,-0.162138216222308,-0.0680745881746627,5.06471545734576,-0.00157031334708142,-0.00440515118425622,0.00184736723560362
1.81,2.45266772140782,1.48835361824856,2.86870166952445,-0.136691003960168,-0.0726105860961639,-0.034162074142385,-0.587772411821464,-2.17995490626806,1.67906926710586,-0.147765597871861,-0.208091740215549,0.0339990717081003,4.94331295190589,0.00579318349848213,0.000847545635596113,-1.34227239390805e-05
1.82,2.52457618893125,1.40468655954149,2.86207223739499,-0.170218923625735,-0.0758064911936181,0.0120900613057952,-0.653983560694539,-2.0491254373686,1.57706663561257,0.166278799005816,0.00277100135738718,0.00576403156968798,5.03476528357441,-0.000847930887924698,-0.00437416847853476,-0.000865927605549248
1.83,2.50415904833287,1.45695348518707,2.85181271887802,-0.0318196436929062,0.0192474521604692,0.0267591976160641,-0.633509500597472,-2.01839798849845,1.68792707211038,-0.0918933632572482,-0.187335039273656,-0.00179130038415532,5.01795322072759,-0.000906593541254172,-0.00413447785919165,-0.00121628330658652
1.84,2.4780547612882,1.42547952440319,2.88734744741208,-0.161446841518895,-0.0846101281262222,-0.0101637017205553,-0.554221317213028,-2.2436774409809,1.64804053563401,-0.117350462107082,-0.202548472373497,-0.03164347393617,4.92971250764394,0.00670547719305068,0.00130114946164751,0.0019674487634315
1.85,2.52408706132784,1.33753010787342,2.87430130352859,-0.159361097213151,-0.0807487192223334,-0.0161362117153279,-0.662909483555566,-2.05334015570929,1.57405906270287,0.200534649673552,0.0196876821310763,0.0465975093345812,5.01375855707689,-0.00197319291418206,-0.00504097094226468,-0.00146043126301238
1.86,2.46075611382754,1.38890737300123,2.85956958613516,-0.0406977670613082,-0.000382533740957348,0.0199358504402229,-0.660188727718616,-2.10263100995072,1.64149119508417,-0.156051899286984,-0.234937826008165,-0.0345805669942869,5.01853893958085,0.00167800036855173,-0.00248770287704105,0.000642388894399923
1.87,2.46334775984275,1.36291471194696,2.90194461068794,-0.181223632484876,-0.100596207249773,-0.0203282566989289,-0.552587679544608,-2.2569279023469,1.65181103923427,-0.00767562454983625,-0.133425417512025,0.0132888453867062,4.90629107939507,0.00506755046467674,-2.7867025678089e-05,0.000314284782860606
1.88,2.47779611182799,1.25940936476034,2.87283092191892,-0.144787747044961,-0.0814378273059057,-0.0237158541216372,-0.711598266159256,-2.11024702871067,1.53743404421897,0.114794966325795,-0.0611232679815369,-0.0123657809998593,5.03936960877577,-1.81160484476179e-05,-0.00360038934007023,0.00167550759415294
1.89,2.43188684286016,1.33122846787476,2.87948377254044,-0.0751483628214594,-0.0339998074765877,-0.00619661909784418,-0.63895771282125,-2.15752260046938,1.6652381916168,-0.0729948253635443,-0.182983006997716,0.0335923600677351,4.93794568448653,0.00151321010475723,-0.00250581540545921,-0.00134272470062349
1.9,2.48809807419806,1.33213157244534,2.9638485406561,-0.118856321842743,-0.0522707197840174,0.0375505256075172,-0.53218224487311,-2.19615135855441,1.58279558388215,0.0166631216449923,-0.117253715107708,-0.00495303964969835,4.89812084742672,0.00141457922613077,-0.00239486532825018,-0.00156980285799696
1.91,2.4753864217643,1.24847017781611,2.88318461269593,-0.128117595742197,-0.0716397569185904,-0.0202680573514033,-0.631953209599635,-2.21951021789995,1.4999897668557,-0.0257236031858004,-0.14957589611059,-0.0467168084307473,5.02772969775095,0.00333321045049422,-0.00156569804451375,0.00313810806204025
1.92,2.42517005506149,1.22085544022993,2.85830754233599,-0.153611216194635,-0.0958985332822861,-0.0489948544757077,-0.64863969978548,-2.24715628778074,1.62626979672866,0.0429807850646609,-0.124119881957104,0.0458552760141309,4.948962921146,0.00301008040625506,-0.00169381529762172,0.000119052730349794
1.93,2.4749001554207,1.25883306595096,2.97470660341758,-0.0706736338640059,-0.0286827421448172,0.0453165241424415,-0.583843396936754,-2.11858643257453,1.6102667416815,0.0814793247364841,-0.0857312844392797,0.0277620935701498,4.88583258673897,-0.00239691743921333,-0.00514984769909382,-0.00348289236059066
1.94,2.48196870496716,1.28198160297419,2.97439063283644,-0.0625210759691668,-0.0237077566301957,0.0367304005809354,-0.517241644409401,-2.25700579433953,1.52577697692378,-0.144357448660789,-0.226405345558863,-0.0553896309751588,4.92522480287919,0.00339986014970228,-0.00121448403435203,0.000850753677118816
1.95,2.49827963944007,1.20334780690816,2.92722670165916,-0.161669508143381,-0.0899128060154622,-0.0146073607010922,-0.517127366720894,-2.28915429971511,1.56105342058774,0.079362912800428,-0.078658392256414,0.0298427062978244,4.90610882070191,0.00267410173743073,-0.00206449871694989,-0.00074542848800471
