time,x,y,z,roll,pitch,yaw,xdot,ydot,zdot,p,q,r,thrust,roll angle,pitch angle,yaw angle
0,1.01841953230695,5.01841953230695,0.0184195323069548,0.0184195323069548,0.0184195323069548,0.0184195323069548,0.0184195323069548,0.0184195323069548,0.0184195323069548,0.0184195323069548,0.0184195323069548,0.0184195323069548,9.14769576381116,-0.0108745135502855,0.000405658115356556,-0.00182923644207878
0.01,0.619371765481798,3.0193717654818,0.0193717654817975,0.019349139572725,0.0179554811402992,0.0179418310181385,-0.0634092722592343,0.0998265711211863,4.29516807523404,-0.433068326985243,0.0257987350159873,-0.0290699765427191,5.79517754248813,-6.6469095112688e-05,-8.94722788156118e-05,0.000466099059643224
0.02,0.640940570275733,3.37074488112903,1.74065206204142,-0.174278210033726,0.0119673850305736,-0.0103765309820626,-0.0206512038978313,0.0260390666223119,0.943892299552821,-0.00570723103930204,0.00111028641611828,0.0108204440205812,7.05034478834521,-0.000874896030870977,0.000928676324250051,-3.44799537386138e-05
0.03,0.664412907950175,3.34465392004818,0.410771305933127,0.00179875989709274,0.00714495511162761,0.011011965897559,-0.0266436143033233,-0.393112025355397,2.26264459618816,-0.0344958676560981,0.0417406995274894,0.0045372751949687,7.01010738300897,-0.00586416057028862,-5.96526683531987e-05,-0.000757871488151731
0.04,0.638769302376749,3.14548217128254,0.993685556758888,-0.0297478047383032,0.00383045224864243,-0.0128943560243764,-0.0453046626252401,-0.0367486599155229,2.18680486782737,-0.254506047060724,-0.0127910853076508,-0.0274446731314878,6.68592821686852,-0.000824239161164537,0.0015747036706384,0.0018704896070221
0.05,0.684431074937396,3.35044172365878,0.965080001694999,-0.0737117318575456,0.0277559007523731,0.0226355636425053,0.0368651081747478,-0.0209164593475747,1.92022122406976,-0.0137585304468031,0.0886234827809937,0.0662334981434116,6.86547179553865,-0.00509956932432604,-0.0021020418097009,-0.00421788595808397
0.06,0.678004993400874,3.3166341130443,0.848911822892959,-0.00784072839404268,0.0351237233909914,0.0246395957598178,-0.0608687717297026,-0.174096182640387,2.09936900808803,-0.215382845489758,-0.07984278039214,-0.0889933266477844,6.85298113608196,-0.0024409656327678,0.00152401351911149,0.00303590230667056
0.07,0.678138532330498,3.293626693521,0.982745246255218,-0.0570493334343015,0.00445414321829399,0.00104873942757433,-0.0258457174482718,0.00642062358122217,2.12851410655454,-0.0811896681407531,0.0908675463252425,0.0920747881258203,6.71866617851327,-0.00459483993187338,-0.00135241024119579,-0.00443889500293259
0.08,0.656693864196468,3.33186390264558,0.956601157489207,-0.0326635899318178,0.0393056289922597,0.0384989695473295,-0.0172606628607376,-0.13229206777526,1.98953851149342,-0.195240550812665,-0.0492186785542881,-0.0906681928263127,6.84032426031316,-0.00220182099389219,0.000554955113282166,0.00246373611691637
0.09,0.676267365544398,3.29058603981945,0.938602752005259,-0.0684678631435445,-0.00088107874486789,-0.0188692012778873,-0.0650394269024012,-0.0811180264476341,2.13964241428025,-0.0888912899511333,0.0394730301882905,0.0649848976706564,6.70420818182289,-0.00357113862220747,6.54084195453561e-05,-0.00221045464872394
0.1,0.606241388463377,3.26140777732198,0.961781427458974,-0.0710289755752738,-0.0121312102955253,-0.00167843360626137,-0.069124079208796,-0.217876050602919,1.98504569550395,-0.181713318073063,-0.0212633991963977,-0.0706730548658397,6.78014786462939,-0.000278485909052412,0.0019843107570245,0.00340183924200604
0.11,0.62545754270205,3.22502022451522,0.935251865121407,-0.0938343270947624,-0.021020722539028,-0.0390976260820399,-0.022123563137785,-0.211849013059774,2.09274885169762,-0.0376209057994395,0.0699847528843614,0.0601669067776816,6.69347875848233,-0.00288385305507961,0.000246946223125388,-0.00102213478862491
0.12,0.68382483234391,3.26623688715103,1.02803215139154,-0.000360685371616175,0.0513581433366248,0.0462320496468083,0.0482233544722351,-0.193299025461416,2.06265214319633,-0.113912011782857,0.0300814378306366,-0.00253592518613902,6.76462693696199,-0.00562805698965448,-0.00216112437565722,-0.00205432083490176
0.13,0.668839577668587,3.22728625448884,0.999381691060962,-0.067413720251135,0.00144675912279335,-0.0155700112074297,-0.133504320477161,-0.102195476118103,2.11174691969616,-0.255135286225801,-0.0921107195935353,-0.0545432387280894,6.67826327622663,0.000550885800800492,0.00282333685431026,0.00330470349339806
0.14,0.623891137152097,3.29660813760711,1.02953109965411,-0.101524335706918,-0.0253271580448737,-0.00718687987600081,-0.0122646552177804,-0.175460881848191,2.06474550782425,0.0125691409685791,0.121705200943425,0.078255604995064,6.65205595320871,-0.00449183168428822,-0.00108910203697222,-0.00338696227602655
0.15,0.650564732209634,3.24204385790294,1.0232114761542,-0.0125104504633571,0.0410372008830096,0.0214564377919063,0.00427313075841684,-0.271177415838693,2.04922856959373,-0.20841982620767,-0.0462865284281882,-0.0782917001440364,6.74272657491074,-0.00252454769225845,0.000144709816902896,0.00269504461237659
0.16,0.664782107391059,3.20743397557224,1.04319069180643,-0.0981566301025982,-0.0187080903071674,-0.0331447117829418,-0.0988846019693281,-0.12755316615757,2.14954137697601,-0.125634859136541,0.00903509009850422,0.0540696716469322,6.58308056208148,-0.00144942909260272,0.00119330078168191,-0.00101411779941906
0.17,0.59529592389384,3.24233582793088,1.04824859731664,-0.0896293737039193,-0.0210407142024927,-0.0025502826348256,-0.0460134527381932,-0.303225803432893,1.99626725793053,-0.101092371985799,0.0245429869924168,-0.0435204611446744,6.67456402316057,-0.00160946805561696,0.000964105690760984,0.00216091231872589
0.18,0.621679528764535,3.17070059154079,1.02500505972476,-0.0780483532844615,-0.0124253583269188,-0.0408267861273432,-0.0312778108492661,-0.305333733900261,2.10388328465026,-0.106839478616198,0.0207797111497604,0.0251843162306324,6.61346508223929,-0.00191019544882633,0.000714414059672112,0.000720674073378111
0.19,0.67463447313068,3.21703794155475,1.12055760798421,-0.0385919831263873,0.0282424098722486,0.0285958237205494,0.0214437874770557,-0.2186306914518,2.09442201105277,-0.0845480786917796,0.0444906538235651,0.0306173987395516,6.61814534064119,-0.00501057937635767,-0.00179859390887298,-0.00279810040818859
0.2,0.66905621089534,3.22463480414538,1.10642722498899,-0.0493139526328161,0.0180079133482155,0.00911203329644823,-0.0664036229763466,-0.199604210613591,2.09346325112314,-0.227844385004267,-0.0687157372741968,-0.0604806114141187,6.61923809514647,-0.00114783418795491,0.00133704622534679,0.0024297007271041
0.21,0.618691820422636,3.21955316853662,1.09381535184105,-0.122008983152682,-0.0410225223641448,-0.0368873489272682,-0.0785718052431928,-0.243949876197619,2.09902994000682,-0.0854185645266677,0.0448324376727775,0.0382312919829637,6.54557282742405,-0.00115636766808477,0.00102256423383207,-8.53687497556448e-05
0.22,0.615989604864847,3.20245623689569,1.11212879388221,-0.0657792768175679,0.00483611617088766,0.00142403556247473,0.00202296767710247,-0.357150556792843,2.06235885681663,-0.0848065101263573,0.0289575661002845,-0.0141439794275129,6.58635080377704,-0.00326405222480685,-0.00044362540680486,0.000595134089741769
0.23,0.684596974795293,3.18511388388588,1.1617456765469,-0.0350606290207294,0.0302982065452747,0.0095122345834388,-0.00365716984547084,-0.234163637813355,2.12820836785428,-0.144985861292914,-0.000784438979703636,0.0260582474773599,6.56458497399257,-0.00391110252774457,-0.00094333236391869,-0.00167291637521176
0.24,0.657567756712456,3.21442761234557,1.16687792343586,-0.0771981999573575,3.44083199467415e-05,0.00845806869883464,-0.0695212856399812,-0.225607011115672,2.10534643047995,-0.187261435835603,-0.0359899294490457,-0.0366867061664609,6.53163954619503,-0.0011315088513645,0.00111548441784063,0.00132878003678264
0.25,0.64415076756035,3.23214248712705,1.17291724545699,-0.0843698434240841,-0.00266501472728295,-0.00384754938644204,-0.0112805983376987,-0.268980005438841,2.10223389754971,-0.066828782114515,0.0549184462111621,0.0358885031107297,6.51362361220654,-0.00371630234518903,-0.000964721499570225,-0.0015238382341987
0.26,0.664691401757468,3.20759262181193,1.19390258363171,-0.0387338207397053,0.0306788162575237,0.0202068437471304,-0.0125819377308982,-0.290110904038642,2.09951028936386,-0.174723904229521,-0.0293336359907656,-0.0263877229521129,6.54768622524734,-0.00302927195053655,-0.000456885024411694,0.000310221840907075
0.27,0.671952037968905,3.20520385841442,1.21461109144262,-0.0764868310751762,0.0050456534365204,0.0032704243908716,-0.0451049525958624,-0.228402181352015,2.15027442060481,-0.142125205161124,-0.00270742491932111,0.0179987716926987,6.46495188441835,-0.00259842792712826,-4.29561998339011e-05,-0.00100755955097649
0.28,0.649480138538107,3.22307944946422,1.22810348148414,-0.0709392881084185,0.00811709908819999,0.0145712657223432,-0.0253974090535385,-0.288902526446031,2.08055565987455,-0.131352447963114,0.00580844115995088,-0.0156126439599817,6.50200486958883,-0.00288192755697778,-0.000432127743408104,5.27395308576819e-05
0.29,0.622123264760284,3.15910986284259,1.19014193009306,-0.100487583449593,-0.0210153364538121,-0.0317608577502654,-0.0837265690943271,-0.349413710497379,2.10220263192072,-0.171488064603959,-0.0349095469695169,-0.0207806713382828,6.46687735543667,-2.14548518426165e-05,0.00163588782185294,0.00247883104779264
0.3,0.637948567649984,3.17375116616949,1.24295702334127,-0.0848082175328084,-0.00530692428974567,6.98069948945682e-05,0.000908574915261279,-0.338226211063773,2.1197398514739,-0.0290956582458169,0.0718541933396412,0.0580280520021723,6.4356073913559,-0.00456919864725657,-0.0015964664714873,-0.00274847622589441
0.31,0.685174537736859,3.18665284478192,1.28508659818408,-0.0132002719049196,0.0504952977725411,0.0422067943812002,0.0106326225314884,-0.301672986109415,2.11090310707618,-0.203624994358552,-0.0422504829397219,-0.0409132420585963,6.51135988466185,-0.00379160761146519,-0.00136156934935662,-4.24262634862308e-06
0.32,0.678510083493716,3.19106622962429,1.28198180517533,-0.0928535341128302,-0.000279045825422819,-0.00396259416566002,-0.070418155173564,-0.242363226524635,2.19344442579717,-0.179100710241007,-0.0374860678242585,0.0106453257271468,6.36692794322636,-0.00135067234885574,0.000730382536320316,-0.000310907219988637
0.33,0.579337730884837,3.15268411078899,1.24917314225911,-0.1428542556408,-0.0585550378846999,-0.0390261955359207,-0.111326386116876,-0.429395981774176,2.01376475256277,-0.130056328145176,-0.00766086192058392,-0.0450478771046041,6.45128332782772,0.00111756540411906,0.00214823678139905,0.00397085645824653
0.34,0.614716262488514,3.12199136000086,1.25289521566218,-0.0833672507042059,-0.00729347923519421,-0.0216807248807666,0.0191824600223081,-0.445847049369693,2.17430407880145,0.00306173103489439,0.0822940624121473,0.0794675218362722,6.36143973340362,-0.00508833228579941,-0.00199863058361301,-0.00272753079958187
0.35,0.664999597605087,3.10312740899796,1.34227851702936,-0.0306554708467059,0.0265496543359658,0.0235596518668,-0.0341951108202232,-0.378883154718907,2.06986639972917,-0.25112720560819,-0.0806061477368225,-0.0631810794887216,6.45779206766779,-0.00153353579345687,0.0004264548892272,0.00191077151966097
0.36,0.653518855243291,3.14729884438631,1.30834860049879,-0.122432639862474,-0.024287915487365,-0.0184884372799547,-0.0490707241328038,-0.314528896200566,2.18746708866938,-0.0981170343141274,0.0271206128606755,0.0450520175308084,6.30932261649598,-0.00182289611194932,-4.10686986202591e-06,-0.00126083207904615
0.37,0.627427994926619,3.15567929347975,1.3370736663165,-0.0777463888892553,0.00245223874512845,0.00835879558743189,-0.0262242746127114,-0.434486416551551,2.05653105262198,-0.122739611727154,-0.00771760489372162,-0.0350646852687764,6.40467319428983,-0.00263972256573235,-0.000384094703050598,0.00127885099601582
0.38,0.651020770724708,3.11123877817413,1.33433860025289,-0.0788210966463695,-0.000883125307672972,-0.0144666801128466,-0.0318721229894116,-0.391878587248108,2.16003866063157,-0.148531173686591,-0.0118619117662908,0.0268091672813456,6.33330646057857,-0.00221040641099882,-0.000160937456582488,-0.000570110123444876
0.39,0.679892109175577,3.16337989504591,1.40611903484154,-0.0592583566820104,0.0270329666137446,0.0404520238586553,0.0197908569862993,-0.344021528457465,2.13044464367444,-0.106617770552327,0.0191946428910273,0.0131258760681538,6.34534283858382,-0.00460602159433315,-0.00225395466730086,-0.00248872366797212
0.4,0.681470044444363,3.16102773080512,1.3925246756409,-0.0574361640105522,0.0252843519092569,0.0190158586724737,-0.0277339462280701,-0.359986646380909,2.14168928708063,-0.217183518708876,-0.0729964226003681,-0.0398563306113907,6.34461242423465,-0.00198695997848487,8.09623904778835e-05,0.00103151908990276
0.41,0.650608382190872,3.14340831008253,1.39429025574617,-0.11421159421773,-0.022466288176139,-0.0105152679041461,-0.0484426031300643,-0.382920304026206,2.14477141089264,-0.122063071216427,0.0102588908181027,0.0253193001678174,6.27603066475856,-0.00170760008653728,3.65421664253172e-05,-0.000695339815366505
0.42,0.618318699427125,3.10834812955485,1.38485565219089,-0.0995191759612061,-0.0122014931178027,-0.0070935604711974,-0.0456313883796723,-0.476902498222507,2.08197701313006,-0.129685750652981,-0.0131559188116488,-0.0299755746074837,6.320546572517,-0.00157545219920193,3.26490656974e-05,0.0017674700039491
0.43,0.641928489724327,3.0844593559157,1.40471216640025,-0.0871625011040794,-0.00510712414957969,-0.0134196005194175,-0.0251150586394086,-0.451839088101962,2.14878666945543,-0.111624524649209,0.00209341403398286,0.0358250869970344,6.27178004153327,-0.00281321304876702,-0.000651336795803684,-0.00104002728490357
0.44,0.652090434519552,3.09643141689072,1.44414110848521,-0.0762672603378995,0.00451473532441259,0.01657325260484,-0.0242568634322614,-0.439791924331689,2.11346803653675,-0.159141158513594,-0.023386418834593,-0.0201540908441811,6.28761656383464,-0.00231302301612491,-0.000489273931197327,0.000201106793746226
0.45,0.636466086610635,3.0845492211003,1.42554371308557,-0.109829126838935,-0.0185181843238952,-0.0188372837867911,-0.0520092219237965,-0.463946276276831,2.12820177100442,-0.151209943489929,-0.0260649047630054,-0.00511516373768621,6.25032324743139,-0.000892055174219601,0.000475504600072745,0.0011470865112935
0.46,0.63072429279721,3.07952797246061,1.44539966724783,-0.103312252536091,-0.0158583456640347,-0.0080229013569708,-0.0290799355930859,-0.491485370634682,2.11675789579105,-0.0906551994805039,0.0137820911237187,0.0185688027943599,6.24492397556182,-0.002630071871847,-0.000665858263153959,-0.000481092207750342
0.47,0.656165651482298,3.07854161633106,1.47795900439163,-0.0652978278305536,0.0143282792531067,0.014627283687494,-0.00510554675780578,-0.47266455606325,2.13473884031342,-0.149951476775343,-0.019355238897675,-0.00394078841768947,6.25239564859898,-0.00309911635908397,-0.00119351729423093,-0.000456563455268494
0.48,0.68797209208785,3.1069550765367,1.51762432970253,-0.068374233528841,0.0229730840769362,0.0264241815555553,0.0101679460305132,-0.417127234325063,2.16641014661199,-0.151898728045604,-0.0217608455013643,0.0145292432088041,6.21599071761768,-0.0034296604725027,-0.00152126351492836,-0.00187552392050664
0.49,0.6059502526984,3.04276625295899,1.45556108130673,-0.145923664705752,-0.0543234184258391,-0.0408410130922991,-0.122918870032162,-0.553684704515489,2.07487736457479,-0.229916292039746,-0.0976381349361014,-0.0791409433731237,6.22575622979078,0.00321933870171067,0.00310163605348934,0.00569192303102479
0.5,0.588280198314105,3.02182283892756,1.45956890076533,-0.15118081444018,-0.0623174109166685,-0.0505452106298516,-0.0288906324112218,-0.583482580230279,2.14963789690724,0.0582235521011122,0.107886689955092,0.102830074128486,6.15529023035183,-0.00374401684160331,-0.00143627388615326,-0.00246900999089231
0.51,0.673975289876499,3.04398868990118,1.56654093707093,0.00620888335502082,0.0628004671828309,0.0611721634851332,0.0456589645253177,-0.52041828031513,2.13461826927089,-0.189600376617948,-0.0361129086939209,-0.0345657480721445,6.28007115709537,-0.00521440406270945,-0.00345186085923255,-0.00110321667866917
0.52,0.688538809888445,3.04942127514375,1.56405588380719,-0.10627946146389,-0.00189013485203739,-0.00633001196358973,-0.0505736442734696,-0.448839683633044,2.24046599030482,-0.256672693733045,-0.122890931109484,-0.0145368579217046,6.08207459849575,0.000723391473266035,0.00182996710962333,0.00103152964898748
0.53,0.626806020063039,3.07087876231269,1.55841295098666,-0.150171504081814,-0.0546354076471706,-0.00952265741636309,-0.0358536988472856,-0.53798784540406,2.03379402467371,-0.0305535920232184,0.0662431010889469,0.0170025512972175,6.18824804467593,-0.00231847834359816,-0.000651105758580526,-0.000345956850526631
0.54,0.650849678658143,3.04115887795023,1.53433773314064,-0.0469619000085087,0.0345498463692634,0.0140263134972016,0.0215316317033132,-0.571698479209337,2.18818877876666,-0.143246300964545,-0.0197527256869078,-0.000994634953943127,6.17199837073543,-0.00410683755252726,-0.00256445701878382,-0.000521480874401846
0.55,0.647129880437893,2.98932880217853,1.59357316935085,-0.119426175005556,-0.0261589615724134,-0.0206510727363388,-0.0736326739147506,-0.560620169122737,2.12880907916007,-0.238764785803102,-0.115459632828711,-0.0268806999120659,6.10648295380292,0.00157179103039254,0.00234597039181102,0.00227908271887362
0.56,0.604748149591323,3.0022030293873,1.55316932149025,-0.15943119542085,-0.0666556370005653,-0.0284414117499189,-0.0437617392767731,-0.606773172902071,2.08572654089211,-0.0107898406567911,0.075176369372027,0.0317677827419717,6.12856846103652,-0.00204763803386845,-0.000675118611679456,-0.000149818550985902
0.57,0.647769824617622,3.00295287375236,1.59505973464483,-0.0431206213662384,0.0358226660682994,0.0183485333327587,0.0244262374482979,-0.606781501633338,2.16910580651563,-0.136027788460221,-0.0225760946607989,0.00194910151662296,6.14177936690707,-0.00441515715628653,-0.00278556120552598,-0.000853496006349458
0.58,0.700571449540928,3.01800024302038,1.67525830468091,-0.0714250158246015,0.0196246825434839,0.0270802058421042,0.0133075095768875,-0.515525651974019,2.17602614945107,-0.213599356076515,-0.0859478174147884,0.00584544966141842,6.07594893726489,-0.00196902117940749,-0.000284638420325308,-0.00147651242640046
0.59,0.671163941733711,3.04355720684357,1.64297479466129,-0.118360553658614,-0.0207378727044193,0.0162960210434766,-0.00447417540546952,-0.555226143701873,2.10745805697667,-0.127658540223802,-0.00237859427779963,-0.019862436506492,6.09031087128172,-0.00185718000414531,-0.00061364030225433,0.000205053961798176
0.6,0.639952154377977,2.99742050114416,1.61283473839685,-0.108691700249456,-0.0111724084461984,-0.0178714499194376,-0.0259752885998561,-0.628963208938637,2.12225850289191,-0.144090120209492,-0.033377503213729,-0.00408955129987557,6.08814513561586,-0.00139245516614738,-0.000572313231995308,0.00108303957019094
0.61,0.665500718471402,2.99284909945082,1.67150787042059,-0.0896640232101421,0.00256904719929929,0.0143063562208547,0.0131365292987955,-0.590822805549975,2.15119829175492,-0.103810980897579,-0.0110953256604407,0.0366638553647358,6.05446047253505,-0.00357610813036732,-0.00171706401029803,-0.00234360583377428
0.62,0.653563967172046,2.9786666649358,1.67179185576344,-0.0952827346746608,-0.0105083210598277,0.00917543954443165,-0.0260608362018622,-0.6272040514716,2.10368170262104,-0.211122095217669,-0.0747419846798095,-0.0540265425036311,6.07455699840835,-0.000468563149712123,0.000367140463192206,0.00217610494499903
0.63,0.629225080328947,2.95480960706008,1.65069847952111,-0.148668550358913,-0.0454925289328301,-0.0350644728704695,-0.035467528279607,-0.656880918243421,2.12804671634739,-0.0950031460109282,0.00291718946744009,0.0340839402066821,6.0202873245956,-0.000770224088475813,-0.000215642614540412,6.89771046768147e-05
0.64,0.632856986797835,2.94593024927135,1.67977485118035,-0.0975911069746083,-0.00862818620186555,0.00528205822718058,-0.0140564715537597,-0.677885005037997,2.11239276907068,-0.101702390609804,-0.0199603455321139,-0.0057548533849453,6.0465862597933,-0.00288072205694935,-0.00129889736908369,8.09532296394e-05
0.65,0.639422360003514,2.92382722595375,1.69946881951238,-0.104243026047526,-0.0209368769756362,-0.0144294030931615,-0.0272485194025206,-0.678618055947459,2.12281598916159,-0.190727099233625,-0.0633320506853612,-0.00816435377125452,6.01784972292681,-0.00041235911026694,0.000308984846142329,0.00111643719430289
0.66,0.640068682174457,2.93457844505936,1.70864652547424,-0.133259063564988,-0.0312249698324748,-0.00719676975258346,-0.0103381774817282,-0.675972048442363,2.11402573112188,-0.085069459669378,0.00516060484288895,0.0202149354146812,5.99640778314872,-0.00185329768263811,-0.000963194325668276,-0.000578458476351651
0.67,0.662688456074329,2.94673366866747,1.73425952335742,-0.076741613793726,0.010868951353862,0.0181896364253592,0.0190897068979667,-0.670548454307461,2.12707533131186,-0.131607937591323,-0.0331704394335571,-0.00334986652587717,6.02214969821651,-0.00340411951093422,-0.0019069296069827,-0.000609632138398199
0.68,0.639669086666989,2.90593450781031,1.72993963189815,-0.12717655555021,-0.0353985426009707,-0.0223425748966991,-0.0414183916667615,-0.720061420458454,2.11813581950016,-0.221327335810301,-0.0946211552650796,-0.0299096708058376,5.97244414780126,0.00143112945188902,0.00147327202587324,0.00251225005480552
0.69,0.645462406224491,2.92127850137468,1.74996720350474,-0.137237133133255,-0.0343839132354884,-0.00514318413081454,0.0142089202861906,-0.694499231649261,2.11767525183228,-0.00385865330019378,0.0593675579555864,0.0587420147904387,5.95640712187567,-0.00379487851584519,-0.00236395407462673,-0.00249006457387621
0.7,0.683981256582101,2.93639316997088,1.79194181122213,-0.0346366466024852,0.041860800853446,0.0440962379755081,0.0417260258134996,-0.683291707572507,2.12869956282278,-0.204274794496262,-0.0787414737060758,-0.0347756167739275,6.0335052250421,-0.00359976082294937,-0.00240193565301398,-0.000278035052733791
0.71,0.67301551630198,2.91351351547775,1.79323004576456,-0.136146732669105,-0.030920134533862,-0.0130396002754128,-0.00620520034140554,-0.707202653990876,2.18589092853877,-0.213065236313628,-0.0939623252014055,-0.00385723277276378,5.87602664540698,0.00109252870270572,0.00132564591904841,0.000846078976032922
0.72,0.663308623206317,2.92249388932885,1.81000876290399,-0.129992332169825,-0.0276635700610491,0.0118327672260714,0.0234137192471307,-0.703901078799868,2.05972223231813,-0.0137797865052469,0.056076711321633,0.028759845107542,5.96259635903544,-0.0040760148482262,-0.00266897730274342,-0.00186119179739933
0.73,0.662104542344303,2.89378695732562,1.78736341305752,-0.0642994306207963,0.0180654045725866,0.00955406790465164,0.00566313906086507,-0.75295896933545,2.13855507729303,-0.236203418924571,-0.110677316718223,-0.0405142832606808,5.96985829496847,-0.0013007974029048,-0.000721572514819557,0.00157779148864051
0.74,0.699766830651817,2.91696657057256,1.86949682333321,-0.116176647042376,-0.00942843291467722,0.0201772038804542,0.0635000705601606,-0.684863579823809,2.17761713538188,-0.0922717315240925,-0.00128762919498004,0.0649218539089791,5.85197828252506,-0.00319796687594138,-0.00197409748312186,-0.00394960448428059
0.75,0.693145466562042,2.91838537338573,1.8573242767241,-0.0786335862278012,0.0125752854069363,0.042476261950339,0.0315504275039126,-0.724556482428622,2.05790844337802,-0.186900147841265,-0.0712642494110287,-0.0696497406901597,5.97600937747954,-0.00222836436306542,-0.00138382862242428,0.00139749374103986
0.76,0.626938193243013,2.83782552230176,1.78529830496769,-0.17065904313592,-0.0670704486931496,-0.062871540369097,-0.0557881151821385,-0.831687707933402,2.13669274924571,-0.194001268870003,-0.0849684666265831,-6.38744586072687e-06,5.86452780513116,0.00291587368623782,0.00182034198588757,0.00300352677539132
0.77,0.634866468105188,2.839191120576,1.85441633357607,-0.13923930037422,-0.0382586417097598,0.000406682814061681,0.0102894079661477,-0.787366651674543,2.10788107067297,0.0458981306985999,0.0628332331838953,0.0637553993332541,5.86570777483066,-0.00487011647214841,-0.00296604938296176,-0.00297449485326411
0.78,0.623935965592506,2.79876106691598,1.84772508106855,-0.0773498662521395,-0.0143281552803306,-0.00891611300830845,-0.043325581612451,-0.859495146880312,2.06115299168252,-0.29945090237131,-0.151869462196822,-0.0919654701909044,5.93851965209354,0.0014277516480509,0.00113872161299941,0.00485611975916119
0.79,0.662993100147944,2.83458365752207,1.88606325761819,-0.16370607039172,-0.048137793386361,-0.0182516063713147,0.0466534545864532,-0.779691465643845,2.17427608192062,-0.00302887362281824,0.0586815627734937,0.11872533751497,5.77956529528844,-0.00284896445716072,-0.00229160959797763,-0.00470875728978395
0.8,0.678167689338665,2.84839593823462,1.91197606349692,-0.0558082681906998,0.02478654602798,0.0549201448467216,0.0269032088530924,-0.799084706702624,2.04558186158109,-0.185143926750923,-0.0920902903718437,-0.0936970736394021,5.95259579014723,-0.00302666781728921,-0.00193124489059056,0.00198254877681317
0.81,0.679474903570266,2.83331744132799,1.90527029232947,-0.128027211544883,-0.0291060382707401,-0.026781806056805,0.0367825634599702,-0.817224581072062,2.20071683424174,-0.189934358819316,-0.0690302290429407,0.051603287788291,5.76029751281253,8.21419748117933e-05,9.69317806310241e-05,-0.00111216117201611
0.82,0.683475898891639,2.83678643908753,1.95235498946139,-0.125502191136159,-0.0163578822568572,0.0365215362539578,0.0424442933930053,-0.800999018456365,2.03153223971652,-0.0578757891038022,0.00428489720321199,-0.01016853521739,5.8636073714864,-0.0032679682837679,-0.00239781021638965,-0.00116596169154122
0.83,0.706666223289815,2.85016879913318,1.9356170901596,-0.0567832156117718,0.0296916548705745,0.0281468413251945,0.0749755506713922,-0.798279928894625,2.15590595173697,-0.181295178999928,-0.075486254938349,0.00244888596063766,5.85252682224728,-0.003482832548581,-0.00254100104242095,-0.00127867025422051
0.84,0.674415742697055,2.80148260558796,1.95730368450071,-0.146308058828114,-0.0423528514019736,-0.00676302821233214,0.0115670068987,-0.876456978138889,2.11102016753534,-0.224299778083966,-0.114424558738959,-0.033113669724935,5.7664670361194,0.00203882630049301,0.00152564330248738,0.00194031553931428
0.85,0.654418615256542,2.77935452645896,1.93566199677354,-0.161038121001473,-0.0560604340581674,-0.0161745572134488,0.0122755822027384,-0.86748479285456,2.05435648291778,0.00106671085612897,0.0475676272088653,0.0379885665894679,5.81123559269392,-0.00281832826045228,-0.00213944800931981,-0.000984503643219762
0.86,0.67447552226298,2.78532671879471,1.96623235516378,-0.056377625460759,0.0238031434667464,0.0267183291247878,0.041651582330874,-0.865392995798231,2.12974185199311,-0.183443829699302,-0.0850013576419845,-0.0117625634169605,5.83124933535269,-0.00309287736421844,-0.00249345625092505,-0.000546624024700354
0.87,0.693405216295677,2.78583171988381,2.02042235142523,-0.125132687631631,-0.0223320944730816,0.0117019244630276,0.0612930778238425,-0.873873815964347,2.13545079134025,-0.189659499815723,-0.0930536747769846,0.00294744717507088,5.71846259657627,-9.06144079857825e-05,0.000152778912024857,-0.00061725407325759
0.88,0.651539517304947,2.74235927701882,1.96389010961912,-0.168367073285869,-0.06589496096422,-0.020154077571015,-0.0108888316397837,-0.931951432180591,2.00080718444788,-0.101780813596762,-0.0243878981381413,-0.0318355137846539,5.81263346406964,0.000338298880321156,-0.000142796671814121,0.0024956882599817
0.89,0.641364934300243,2.72416084504555,1.95409585337004,-0.123027799506453,-0.028415070321834,-0.0233391299523146,0.0109946647990562,-0.940258965206482,2.13969773014693,-0.0755271237081075,-0.0259253084304141,0.0434600285697144,5.73858493137329,-0.0024652901876023,-0.00194046953622426,-0.000879128379279127
0.9,0.66451979255521,2.72208711457688,2.04648583489113,-0.101324214938018,-0.0176760967154205,0.01758078099546,0.0344217484570374,-0.927815958412121,2.05508068577768,-0.179574062515652,-0.0891209756169841,-0.0185856580610245,5.76253114786038,-0.00100580252479709,-0.000639187077971133,0.000139192528435343
0.91,0.616374225672928,2.67211158794426,1.9632063410478,-0.192375965529432,-0.0913945847453699,-0.0547177305187462,-0.039776834222126,-1.0284672704589,2.03733956186315,-0.162550246069275,-0.075500479239586,-0.0371457350258378,5.75491188039514,0.00357328524767906,0.00156830308751753,0.00437225640487042
0.92,0.667241997133114,2.71119276956371,2.03124714542441,-0.117078394040535,-0.0184939961468747,0.00594383539295149,0.0696241795250806,-0.914794510169901,2.1584376328137,0.0817793471225482,0.0666022677187466,0.110762681550942,5.6797173644765,-0.0068613625205392,-0.00498766714596858,-0.00540113810192202
0.93,0.663999412134044,2.68557916657248,2.07848857092471,-0.057641609207763,-0.00480640360348737,0.0255565944089078,0.0148042742088489,-1.00137807084774,1.99566620033764,-0.376713362806085,-0.222540944757065,-0.13101092047563,5.8062308748259,0.00239467895386537,0.00171854410501191,0.00511716609440146
0.94,0.685908862165699,2.70652006635899,2.04490558566997,-0.203332524440441,-0.0806682978398355,-0.0317308955894456,0.0883950038706898,-0.964096733571268,2.16380738117892,0.025672126756071,0.0824027953936626,0.12574716009775,5.60428740745061,-0.00163185418973278,-0.00222553549651097,-0.00441416910479806
0.95,0.669827138606173,2.67493655096662,2.06747419565161,-0.0789370228676011,0.00849625733013336,0.0365936950015021,0.011145729674323,-0.986737967577801,1.99743496979281,-0.162886414162695,-0.11431671564462,-0.106231036612558,5.7982376089199,-0.00219199868974487,-0.00169556008833463,0.00341846748046164
0.96,0.678563756580258,2.67847473447454,2.08723938769438,-0.131016326645647,-0.0433902628837704,-0.0317716611871708,0.0826276802994634,-1.00531255051159,2.15955277590928,-0.164792986089372,-0.0659770640796233,0.082020122378747,5.60214323079344,-0.000115480195112376,-0.000211337833752951,-0.00231203632790017
0.97,0.701906916331201,2.68076623332714,2.12995287819164,-0.127985576432017,-0.0204617322191643,0.0476929367683699,0.0733053097715616,-0.974896945853171,1.98544266491116,-0.0737862387875706,-0.0159895430322432,-0.0363498848479369,5.71736699134753,-0.00253249004635107,-0.00253184138496377,-0.000447768580221364
0.98,0.680004387258794,2.66041182316943,2.06890362999754,-0.111882071332164,-0.0198820290271403,-0.0186955134365386,0.0540412431581764,-1.03728902489116,2.08514121796587,-0.18963658045241,-0.116252546856735,-0.0127948921646329,5.67700361635223,-0.000129573138927128,-0.000278024649765082,0.00157201042543365
0.99,0.689071873520019,2.64831696197265,2.13468409772818,-0.144769772329883,-0.0472159484357685,0.00413529327389531,0.0807139743223394,-1.0247864807356,2.06034865841465,-0.0812424729305645,-0.0185340103940682,0.0416402723841605,5.62802301032852,-0.00148716967015835,-0.0014177741612577,-0.00210254054737748
1,0.683494863784254,2.63241551999214,2.11917027615741,-0.114741433405976,-0.0208785709215811,0.0139511419126251,0.0513066064302762,-1.04478322445988,2.01985351307174,-0.14687854314736,-0.07583507324333,-0.0470536418229528,5.68636511420796,-0.00102879529856148,-0.00139415293708258,0.00165128638690877
1.01,0.689662664114631,2.63115174583735,2.13774005050171,-0.129591895750922,-0.031767595209322,-0.00981681082904967,0.0863860659050546,-1.05240213457022,2.08284699419404,-0.11921714356796,-0.0611132558331001,0.0431788774946728,5.61023190191173,-0.00118114934297956,-0.00119050288144803,-0.001504095634937
1.02,0.666121692968665,2.58863532022536,2.13474442495699,-0.150039502771504,-0.0570035190898067,-0.00410115217222665,0.0333062448451223,-1.10494036017412,1.98883016123182,-0.150373701790088,-0.0836573075324032,-0.049808340515359,5.6566696461646,0.00099732974528011,0.000190754064191403,0.00259885296892301
1.03,0.656456242993125,2.57095721624177,2.12136877203199,-0.156435636142301,-0.0609661529742405,-0.0347158999969006,0.0418490791722046,-1.10767430706261,2.0600992158413,-0.0585360958283044,-0.0200731129503716,0.0430343964471476,5.60434570875853,-0.00103989047909653,-0.00142219719175688,-0.000348044635041149
1.04,0.705789404341765,2.60630238062927,2.20872031870447,-0.0791351674373422,0.00591832846761367,0.0434347180292133,0.110325970597775,-1.04167858777778,2.05451777476617,-0.105581093305318,-0.0531239498283639,0.0147034152914673,5.62907330960524,-0.0038335370915899,-0.00340288869955343,-0.00259995245748475
1.05,0.687031099476213,2.57768380974888,2.18227603693743,-0.137275342908981,-0.0462226373465261,-0.00690569436354494,0.0752756367789619,-1.15490819528439,2.0266759760361,-0.251885869865502,-0.161756330048756,-0.0654364175251253,5.5873805470523,0.00297955711070924,0.0016705056882173,0.00348279020127935
1.06,0.69127160747905,2.5560015920867,2.17604198672882,-0.180467143864847,-0.0764840681367924,-0.0235644271601741,0.0823298971258821,-1.10889196004688,2.01768822825599,0.0343777215695266,0.0531261287001627,0.076871529030231,5.58025866809149,-0.0023976750065823,-0.00250123563695162,-0.00247877010736188
1.07,0.657459370031556,2.52199126640094,2.16707773322326,-0.100365332129909,-0.0225564076784892,0.00151436101862101,0.0223818703227753,-1.16930182264986,2.01129569432055,-0.209513794416465,-0.143040326986621,-0.0778604564357626,5.63205445405114,0.000454153587000098,-0.000416677873484098,0.00369064657337128
1.08,0.664211325632235,2.51541870578169,2.21354367189203,-0.177426037503892,-0.0809134008774392,-0.0408899566414896,0.0851341181441329,-1.18228510222301,2.05081370127653,-0.0788715926880857,-0.0377093789929478,0.0714878769511549,5.51525373688491,0.000566393334294995,-0.000206097567137993,-0.00141612868636765
1.09,0.675199434540064,2.50174662197277,2.20892969665308,-0.132794689388931,-0.0432158898785009,0.0138765814804394,0.051119340436844,-1.15931702082631,1.97126572560457,-0.0754801884650421,-0.0437613554174878,-0.0421214070746463,5.60415796621165,-0.00157515054824618,-0.00185757942625829,0.00140038045324353
1.1,0.677231479172587,2.50712830257604,2.22359713492803,-0.12271643944636,-0.037573690805868,-0.0225241994278204,0.0898018065129293,-1.19175422548992,2.04377637647971,-0.155926565765358,-0.0961225447857591,0.0256228571920721,5.53694451007939,-4.82125490092686e-05,-0.000729816764883377,-8.18995333452211e-05
1.11,0.715099412376514,2.51843520992582,2.27370066082962,-0.131667738794183,-0.0352551445078806,0.0272280981267947,0.13422972768324,-1.15954992419041,1.99969745998953,-0.0733905185414577,-0.0364254417587367,0.0138368843667917,5.53399953280557,-0.00195865256397189,-0.00204664844218012,-0.00186666699984686
1.12,0.730344228810865,2.52239433715657,2.26540949093905,-0.0991196792688747,-0.0117478354199301,0.0235433436447766,0.135876387255413,-1.1683630023139,2.00414972284803,-0.151729559093119,-0.0869105714956715,-0.0240811055953667,5.55787227620495,-0.00148410325363888,-0.00187576487375792,0.000128291358847287
1.13,0.735955017772159,2.51545700013584,2.28520479962891,-0.128110598664325,-0.0289419841734624,0.0108517229625674,0.158787287461414,-1.19392798436891,2.02943283234346,-0.130733666421979,-0.0765214599690514,0.0209804040594489,5.49417808360608,-0.000702568395673832,-0.00125686782431558,-0.00143138042235677
1.14,0.722824662710996,2.47913096491589,2.27826482211943,-0.139278283079741,-0.0441644142794984,0.0103257173566832,0.119077351628204,-1.2148916833547,1.95851323424721,-0.1147021344217,-0.0710151589323108,-0.0281962700476942,5.53691119949248,-0.000342298076033807,-0.000962561616848088,0.000904224968233572
1.15,0.717741383673294,2.47028014244836,2.27769320546752,-0.127383890112374,-0.0364119381547279,-0.00285966602087959,0.126181081464468,-1.21698186193967,2.01726594447207,-0.0958623470648936,-0.0526655689334161,0.0266672225417796,5.4978539542197,-0.00140204600282921,-0.00193984318224341,-0.0010559645179904
1.16,0.688897339577526,2.4275939696938,2.2863854479918,-0.149575503120463,-0.0584134970543333,-0.0100687305364087,0.0865246537633231,-1.28296317273867,1.95116149770533,-0.162906442338451,-0.117458469395757,-0.0394818762239627,5.51526570621274,0.00177013225774428,0.000366824812677307,0.00238492259691144
1.17,0.688309924810438,2.41107160577284,2.28021629480207,-0.165877419306361,-0.0748657497906521,-0.0262483038567838,0.0986982096547849,-1.2672760683923,1.99457251210597,-0.0267608877231909,-0.0155791974551287,0.0430332348758652,5.47553231982827,-0.00100509955381752,-0.00154932356195318,-0.00075834825660781
1.18,0.729857263728669,2.44310960123638,2.34926301652968,-0.0786331881822437,-0.000334338606235012,0.0413296578340496,0.147326249942153,-1.21051274835936,2.00124828691398,-0.10994266075786,-0.0661811550954515,0.00398309772852896,5.5014389212729,-0.00327033161862799,-0.00351509021718189,-0.00200915998116103
1.19,0.739893926680238,2.44499867751038,2.36175110721492,-0.119979164045499,-0.0282562798243168,0.0172685095586969,0.182607233116397,-1.2936273353974,1.99857799482016,-0.208524250075458,-0.148491658717451,-0.0287772680086362,5.43486287787701,0.00121868668810802,0.000254654705557361,0.000615433983258856
1.2,0.741520843464418,2.4032250784234,2.33628355961618,-0.169391469483165,-0.0713440333745144,-0.005223021719036,0.150801680690087,-1.28425072921348,1.93004589650565,-0.035703683167825,-0.0083431028965611,0.0192254761284327,5.47068417976065,-0.000728406894075687,-0.00155511895857305,-0.000623940767605516
1.21,0.696582841505964,2.36111057383627,2.30129496990536,-0.132532877739677,-0.0464127594512901,-0.0158530903921077,0.0807656345797724,-1.329210529754,1.96487705143939,-0.13977088456743,-0.107651407752515,-0.0334235215276003,5.48186820655014,0.000575958272214978,-0.000847982277364808,0.00237377025992004
1.22,0.708012603927064,2.36776925889996,2.37296164612643,-0.1453505785891,-0.0578521203595205,-0.00931664219024039,0.150766737747675,-1.31522937478486,1.98749526912877,-0.0633390858470433,-0.0537497062536419,0.0550221338172418,5.40552080022065,-0.00102235815688593,-0.00138517253328433,-0.0021149451944176
1.23,0.7327832726782,2.36735779050287,2.38361903615073,-0.113441407319475,-0.0343274861118522,0.029068043259027,0.145848510333587,-1.30847130073647,1.92283725345255,-0.125165766493591,-0.0773297698027861,-0.0389718504492259,5.46560679228443,-0.000937440989626754,-0.0018036703383231,0.0005409265259494
1.24,0.715435208280222,2.3438985273411,2.35776739383417,-0.154693217335427,-0.0601424101586194,-0.0245676214349143,0.141980851951356,-1.37846581189518,1.96234809654087,-0.136705291728003,-0.102899055262984,0.00452288179802138,5.41298386064205,0.00155985893581442,-0.000194219185060898,0.000979362550408753
1.25,0.729216177917642,2.32758815204637,2.38815444642947,-0.146523374126467,-0.0573000894171183,0.00533773440995307,0.152891828946412,-1.33200753321021,1.93937998882021,-0.0231956486075684,-0.0322829731530448,0.0249750822394259,5.41660760732758,-0.00186847619956876,-0.00205785963951246,-0.00138552400303325
1.26,0.782075581839331,2.380922569301,2.44859662026991,-0.0578283890771234,0.01380989796837,0.058815537023144,0.226550622389502,-1.27938256109689,1.98326415105204,-0.125923261863432,-0.0692143035138937,0.0108848911637554,5.42817715622399,-0.00368034179142629,-0.00422969174182557,-0.00313226624263565
1.27,0.744828643747308,2.32604970037569,2.41590590734475,-0.157104486538022,-0.0588779647974922,-0.00605339249291004,0.187211536708214,-1.45598253885742,1.94340263645197,-0.248575577525367,-0.201840400616689,-0.0745415662922741,5.36287463670327,0.00476889170543563,0.00232275664737136,0.00385203707983843
1.28,0.708381484447738,2.23531090825023,2.36256793041082,-0.228004621609231,-0.138806898649479,-0.0642858143355784,0.101262177038602,-1.42262311427415,1.86768179708339,0.0694841843612548,0.0410390736737597,0.0549372767343639,5.44692262514941,0.000376600789758606,-0.00105583520120355,0.000448459124041634
1.29,0.658190708511724,2.212351370693,2.35487650229174,-0.122257079533906,-0.0563162902497529,-0.0276175551676382,0.0474881305652859,-1.45264020909935,2.01166020178318,-0.117706740747644,-0.11477316452429,-0.0329255914282139,5.37261490506709,0.000216988974905804,-0.0012567175396072,0.00288609402649646
1.3,0.684812070858066,2.22578847107472,2.48490431067089,-0.16178776434727,-0.085007703089832,-0.0297142825046719,0.149354807236703,-1.46007530446595,1.88800655348692,-0.0957078727051991,-0.0900923757774478,0.0491028657912218,5.34980029891069,0.00133388251183001,6.24986853417905e-05,-0.000899201076961635
1.31,0.716664608991968,2.22469136309039,2.4131519947131,-0.15207720598613,-0.0720585966114562,0.00555593733577922,0.136401086663819,-1.43802653311818,1.88874989533734,-0.0460918509834257,-0.0417539308215768,-0.0295441652888947,5.39530645219511,-0.000446087574603537,-0.00167683065263577,0.00116250027559941
1.32,0.703532675076657,2.21034134100637,2.4280284476449,-0.141945863070914,-0.0640600720810074,-0.0345641821203225,0.13752994709234,-1.48659757891854,1.92046135375435,-0.127650217305917,-0.114353893082205,0.00641329888999282,5.35867866673464,0.00136181835971933,-0.000453810766811165,0.00135025116398879
1.33,0.771567833311773,2.25312954554757,2.50995226486739,-0.11414248070642,-0.0325513788564349,0.0387743329638664,0.249552333158621,-1.39498887849229,1.93620807331001,-0.00228866520000326,-0.0185856050631833,0.0612401466800219,5.3144925254062,-0.00368766713423181,-0.00368710912331233,-0.00465040538403698
1.34,0.788360501086721,2.25207137480036,2.50484294017533,-0.0830044158368977,-0.0153746505819512,0.0436819642822601,0.238883637907692,-1.46411063710744,1.86755211591283,-0.224320971804018,-0.161207859782109,-0.0830410408113808,5.37581343806432,0.000757334096120932,-0.000713317682142548,0.00193827878564692
1.35,0.779648802922949,2.21419239908177,2.4731290734477,-0.180096489225645,-0.0800636797191769,-0.0232621402958315,0.249814269892936,-1.51660883564542,1.92879072822696,-0.0538066951396605,-0.0450160733343381,0.0513012333234059,5.28143658855736,0.00111267822195721,-0.000785608965154522,-0.00131119699221647
1.36,0.780004704063672,2.18133719462899,2.49437837183669,-0.116719273284956,-0.0358601108052725,0.027929861297823,0.194378467678008,-1.44059146666755,1.85980867638886,-0.0384164069585929,-0.0595813497728397,-0.021165943599855,5.36267602893858,-0.00232841522350346,-0.00276632740691954,-0.000264869111701485
1.37,0.694344351000733,2.1246600227718,2.4469068797023,-0.173720927725396,-0.105741216166984,-0.0632576278294906,0.134395563969331,-1.63118683279569,1.85880480836225,-0.231956522621807,-0.186433716918903,-0.0512453959034163,5.34075728614982,0.00645416957482743,0.00246632302926707,0.0054303444067946
1.38,0.769683303116754,2.14984803452339,2.52462550985715,-0.164892624714635,-0.0738732268061586,0.00550992868084528,0.23319999176204,-1.4406495203169,1.95257602785331,0.195252236145597,0.090557437837135,0.141805142147096,5.23587467882296,-0.00590521688747903,-0.00534795461606249,-0.00691162910415629
1.39,0.770602014136062,2.16606767012347,2.56097362780721,-0.0212396615922967,0.0052177230706503,0.061339364030775,0.200289100856921,-1.5076984260179,1.80544626249385,-0.331600827936842,-0.235816025835862,-0.145915230361205,5.42236480585202,0.00111249677003441,-0.000637911718420827,0.00411394358542713
1.4,0.740292544549488,2.1158078816165,2.49116602091758,-0.254448670274203,-0.145273254263109,-0.0785981867170293,0.249965851631558,-1.69099204364825,1.9938456376813,-0.0719821802239917,-0.059004598915189,0.072104504051685,5.18804182720496,0.00603517643934237,0.00142095955613319,0.000313534288101535
1.41,0.735559917688447,2.0184243018674,2.50926936831536,-0.174733612550778,-0.0882683538634746,-0.0117756802254661,0.105909952394563,-1.51302483777487,1.82026379781689,0.123561765188024,-0.0166400790361384,-0.0254804867718235,5.33228239111994,-0.00304939438605324,-0.00250971669264493,0.00176939705923758
1.42,0.735013142452302,2.10695175757577,2.57114724415148,-0.055030324679097,-0.0341693041946829,-0.00682656654176255,0.218788328351858,-1.55716389317708,1.91521514891432,-0.211426816062294,-0.132767027222694,0.0395841370582764,5.26471198644649,-0.000334040530430843,-0.00157356508299904,-0.00148221828543528
1.43,0.813216293334889,2.13067184523897,2.63046872076514,-0.151329640270026,-0.0434147660491368,0.0527338415711463,0.32907487023228,-1.60769643509303,1.87075341539418,-0.0686119449357211,-0.0687313112045959,0.00200253161289378,5.18536051986392,0.000491329891892757,-0.00177221526108096,-0.00256390472374801
1.44,0.815174767963573,2.06744534544723,2.55001836350714,-0.127844465480997,-0.0512107642606991,0.00659913913956415,0.259439808807806,-1.56907509844303,1.7586731273043,-0.0640310643882874,-0.101129234478381,-0.0484201369707249,5.33026167033175,-0.000525893036167002,-0.0010229355524294,0.00200349178195764
1.45,0.803966264187638,2.08130197070173,2.55787253309217,-0.117321950239275,-0.0562781315526471,-0.00417488840169193,0.285488171650495,-1.60783475440418,1.90998346729466,-0.0989239282765372,-0.0636922596114584,0.0559431821801143,5.20173013537509,-0.000145202269766974,-0.00187980007864124,-0.0024195999000606
1.46,0.793115540849453,2.03543704748544,2.60244437301312,-0.150901134526876,-0.059828545083118,0.0179139551347443,0.249271554052957,-1.64797339369596,1.76718165864399,-0.097628162189882,-0.117191527201784,-0.0541746254099597,5.26729357537286,0.00173415428804705,-0.000566877537879784,0.00172300111608236
1.47,0.807127964358874,2.03781207052178,2.57557702524348,-0.128415618076189,-0.0610805759749848,-0.0046645198744614,0.28924760409216,-1.59741291077682,1.86028255780658,-0.00473235559436833,-0.043499242888233,0.0527489026496432,5.21486504401451,-0.00195046362463654,-0.00231804147543773,-0.00224765413075777
1.48,0.769677898958802,1.98888486852795,2.58585271654791,-0.139400431306305,-0.0787213965872343,-0.00763176607807477,0.2164205419637,-1.70958542142018,1.76221322575198,-0.191940037257988,-0.155319695901474,-0.0718344194815882,5.26618398982966,0.00404623199777087,0.000692676532359492,0.00376439748525308
1.49,0.79800896544428,1.99414203977263,2.59810968862123,-0.167967213899357,-0.0804824884765831,-0.0146598788277049,0.285270736599369,-1.63674519842624,1.86434405211174,0.0866506255457489,0.0059703430299943,0.0949221776056703,5.17217515025932,-0.00215224749100357,-0.00303233780878361,-0.00378705200427872
1.5,0.813786851283634,1.99785688952505,2.64454272832153,-0.0633353942397327,-0.021440191075843,0.0498911395938294,0.272911678912586,-1.62254188420394,1.77184425522575,-0.167520991937872,-0.149009162183501,-0.071810333708523,5.26797297692349,-0.000571530946323185,-0.00173266328684872,0.00109001210089772
1.51,0.796844126351094,1.97674995421502,2.61484083415355,-0.181185055206189,-0.0990546126223187,-0.0341427772155841,0.315489346225769,-1.77909590187158,1.85203912827903,-0.119016853873735,-0.107321155946522,0.0197720447451851,5.13889612495469,0.00422709730007799,0.000729946311564309,0.000678063793510332
1.52,0.821907358258025,1.91980182530104,2.6297278309631,-0.155019850229918,-0.073576131976582,0.008729949731282,0.255855244574332,-1.63574376250351,1.74843440756741,0.0862186524874519,-0.0116457572146441,0.017418091113988,5.23083279473208,-0.00256237472893029,-0.00301526494646984,-0.0012260894539926
1.53,0.831627830333011,1.98773267950754,2.66591269802011,-0.0458206584426064,-0.0098201822091122,0.0391639444723761,0.330795201520472,-1.65140019295721,1.84629933823248,-0.166828208935437,-0.133509499419275,-0.000845417188226692,5.18899624702206,-0.00136444389389414,-0.00263021038198433,-0.0017443700070211
1.54,0.826537024108753,1.93839449209226,2.6762843236887,-0.177746878411507,-0.0889809556514418,-0.0016815081334776,0.352444133072981,-1.8245246336802,1.79138690552715,-0.144137264636514,-0.144664102376717,-0.0370495330458216,5.12319514383036,0.00492022978090546,0.00141688277386759,0.00183593453701747
1.55,0.855609717510463,1.88444525657445,2.64537001283261,-0.152859826550815,-0.0795862380617504,-0.00224820659862059,0.296269982827952,-1.65327075080363,1.743171455499,0.123345147847529,0.0268157172970887,0.0524438320774943,5.20004554687047,-0.00348299053375313,-0.00368048691289877,-0.0023580777504726
1.56,0.79093227312013,1.88689323967034,2.63823775279599,-0.0864167056408094,-0.0508984827034711,-0.0016237588836459,0.254206431012166,-1.78122555179943,1.76975716532419,-0.249575314950801,-0.206946812913697,-0.0708810474946099,5.19994325478121,0.00346406211148621,0.000395772962540649,0.00343577045239822
1.57,0.830103760123346,1.88562393254779,2.69947319000616,-0.190194019407569,-0.101176652921721,-0.0110039698668498,0.365644375572231,-1.78287219981765,1.80915436977622,0.0666301643401046,-0.00535281149840906,0.0907893985158092,5.08156843405278,5.52568624824517e-05,-0.00177423473848347,-0.00377936706727752
1.58,0.883219462810408,1.88562022020042,2.7151407188929,-0.0508403630891818,-0.00478554707811053,0.0720587605109305,0.330873667103586,-1.64137731817269,1.73091206393879,-0.0562440011379537,-0.0843020140352687,-0.0516852865481694,5.21732640569268,-0.00364295446896513,-0.00432427665482572,-0.000893382374852913
1.59,0.823431351637206,1.87190799065786,2.68288404892332,-0.147671016484062,-0.0835934242002405,-0.0317081472273327,0.369633395777256,-1.9061843067004,1.8149496744168,-0.24659702603294,-0.221179804329765,-0.0290595434045304,5.06839151420944,0.00665422450527367,0.00261932404798756,0.00288272413037809
1.6,0.83242870212838,1.75926404285378,2.67376294871603,-0.23160783666005,-0.149434791991411,-0.0374009391036348,0.275900486712115,-1.80125150752456,1.64744118659324,0.162353986586651,0.0428609974709877,0.0439570654780489,5.22148060222391,0.000212774323603998,-0.00161182800948581,-0.000318649244070106
1.61,0.800407900044757,1.78727593868045,2.65028318861058,-0.0671532834693986,-0.0396493299045078,0.000691260241225143,0.245532752808121,-1.76407799465953,1.87145599052441,-0.0927293859133553,-0.123526597784093,-0.0222442542354895,5.10844085003651,-0.00133442007685825,-0.00270610401783202,0.00102215974125186
1.62,0.828932124343459,1.81903464124171,2.81036091729957,-0.138527977698216,-0.0770503989320749,0.00303368161575708,0.395721642427917,-1.88379273090776,1.72005737721785,-0.13018103450284,-0.140450782353968,0.032213443458035,5.04764011246591,0.00315203821290282,0.000480632887637924,-0.00167192038372473
1.63,0.850039685046706,1.73705756554426,2.67663104312534,-0.181962902593709,-0.110442725165223,-0.00468870959543812,0.308568394375414,-1.84830152569926,1.62946011506441,0.0304625858982173,-0.0424624181002505,-0.0479921546823454,5.19981247803057,0.00139347008151168,-0.000949028355066956,0.0024801196099409
1.64,0.835083767690955,1.75385222798674,2.68679919052796,-0.104741998963875,-0.0612857400205498,-0.0218879297106965,0.316541338486387,-1.81815412212217,1.81480191342411,-0.0310023827623209,-0.085920652986711,0.0508249223502453,5.07006012800698,-0.000901414826209734,-0.00236878576018512,-0.00137739879425934
1.65,0.813421608196507,1.72274271556617,2.76083329689504,-0.153911210581884,-0.102259616034158,-0.00701816040732219,0.330001404596948,-1.94152850667784,1.63852197743625,-0.142511933993681,-0.163848156995401,-0.0516365986743363,5.12299187171414,0.00490579283164902,0.00144924516385857,0.00276761758437007
1.66,0.870569608103896,1.72085716071229,2.72205181131927,-0.152863382415165,-0.0913141818359061,-0.00601891595062621,0.366368339555987,-1.82419499989842,1.74684240467326,0.128256242281124,0.0262411837289983,0.0747525673179451,5.06223275755371,-0.00258079921474141,-0.00362193370350551,-0.00325267350631735
1.67,0.846839112983213,1.7106935184369,2.75682840441183,-0.0772627619748201,-0.0467062748335154,0.017835340510824,0.328984902900458,-1.89021886385808,1.65018404977126,-0.200127079487367,-0.200264031147551,-0.0809756288754653,5.13818961126741,0.00260943292303608,-0.000129471945633447,0.00297991441189631
1.68,0.87049640641804,1.71159175665802,2.75970733322537,-0.179380436887882,-0.110415229351855,-0.0201846536823114,0.440098241047166,-1.9491541107321,1.7535752206011,0.0309020787304476,-0.0355727870619049,0.0765332016946973,5.00137962153872,0.00155466313551136,-0.000852169589874166,-0.0026784984898195
1.69,0.909910465247636,1.6733698948654,2.78334505178923,-0.0892611561747709,-0.0421601422552277,0.0448903376056179,0.363745700221929,-1.81903681869478,1.63152003754929,-0.00680317398475414,-0.0716165350210257,-0.0447764262534475,5.12132133333543,-0.00199898458776879,-0.00327359378937218,1.35814056793872e-06
1.7,0.865404091074087,1.68880470806133,2.76141133031159,-0.12269289054227,-0.0769274482952635,-0.0208193911994865,0.424553773950425,-1.99408322277634,1.71545905294305,-0.167713380951623,-0.179326146797287,-0.00293678033116846,5.02294216983311,0.00425948422180563,0.00104608673641262,0.00111340010824977
1.71,0.900420953148676,1.62409747805132,2.78345922041295,-0.178481158186041,-0.111782916613398,-0.000224808563987383,0.40401779203755,-1.93236518593235,1.6230258613653,0.0941469055443643,-0.00550800378696005,0.0278399641496847,5.07396982213023,0.000134506402611769,-0.00175013181859964,-0.00131846880921632
1.72,0.881247067526639,1.62081558845342,2.75628036451267,-0.0852721922896157,-0.0534617264354094,0.00565506694153822,0.354942728112259,-1.91006012378896,1.68406733050544,-0.0809674430046126,-0.124242837078059,-0.0332409280504448,5.071602511488,0.000192230950144286,-0.0018579892044589,0.0012902134422847
1.73,0.865735132782848,1.61544523922461,2.8076995443448,-0.156629033184886,-0.103964079439838,-0.0221222282158811,0.429688058419161,-2.03714120152862,1.665090172112,-0.0812142086067094,-0.128416278009213,0.0211566249038265,5.00738703458703,0.00402900801418076,0.000763406828966805,3.13374424902984e-05
1.74,0.92669966034417,1.58881340833916,2.80809345973935,-0.128519333829498,-0.0759741256678551,0.0266121766692001,0.419967173984167,-1.89750645954505,1.63251344881204,0.101513909635813,-0.0055773661054205,0.0186006716462608,5.03915450595033,-0.00242994307314477,-0.00344573942711974,-0.00214119856192461
1.75,0.9010755562457,1.60277668541334,2.80795397571226,-0.075539953794323,-0.0488444740907533,0.010204627302847,0.424375707207825,-1.99358697562752,1.63451984197753,-0.177963698132851,-0.185245119350263,-0.0450215385096853,5.04368637259236,0.00259368645352354,-0.000259916210189533,0.00163468492714303
1.76,0.882084446680584,1.53231649506102,2.7863586651354,-0.209654155840914,-0.145123892280128,-0.0428496183022508,0.434055421331226,-2.10652270543657,1.62948666631093,0.0035603470504961,-0.0769821838147836,0.0165261423699213,5.03883106330974,0.00502950313388512,0.000955027286894979,0.0012380489791004
1.77,0.945365779649161,1.53418968572102,2.82777175114972,-0.0870461804115295,-0.0491619452218929,0.0333429184592495,0.419314461089198,-1.85920025490189,1.71016423668566,0.150323013364239,0.00788049623418159,0.0509413272545396,4.97143498570839,-0.00550202494634678,-0.00551204119363046,-0.00396720828588615
1.78,0.887074663681068,1.55258517882041,2.865919916195,-0.0757639639557382,-0.0668585576449098,0.0046304313451007,0.446736446044141,-2.11402249959675,1.55233431811491,-0.317920885049649,-0.28306109004329,-0.100991932100685,5.03239745766094,0.00696393717519369,0.0027158471684918,0.00456287791125129
1.79,0.930970545071016,1.48209260323882,2.79829146919761,-0.235541804625131,-0.162243166436679,-0.0398975733121946,0.4814972746806,-2.09293461631772,1.64492346334428,0.200241324231102,0.0681268132332699,0.102239230263009,5.00515452572153,0.0013147049153925,-0.00173498489579701,-0.00295824486184973
1.8,0.917878933823526,1.44760296260702,2.81686568884046,-0.0536787356750662,-0.0363111803575981,0.0271920844461349,0.352780570044503,-1.94322414637387,1.65789134297369,-0.0379466965108924,-0.132055708247644,-0.0762121067570376,5.02189563617175,-0.0017107822021443,-0.0029722518304316,0.00229912139161101
1.81,0.888227445691782,1.50001249887185,2.8972223590871,-0.13984585659709,-0.110721611591425,-0.0366822292815479,0.515971302828811,-2.17495303294981,1.63151125421212,-0.154668701341517,-0.173347432037423,0.0435129632553156,4.90851908374076,0.00601319212844042,0.00212534246869054,-0.000329090241055434
1.82,0.963759835635372,1.41716132138715,2.8478377776921,-0.174087202491959,-0.11119985046116,0.0195854831725279,0.445535136706434,-2.026516506394,1.51546796575778,0.175345147742683,0.0306560377803214,-0.000976769680212793,5.0394230536846,-0.00114336091660331,-0.00296817658920798,-0.000891928033722781
1.83,0.951379782800755,1.47425151875272,2.85277281154493,-0.0283519801492509,-0.0194431485861899,0.0223569583595031,0.477931733090356,-2.00364147348022,1.66172401304496,-0.104980815323843,-0.153364192807997,-0.00243029983079547,4.96652115496292,-0.00101245606120036,-0.00263134255568545,-0.00095016530191763
1.84,0.937713711017777,1.43900600772081,2.90409243613506,-0.167061002274488,-0.120528865464405,-0.00867018250877569,0.560262031051552,-2.23994288903525,1.59594098713762,-0.122426640854563,-0.16389210751576,-0.0260730430019149,4.90635268564573,0.00696835315113137,0.00255804035917132,0.00164905482364871
1.85,0.98885643568392,1.34972953861962,2.85288111786282,-0.161415585361959,-0.114337236769997,-0.0102723680933407,0.449339823203738,-2.0291198438755,1.51813531457481,0.211287284831131,0.0488563580307632,0.0397863499742478,5.01313830226756,-0.00236701938615681,-0.00358111829662922,-0.00140648916122678
1.86,0.935474768893517,1.40605549288047,2.86610246897604,-0.0373612444416238,-0.0380151940013149,0.0148769057217269,0.463600832268885,-2.08826166547103,1.60700900959134,-0.173083341504744,-0.197422373198493,-0.0335381334524666,4.96326552757113,0.00170665510466847,-0.000970230649090889,0.000860425667294402
1.87,0.949227856264383,1.37680640785276,2.91434300211377,-0.187867794641513,-0.134499341457278,-0.0167355369507207,0.57220404713287,-2.25200072481148,1.5878436107828,-0.00678745398543118,-0.0928063287909068,0.017829368140301,4.89337124621995,0.00522057518341809,0.00127249896420043,-5.66709925223278e-05
1.88,0.968348639411559,1.2722633220997,2.85133323576728,-0.144978463449728,-0.113718755193478,-0.0196385596076921,0.413639776256678,-2.08503937318604,1.48656810094056,0.120511328779891,-0.0282038545173701,-0.020309703625868,5.02451649522723,-0.000338554610330339,-0.00212340810934223,0.00186829235947307
1.89,0.934310715926542,1.3479880865799,2.89071678039215,-0.0729798193515804,-0.0693178379782714,-0.0101132543180398,0.496187248316646,-2.14350952568532,1.61333983720701,-0.0872814694899246,-0.142804777453725,0.0375693533312858,4.89288512220685,0.00155133397918571,-0.000992917578232467,-0.00132511151058246
1.9,0.999851426078244,1.34648704683145,2.96773053418872,-0.125561723734091,-0.0842282716897782,0.0410205761569215,0.599215922407581,-2.18695509499517,1.51459508004233,0.017234003583747,-0.0753032072214131,-0.00468138549867578,4.88261699845982,0.00146244393180547,-0.00104677204752134,-0.00173398931946985
1.91,0.991428655508493,1.26297153990836,2.86833384586949,-0.128062049502953,-0.102818200941241,-0.0191435076800732,0.506075292873583,-2.20086327637587,1.4519678715552,-0.0247018964672282,-0.113028112292225,-0.0502973563687039,5.00186215244177,0.00315916104732861,-8.02936029766129e-05,0.0032664678121413
1.92,0.952422487741703,1.23832279175588,2.85945737301701,-0.152979514971507,-0.129068051071131,-0.0483908875028428,0.497477585326991,-2.23319952034161,1.56392539376085,0.0351650574833493,-0.0817144167974735,0.0484754926425613,4.92140399168698,0.00304528676504049,-0.000176038342797125,-2.37512175024303e-05
1.93,1.01250480191187,1.27405230580044,2.97105245716245,-0.0749771613177495,-0.059109255587731,0.0472796252197367,0.557010048669173,-2.10096645303308,1.5399857118403,0.0815153584373442,-0.0416291246716677,0.0246052042556346,4.86375737067821,-0.00253092407664759,-0.00374442764112783,-0.00340866495944443
1.94,1.02627918274995,1.297519675705,2.97202327947329,-0.0632062740968124,-0.0532567270995491,0.034437366817918,0.632275779384916,-2.24382921799676,1.47565305898229,-0.151533798576869,-0.186077580986885,-0.0539511998320752,4.88608950565388,0.00336543901110557,0.000285430062124282,0.000910927360563896
