time,x,y,z,roll,pitch,yaw,xdot,ydot,zdot,p,q,r,thrust,roll angle,pitch angle,yaw angle
0,3.01841953230695,3.01841953230695,0.0184195323069548,0.0184195323069548,0.0184195323069548,0.0184195323069548,0.0184195323069548,0.0184195323069548,0.0184195323069548,0.0184195323069548,0.0184195323069548,0.0184195323069548,9.02033008364953,-0.0071766993874146,0.00451425818430713,-0.00181765094948105
0.01,1.8193717654818,1.8193717654818,0.0193717654817975,0.018848233645646,0.0184247263495653,0.0179101251625759,-0.0610306693287833,0.097527111843574,4.16657128061927,-0.282478817466639,0.185393517832404,-0.0288230979069524,5.81112726361335,3.82637743470623e-05,-0.000407061449139299,0.000462035561207753
0.02,1.97378024822393,2.03782372962955,1.69330208214238,-0.113204998581037,0.0767496930522552,-0.0108112749980635,-0.0214242599885908,0.0257429471536245,0.958720510311645,0.00131125648612619,-0.0106618002391456,0.0110495954598375,7.10690974092177,-0.000108325984706027,0.00155761976623247,-1.20445329764384e-05
0.03,1.99467713498092,2.01401143322935,0.421083390569381,0.00545066450078472,0.00344968606414285,0.0110465244589142,-0.179738952778771,-0.251837661916603,2.30352202652315,-0.00170172343665043,0.0676581491797243,0.0050170046208448,6.98279870256302,-0.00416830097438383,0.0021603610484609,-0.000784390287411693
0.04,1.90646543346093,1.87679392834389,0.989623680386277,-0.0155639534172835,0.0152764339037144,-0.012926230576787,-0.0460355880852378,-0.020288879934565,2.15915857108666,-0.183540681290473,0.0750801652211859,-0.0280100162186327,6.70653760617214,0.000285776241945857,0.00219150582548148,0.00191587312324784
0.05,2.01512141337981,2.02596034746565,0.953099666347548,-0.0436385521881748,0.0642723662829883,0.0224195890981473,0.00698948352901546,0.014422093313822,1.93998867131744,0.0340890602268623,0.115070118883262,0.0673092688008315,6.86867234873387,-0.00424246060583283,-0.00115605083108952,-0.00425268241630874
0.06,1.99671122257688,2.0003203386864,0.852387982126136,0.0126909934763371,0.0477874231638853,0.0252571977594601,-0.147905381248393,-0.103138855646802,2.1022564315995,-0.177972925889679,-0.0395959375720426,-0.0897613481180081,6.83292007485119,-0.00109049836304719,0.00296108523198307,0.00302634736612088
0.07,1.97328159588441,1.99234324097533,0.978697808961911,-0.0391618449355231,0.0216810633185878,0.0009523854680034,-0.0664066175094372,0.0612388689778696,2.10940777076743,-0.0222735291970643,0.149161174368655,0.0919374762220357,6.74222230156758,-0.00346593311446995,-0.000316145136497109,-0.00441657754883496
0.08,1.97063638254774,2.02360458936968,0.950473293901543,-0.00736765708035139,0.0656165084715452,0.0384061728954133,-0.0668159982062898,-0.0821751752933694,2.0112903273195,-0.146726484062922,-0.0040041556960681,-0.0902187506119611,6.82003471924889,-0.00122490558142684,0.00138865080342058,0.00243433383858755
0.09,1.98641346077925,1.98115056904488,0.939800160497136,-0.0458096563915572,0.0191258338246454,-0.0188181173829698,-0.136767131386861,-0.0135070323579682,2.1214500329365,-0.0438951325240593,0.0749034000855537,0.0644241877599285,6.73509763347148,-0.00233828492096059,0.00139934731251834,-0.00217927927050065
0.1,1.90682987772829,1.95899637969988,0.955029969961893,-0.0506512057673014,0.00542162092798996,-0.00181573438977911,-0.128605232020364,-0.153372859489313,2.01308724571886,-0.127292700625415,0.0355519285517174,-0.0699974523865156,6.79979406281934,0.000801007062052844,0.00282586853752955,0.00339096092211356
0.11,1.93105146792862,1.92221789748758,0.936432561415176,-0.068377615112295,0.00434300495778658,-0.0387162015668018,-0.080882052273825,-0.147806403795808,2.1095819847856,0.0125599347487094,0.10654527024582,0.0600108405782007,6.7287882369013,-0.00189892143444396,0.00130383475056861,-0.00101583915995863
0.12,1.98945223539934,1.96349179777929,1.02293086428141,0.0228716129810148,0.0697550108609385,0.0460325897861894,-0.0227316471854077,-0.119322820290152,2.09263314728363,-0.0688324809992774,0.0772985888659052,-0.00243458660631075,6.72742998440795,-0.00460089528019608,-0.000967430672388861,-0.00208280588432415
0.13,1.96876966983987,1.92985671437325,0.996160040119822,-0.0454416229574516,0.023897195958895,-0.0156179222684368,-0.198051863878877,-0.0293527701373514,2.07869180203369,-0.207041195034582,-0.0402740656800006,-0.0551249834333461,6.71646022533774,0.00177423087609234,0.0035837709710849,0.00333462892753093
0.14,1.92639156580119,1.99715436315869,1.02183108615751,-0.0778545775710597,-0.00103915767260924,-0.00747873666732803,-0.0846763275073977,-0.103265961215134,2.10140351995104,0.0693277775088521,0.156926647672185,0.0790066792973924,6.67556164521361,-0.0035606171731832,7.49872015328329e-05,-0.00339159794978304
0.15,1.94972000441429,1.94351319635434,1.0291761791757,0.0141031349545366,0.0597271504191344,0.0214946003872714,-0.0732560333311855,-0.193370389944985,2.06779086795556,-0.164196611837977,0.00630662884774518,-0.0784516787578748,6.72287946260938,-0.00158250273516214,0.00106182372481089,0.00267396606547566
0.16,1.96106679700312,1.91261478186025,1.03406570950104,-0.0752359266915804,0.00630596911656164,-0.033191204715573,-0.171404756287265,-0.040444153593403,2.13352310787785,-0.0788862293158384,0.0505697568695326,0.0537089143571062,6.63311990148698,-0.00022745661206614,0.00213776674983194,-0.000984719765348301
0.17,1.89377313495672,1.94979967102757,1.04401140525054,-0.0662172566752968,0.00074390916025957,-0.00257613611165624,-0.127578891110059,-0.223170239260223,2.04258432749372,-0.0441577567789871,0.0690206631645493,-0.0428578975746811,6.69033673252352,-0.000714762154021266,0.00190672942682429,0.00214199280281903
0.18,1.9157744818127,1.87739650209433,1.0287757633938,-0.0496187560571667,0.010125997922854,-0.0407466346934465,-0.113186506594453,-0.21855200772349,2.11706595903788,-0.0615582090749836,0.0641338470572422,0.0248020307983221,6.64524670342669,-0.0009753716485421,0.00165842300022648,0.000740092985329794
0.19,1.96839309936379,1.92642081010944,1.11110913424217,-0.0149544500509938,0.0510142242514562,0.0284718041567024,-0.0605210832032896,-0.122877181092897,2.12421857508667,-0.0383292977261579,0.0895471686048911,0.0310427354185218,6.60621813899854,-0.00397695886652828,-0.000786040002848445,-0.00283381443245431
0.2,1.96247864497543,1.93804533590754,1.10559672965566,-0.0250254187742603,0.0416886514880149,0.00918408298752314,-0.15351995818752,-0.108798936602385,2.08513530879684,-0.177102030444644,-0.0207823375823184,-0.0612352457079446,6.63130119528324,-0.000161759830006957,0.00212724151541064,0.00244247803348139
0.21,1.90970969605764,1.93023563390795,1.08931485578577,-0.0951730186416592,-0.0163695430152031,-0.0373194977900941,-0.170360805355068,-0.148969210922058,2.11364848193563,-0.0351371611715289,0.0834229879513756,0.0386052056494109,6.59304217473743,-0.000170385131075617,0.00199155567928161,-6.81930852166801e-05
0.22,1.90478886552088,1.91541910024177,1.11416163024944,-0.0393548671066093,0.0265801984457497,0.00167960517265398,-0.0900613685300131,-0.25787442955196,2.1043020125288,-0.0352813876250268,0.0760479412699624,-0.0137754561828897,6.58696712274481,-0.0023957243973375,0.00045423562763526,0.000558503907532354
0.23,1.97196382702233,1.90292119920708,1.1573367810156,-0.0083017831531416,0.0553613158444269,0.0094670497753559,-0.0958886323288248,-0.130804806745321,2.13023487052603,-0.0993523481759376,0.0433463515925688,0.0252790919282665,6.56779626567195,-0.00298051476627792,-7.13205351854295e-05,-0.00166647616680064
0.24,1.94528072393757,1.93217537164136,1.15936528897152,-0.0519366694653193,0.0244211815813959,0.00808896295406777,-0.169395543767569,-0.119513992454604,2.11402871365482,-0.139135662833017,0.00792309175045753,-0.036512588453681,6.55020022117472,-0.000103627747361914,0.00196415781799567,0.00132711927351285
0.25,1.92827795522796,1.9508688572256,1.17618134361732,-0.0575281822169622,0.0215452156734003,-0.00367700203264343,-0.112281873345167,-0.16345485609411,2.12185045252339,-0.0137571441685402,0.0975396337946932,0.0359134567106704,6.52687981008052,-0.00288885579400825,-5.38814347648331e-05,-0.00154186662901318
0.26,1.94777490843942,1.92744234074699,1.19218782884272,-0.00996192474275103,0.0550052615548123,0.0201318214567069,-0.115120478153471,-0.179236163567786,2.11328320298917,-0.130151578723399,0.0169434297688028,-0.026792294306821,6.54477594520332,-0.00216190083163979,0.000343689411545133,0.000295360377886007
0.27,1.95391220518347,1.92800184976844,1.20897085716705,-0.050526354064344,0.0308057395437858,0.00304396343238624,-0.151736115352023,-0.111765406648044,2.15309223321114,-0.0949125126024866,0.0388831670459497,0.017733206950188,6.48260260535066,-0.00159284707907187,0.000827865542990326,-0.00100449455816135
0.28,1.92938292627667,1.94778154100587,1.22825115980726,-0.0438607577412369,0.0325023237700689,0.0145433044627372,-0.13478560721938,-0.17474286781259,2.10027414357473,-0.0786800360031876,0.0509635773529869,-0.0155217830189696,6.5068944824067,-0.00208396545814387,0.000378172295050059,2.75179378271698e-05
0.29,1.90017014073941,1.88416019556419,1.18956159681231,-0.070742493594588,0.00489957309292432,-0.0318022198358475,-0.195819095074175,-0.229117353173096,2.10985445004274,-0.126247122035686,0.00751932387593188,-0.0212864357581857,6.50408095391368,0.000871364118847133,0.00237845530192746,0.00250007537940126
0.3,1.91462085537645,1.90155261037394,1.23820377357099,-0.0577638380869593,0.0197682568189664,1.44288705928204e-05,-0.113125965397841,-0.213146509269035,2.15580894909823,0.0201196971328699,0.112220256326018,0.058525522849082,6.44340492049871,-0.00371856619939311,-0.000676751966673086,-0.00278323766285799
0.31,1.96008927671531,1.91828588733115,1.28390040859128,0.0153882599997603,0.0752483062801696,0.042238318428361,-0.105011074803542,-0.177115033490529,2.12058525381241,-0.156648152795418,0.00630674960220784,-0.0417029108155496,6.49373113954224,-0.00302946035396644,-0.000643350020203918,-3.9277044960841e-05
0.32,1.95233455689379,1.92237449727559,1.27482060051377,-0.0644582958885157,0.0276730229910004,-0.00441000935791159,-0.190800412447722,-0.112313934118001,2.18579862509109,-0.134136632756082,0.00226976711759281,0.00995915831403628,6.39370026663712,-0.00036251789594334,0.00151985221981809,-0.000282790253431853
0.33,1.85044028903317,1.88575728104312,1.25174143722044,-0.115201121542415,-0.0336279117158306,-0.0392603133139745,-0.236000136042994,-0.29860497351841,2.04238474273688,-0.0760375020696089,0.0355546493121938,-0.0443928812945355,6.49424162170018,0.0019123290413107,0.00286391221716837,0.0039591506787783
0.34,1.88368933785927,1.85728023839055,1.25333454539238,-0.0515822695897639,0.0190735792705353,-0.0213052436596759,-0.104697539590316,-0.311102206920323,2.21356885848245,0.05005063760592,0.122319881045651,0.0792370381311482,6.37106890655776,-0.00442672796468736,-0.00116473337629103,-0.00275211396414377
0.35,1.93237111600711,1.84350543335846,1.3326040797373,-0.00185218974814337,0.0522061735860436,0.02300894730055,-0.160622787112236,-0.237611902137099,2.08241149824442,-0.210533235175853,-0.0341138437145508,-0.0637674609260368,6.46004839467625,-0.000652579629030618,0.00107223327780895,0.00191260998822799
0.36,1.92053343238872,1.88818654349808,1.30188416421135,-0.0954247717320164,0.00371986143850511,-0.0187866317464598,-0.181271610264235,-0.171882685455009,2.19890768683043,-0.0467964026741081,0.0650463116867357,0.0451768426896412,6.33915234670524,-0.000957776509856971,0.000791690187267755,-0.00126394753341208
0.37,1.89159867476325,1.89655025006592,1.34238623037383,-0.0465376450458215,0.0277611895237548,0.00853381206372478,-0.159561008652933,-0.294011058956619,2.0869150123765,-0.0729279424173209,0.0375348601197531,-0.0351443780411696,6.40712633111072,-0.00202632956178228,0.000295751806421917,0.00124428934393706
0.38,1.91331136673308,1.8545604777801,1.32923375200326,-0.0476056350944752,0.0273364950693198,-0.0146753252069835,-0.167921362500263,-0.24103770496752,2.16758447943696,-0.107675404187624,0.0280911973683094,0.0260817545747033,6.35640689499147,-0.00137815580316124,0.000534480928504689,-0.000558295630198951
0.39,1.94115232847946,1.90996139306731,1.39988058042704,-0.0315847069302093,0.0535833533070687,0.0402169192267088,-0.119399148707783,-0.192872220099998,2.15867602682349,-0.0575392714908751,0.0610234202294939,0.0133803765019112,6.33201515586417,-0.00385087498365359,-0.00147276949523165,-0.00254728963358772
0.4,1.94050101186647,1.90874851301996,1.39472604095678,-0.0261084481454481,0.0527150948887457,0.0191541436846394,-0.169225611415405,-0.208423628363302,2.13708893076694,-0.170628561791636,-0.0278663417403208,-0.0411239998669651,6.35247766800222,-0.00129881502416406,0.000674428401781918,0.00102414657419752
0.41,1.9080245722226,1.89126983552508,1.39005390224979,-0.0835137593495674,0.00647861404924192,-0.0111900560561056,-0.19461474503736,-0.224770984259627,2.16145365535037,-0.0772872928359515,0.0477802722144407,0.0252173007109588,6.29789634063508,-0.000899651218818723,0.000752054075638771,-0.000680821028652503
0.42,1.87312647128333,1.85988889064616,1.38872473231733,-0.0694291380794144,0.014116239148206,-0.0070372298780521,-0.194363873464865,-0.316778928613382,2.10574293444117,-0.0804258962201759,0.0299871915109712,-0.0296781389026521,6.33487618345773,-0.000921657666279443,0.000668812592071467,0.00172422635842719
0.43,1.8944100496626,1.83946688375347,1.39801892875159,-0.0548205692795034,0.0235477807624872,-0.0132961974157603,-0.175356282547225,-0.287804975459463,2.16759002038806,-0.067724022981535,0.0417406118520177,0.0349031536070578,6.28963519803307,-0.00214570785192793,-4.63282028364975e-06,-0.00103801812415381
0.44,1.90352972794209,1.85322007333992,1.43843390573993,-0.0459690728863047,0.0321659828153341,0.0161116431269933,-0.17790293856072,-0.27216913333396,2.13720285537523,-0.115215998777743,0.0178640807246845,-0.0201345165249375,6.29211278702175,-0.00157795776441258,0.000152367435173806,0.000176234799976957
0.45,1.88572175778938,1.8433907276572,1.42453436451155,-0.0791061567996735,0.00985852134546898,-0.0188374114809925,-0.209130877949147,-0.293949309952628,2.14063467778687,-0.103536319848736,0.0144012152826352,-0.0056357250912583,6.27437454868683,-0.000223957143160697,0.00107601070829646,0.00114402083719918
0.46,1.87789951331703,1.83963564766855,1.44290760672123,-0.0708625980378151,0.0125325263008411,-0.00818736598583206,-0.188349128509622,-0.318874736471055,2.1453109818284,-0.045644608701072,0.0531551858923714,0.0185039481630729,6.25815204860344,-0.00201089562735985,-3.19736929186731e-05,-0.000501682584167868
0.47,1.90128339188546,1.84192522172881,1.47456518902094,-0.0336763539888444,0.04252729819246,0.0145258846832776,-0.167111030614517,-0.295287562224952,2.15322903970344,-0.106988410497374,0.0219137505635186,-0.0044222965550576,6.25517277113837,-0.00244698753535984,-0.000600685596912805,-0.000487907989554259
0.48,1.93119859166088,1.87296206510465,1.51113381805128,-0.0372715541254542,0.0521330860272753,0.0261738929700088,-0.154672381076395,-0.237760973862893,2.17970585888332,-0.107168267845975,0.0179657742157698,0.0138427622394293,6.2150452113038,-0.00277539696441866,-0.000904054447324289,-0.00190193992019579
0.49,1.84725387305258,1.80945356289844,1.4564028366101,-0.113882544917196,-0.0254868154724753,-0.0411788747285599,-0.292379919283935,-0.37074878709299,2.08520470316207,-0.184670936209779,-0.0569118855085131,-0.0797013643953404,6.26708680741525,0.00388795989354737,0.00359051619707247,0.0057233749954604
0.5,1.82699536135531,1.79063023991282,1.46027745433859,-0.118567671212022,-0.0330015938775907,-0.0506284373582998,-0.20025511468365,-0.39692185940304,2.19234246587906,0.105232281684565,0.142801802820863,0.103549195308223,6.17811637011993,-0.00319699420545466,-0.000746358601957447,-0.00251082309726763
0.51,1.90973314296576,1.81898645934114,1.55957523517952,0.039482383108109,0.0902075510634929,0.0611247687083988,-0.126512278829896,-0.33054532506025,2.15788909807592,-0.149476920737364,0.00948311948909408,-0.0356008951518048,6.25549558276179,-0.0047136368470917,-0.00295946618709551,-0.00117468497060267
0.52,1.9225603202474,1.82742785158169,1.54774228583057,-0.0752137674981057,0.0299010708010313,-0.00707512939246516,-0.228147252809699,-0.254340790111379,2.23640211040961,-0.216475142341584,-0.0866531938875031,-0.0160582816863658,6.1071629226738,0.0015228250184779,0.00236622285732159,0.00108669838961247
0.53,1.85889919279582,1.84686690290499,1.56863818266878,-0.118876191299202,-0.0263172305574707,-0.0102592920159386,-0.21469140513194,-0.346342216507358,2.06762459663134,0.0215650919975633,0.104737385297165,0.0182140682956856,6.20107007963709,-0.00185082088169032,-5.915776431518e-05,-0.000386459698967521
0.54,1.88160047886472,1.81890995086456,1.53708972846815,-0.0106097405690821,0.0640280839496066,0.0143954805081126,-0.161933723918418,-0.370934723146504,2.20455880773839,-0.104677117340451,0.021464682543325,-0.00196999022304567,6.16878849838634,-0.00367610337646165,-0.0021115483601307,-0.000576318942897945
0.55,1.87377105459751,1.77448165201993,1.57592346207246,-0.0882413657029214,0.00466729229825489,-0.0212284228136536,-0.259975172544781,-0.355356151381679,2.1423630023147,-0.201064858508765,-0.0798434750723747,-0.0280760857961454,6.13555158044004,0.00234885852782076,0.00285705355075035,0.00232865099484869
0.56,1.83087106443365,1.7861846580627,1.5593125859525,-0.128323396219887,-0.0379377369012576,-0.0289926104399279,-0.232472622139634,-0.403073355307896,2.12263290552159,0.0413147969048751,0.113054752475156,0.0328463538742715,6.14725058593837,-0.00162233714243564,-0.000121193328911014,-0.000190056190759367
0.57,1.87128941973732,1.78955389999376,1.59412752810818,-0.00601240995903975,0.0657366621476698,0.0186899214568594,-0.167042782685448,-0.397078593697317,2.19191862544443,-0.0986803073418587,0.0180004810907322,0.000959984608679458,6.13521221620283,-0.00404149944179712,-0.00236812585333128,-0.000910792301523962
0.58,1.92059771388341,1.81075313722514,1.65782381411273,-0.0399691322053416,0.0508569118320984,0.0264159397321376,-0.180719383079826,-0.301604712963217,2.18819219877792,-0.177846815950699,-0.0508567380416338,0.00457138276650149,6.08018576836747,-0.00123874959306076,0.000248894558688228,-0.00146726589868794
0.59,1.89097555820103,1.83444457330265,1.64959659566912,-0.0873359549398941,0.00853300825171004,0.0156463353916595,-0.201337865537756,-0.342059981817731,2.12716881639724,-0.0772844100553013,0.0374482373024499,-0.0196820919868621,6.09394349907043,-0.00143958912614412,-0.000151302705482455,0.000180229129346403
0.6,1.8573446258351,1.78949864117231,1.6179498408692,-0.071505181727698,0.0202404854158309,-0.0178572423019702,-0.226647155708624,-0.410427474817781,2.13613671302768,-0.105700947960324,0.00328524314990535,-0.00468307594074894,6.1026320001034,-0.00100988037916149,-0.000168284626069687,0.00106078018664505
0.61,1.87996431212739,1.78989272917793,1.66225531400855,-0.057058746725935,0.0329507835678175,0.0140937445803235,-0.190507510568683,-0.367314042103606,2.17612978959762,-0.0670031900592761,0.023901958120761,0.0361298351492703,6.0560401961533,-0.0029810352978198,-0.00119613267675711,-0.00237645951932446
0.62,1.86582915791538,1.77905922666697,1.66887655732815,-0.0630952196348064,0.0194063345682457,0.00882501921829375,-0.232115837542379,-0.402413344046079,2.11939681583442,-0.165853384144846,-0.0346676242658318,-0.054806595880502,6.08421081848978,-6.39063607971066e-05,0.000727992980576416,0.00217149687296645
0.63,1.83957807121481,1.75582712837405,1.64930596434449,-0.112822035009144,-0.0133006634587743,-0.0354973649425549,-0.245680941324671,-0.428193087593857,2.15117490656247,-0.0561486751927241,0.0357668965648526,0.0339705673552087,6.04075268023796,-0.000349340128777956,0.00023259975222308,6.31185924278671e-05
0.64,1.84034489213446,1.74997523931141,1.67892747685973,-0.0640812830986592,0.0208623382247556,0.00531088557237119,-0.226846091972029,-0.444874368002399,2.13959718032732,-0.0630999701154928,0.0176068600537599,-0.0059757112739442,6.04943784147576,-0.00243379806159971,-0.000877320594195745,3.21137111467585e-05
0.65,1.84355851437762,1.733999434451,1.68840223463958,-0.0705615901001101,0.0106326011998442,-0.0146806725799892,-0.242806103633178,-0.442443846008258,2.14022877858768,-0.150408108893061,-0.0271564577703404,-0.00928722955133835,6.03657754654048,-8.52215340835632e-06,0.000655674643821642,0.00112952512479045
0.66,1.84305178603187,1.7443735074098,1.70530008818175,-0.098669472088426,3.1723480687619e-05,-0.00770291582669844,-0.228887378253642,-0.437877006323373,2.14649243898228,-0.0463678076492698,0.0386545388577781,0.0204457835230813,6.00374878350901,-0.00144861860825261,-0.00052915323150936,-0.00060823603188316
0.67,1.86302441519937,1.75899479132101,1.734897133785,-0.042555179940011,0.041222075003457,0.01830327305929,-0.202100111935853,-0.428001040335771,2.14570011446076,-0.0930811102364888,0.00421988694378747,-0.00409762570885211,6.02059213097851,-0.00304786473593596,-0.00155510739948757,-0.000659062003482291
0.68,1.83708268280008,1.72287019135075,1.71974286429574,-0.0928362774570537,-0.00323619863703214,-0.0228517387907342,-0.266438373096698,-0.473631519165855,2.13526409528212,-0.18416807097934,-0.0606971598155499,-0.0310394043036862,5.99535378639847,0.00185694325087836,0.00180927825782923,0.00254776224740499
0.69,1.84116212579786,1.73844712677479,1.75237926102546,-0.103240925913712,-0.00339576708565032,-0.00557340434087349,-0.213028717822276,-0.446871801449387,2.15308913495386,0.0363872229495552,0.0926765197185101,0.059453476496364,5.95654707012548,-0.00345952063442308,-0.00194172687746689,-0.00254921723810591
0.7,1.87657452903492,1.75778386171427,1.78911510667614,0.000875075470940741,0.0726825797062619,0.0442731243878531,-0.188058189941555,-0.430699208318247,2.14157434889484,-0.168567457476043,-0.0407944750288608,-0.0362086467472369,6.0263750062279,-0.00332363824523137,-0.0021423302780056,-0.000334184013229917
0.71,1.86305915604035,1.73881904971367,1.78014707107546,-0.102312174193319,0.00214231685958809,-0.013933087917039,-0.241299569322859,-0.450063512006698,2.20368602694711,-0.178434248902661,-0.0634066158419552,-0.00510796158855384,5.89259478217226,0.00157504807326595,0.00169817875016941,0.000899279949759462
0.72,1.85095006845075,1.74744814023454,1.82298832020448,-0.0963402246432813,0.00257573387505343,0.0113182163468275,-0.211078188422748,-0.448218181206292,2.08963223591977,0.0288748810230703,0.0915549373281566,0.0298221504444438,5.95562870493672,-0.00384879816694786,-0.00232355385842499,-0.00194108281493318
0.73,1.84760653882293,1.72316477825713,1.78243339167031,-0.0271183083048889,0.050390045592775,0.00982011664064451,-0.234809359287181,-0.488675080792309,2.14705876879889,-0.204039642264589,-0.0758243501915915,-0.0423920729190787,5.9801695936032,-0.00105052963661665,-0.000509121251778879,0.001567862918765
0.74,1.88189653077693,1.75066311349287,1.85663195777531,-0.0831363648261029,0.023027765517192,0.0192235772916632,-0.179679882154431,-0.419699265969802,2.21070557852308,-0.0584489879566555,0.0279663942287333,0.064646770921893,5.84617549148981,-0.00275152172594925,-0.0015574270767841,-0.00396180028439672
0.75,1.87348363464289,1.75177140549822,1.8693382059093,-0.0446355119904392,0.0428330507443558,0.0423103974002361,-0.211603532476864,-0.457661341133004,2.06991481117039,-0.14599748301545,-0.0329710500687494,-0.0700584673147144,5.96861348853334,-0.00206923229625424,-0.0011804817210535,0.00133667729413974
0.76,1.80515454297772,1.67508297903163,1.7790400486293,-0.133721691746524,-0.032737375239266,-0.0632869119867097,-0.306956895251651,-0.557101971666048,2.15101993736411,-0.162832459674986,-0.0567432324509717,-0.00137013613873116,5.89478113270963,0.00323587709008642,0.00210585349695539,0.00305980422442995
0.77,1.80932393512768,1.67938998647285,1.85660322997854,-0.105889158429936,-0.00793799344096385,3.63733819667958e-05,-0.24183381808375,-0.513300705687869,2.14789743234375,0.0825938764537428,0.0954789441769842,0.0648533636926002,5.85910278135918,-0.00459032325351251,-0.0026225441452245,-0.00305942566145882
0.78,1.79421996472741,1.64610437943833,1.83780250188314,-0.0414486464614014,0.0177614761665404,-0.00873847024699793,-0.298990371892209,-0.578734378468314,2.07196444530376,-0.264804209304567,-0.116268450379748,-0.0939789106484406,5.95986223300509,0.001558773892897,0.00124641680671862,0.00487859695747774
0.79,1.83165181273304,1.68321897020667,1.87208191227057,-0.128752148124676,-0.0142570921362481,-0.0192496250707122,-0.212823281732926,-0.497243806879438,2.21799478500218,0.0271967512386232,0.0837811588359479,0.119166628349251,5.7808972427819,-0.00249685093427271,-0.00192029275582553,-0.00472624876678109
0.8,1.84468665416449,1.69693859858842,1.92278740406266,-0.0221475821878532,0.054202404272393,0.0550724476604812,-0.232334125565823,-0.514307463849304,2.06162261361524,-0.147961792998984,-0.0545158871713681,-0.0942754779629798,5.93991487846089,-0.00291041288340798,-0.00177531527837418,0.00190429781014307
0.81,1.8428993464436,1.68859395947784,1.88971221370303,-0.0916561589849112,0.00597079282024466,-0.0273331966751066,-0.22897860576099,-0.526053629789228,2.21412457653689,-0.159937192335966,-0.042125980159422,0.0498434520497772,5.78020319893688,0.000329218541891466,0.000317512709841925,-0.00106042758202221
0.82,1.84469798488147,1.69120496527094,1.95962873717442,-0.0915579730477211,0.0142682858532066,0.035745725942464,-0.221765127613727,-0.513473658119917,2.06995578604312,-0.0242205602977588,0.0355624877247479,-0.00919913567201053,5.84746761345429,-0.00304991269465462,-0.00213468906191929,-0.00123864780888922
0.83,1.86595212055886,1.70785495327987,1.93636170542829,-0.0211922778795985,0.0623225355146497,0.0284468773788149,-0.195479380456023,-0.500698475974687,2.16113185963967,-0.148189267274939,-0.0431656880015844,0.000712858791105622,5.85358068708923,-0.00339192230874629,-0.00243010011611147,-0.00131773062544266
0.84,1.82975752516347,1.66445395999015,1.94646891094934,-0.110786707402279,-0.00905957090862841,-0.00775679234593383,-0.262578375007404,-0.577430358477292,2.14032553381503,-0.196234047081612,-0.087862342179281,-0.0340679741958259,5.77487082472408,0.00231045513131231,0.00176190454744458,0.00198651194033068
0.85,1.80745308480358,1.64223543203956,1.95043373410141,-0.127381804290502,-0.0248874320718631,-0.0165998856839314,-0.263572495548145,-0.566608362735913,2.08140150391833,0.0368306131215703,0.078666364420094,0.0388580634933154,5.81005974341835,-0.00269920655296445,-0.00194491970157894,-0.00104752009173883
0.86,1.82389215935098,1.65450229673501,1.95839065384449,-0.0192799497181268,0.0567954175191904,0.0269901780104998,-0.239485915128433,-0.557851153860575,2.14804106681713,-0.154590932637333,-0.0545694629221713,-0.013334737117547,5.83291187069948,-0.00305753160590225,-0.00243105131080641,-0.000579866184359859
0.87,1.83866191453777,1.66040123559692,2.00536251591253,-0.0907803769040743,0.0107587222279709,0.0107805552590623,-0.221777932623259,-0.565374123576489,2.16672792754521,-0.163605455135844,-0.0682313245481126,0.0021011424519846,5.72021164035777,0.000196087289934007,0.000393784705759364,-0.00059561500452755
0.88,1.79604017839189,1.61455828685284,1.97889821101813,-0.134909884352687,-0.0349649331795787,-0.0206430367450138,-0.295156885862224,-0.621201978841456,2.02569933171735,-0.0655226152344009,0.00740064789805753,-0.0315144277438021,5.81653004425816,0.000382421720659144,-1.73530894691849e-05,0.00246870427173057
0.89,1.78304552811219,1.60130681818425,1.95149784666567,-0.0853635575729578,0.00564458617509192,-0.0231607192562662,-0.281205450618034,-0.621580580349028,2.16482650669096,-0.0486574390414159,0.000992878666418251,0.0427090570813605,5.74582643964956,-0.00245065594158974,-0.0018624570415992,-0.000904576633367976
0.9,1.80000995221374,1.60716557217068,2.03230349843697,-0.0670549034402098,0.0143044270282766,0.0171581509610666,-0.256716245610439,-0.610976179528901,2.08598250693546,-0.154714137344625,-0.0630579863794113,-0.0193232793049928,5.76543651034578,-0.000796380976433331,-0.00046983143832468,0.000128481861444835
0.91,1.7517614724222,1.55583989821248,1.96225064134567,-0.158903955019999,-0.0594115937718726,-0.0552255091531446,-0.336134883555713,-0.705092719876775,2.06729452901676,-0.128991153127787,-0.0466233148579676,-0.0375152580680875,5.77125514649921,0.00361547729801848,0.00167707181668039,0.00439213384557818
0.92,1.79955155527428,1.59771340359369,2.03472812469725,-0.0800064617055789,0.0149092002922276,0.0060695150609456,-0.230701625102527,-0.588415295126848,2.19554181001127,0.108613974778773,0.0930932604030418,0.111025904268404,5.66761580946913,-0.00688695323554197,-0.00493246326272186,-0.00548371224579625
0.93,1.78974425730065,1.58185192262722,2.06360705482066,-0.0226391937464126,0.0271374284643343,0.0253584132753936,-0.284281861408984,-0.673553554643878,2.01060354576938,-0.353951712846016,-0.196569422744098,-0.13303622357834,5.82265025713566,0.00251186516795987,0.00179795582442152,0.00514814910868249
0.94,1.81323905739868,1.59958450320011,2.04004683736465,-0.1705736333821,-0.0479104528216484,-0.0329476418026539,-0.217919047076406,-0.630776293470198,2.21163072410791,0.0563528964805191,0.107359837569469,0.126333013043357,5.59950749015584,-0.00153494800562201,-0.00207594220424672,-0.00441601642161274
0.95,1.79306703071849,1.57016677834734,2.08643167085545,-0.0421349424615705,0.0401620242376451,0.0368124560196567,-0.295938736065297,-0.649900626685909,2.01569750461482,-0.135268289964731,-0.0842949064812996,-0.106540275040422,5.79186878968263,-0.00236358764910049,-0.0017637022507399,0.0033565905727672
0.96,1.79634748574821,1.58500897164564,2.06554979089878,-0.0960178290850373,-0.00852590949631868,-0.0320800141662354,-0.229559417282448,-0.664375432893726,2.18543152654849,-0.145734734934653,-0.0468628670425934,0.0805518124001601,5.61879125536253,6.60226647785555e-05,-7.20363084578415e-05,-0.00227919687390486
0.97,1.8191539806253,1.58345868339562,2.13870903330629,-0.0956733342378247,0.00939772757423853,0.0468931848438127,-0.236467308497671,-0.637936673723879,2.02911160270153,-0.0422947724121752,0.013027829460846,-0.0358452980867634,5.69718058355656,-0.00256677777969438,-0.00248487765256974,-0.000491655348400221
0.98,1.79505452363655,1.56621117268773,2.0717668236494,-0.0746927583403066,0.0145010269255535,-0.0185511662479121,-0.263799879012425,-0.687822297090262,2.09566049209796,-0.165737574844682,-0.0920562417851815,-0.0139424475361447,5.69294897720227,-0.000258812907051894,-0.000329337833347339,0.0015670512521524
0.99,1.79961807932176,1.56023201905413,2.12738757328279,-0.110435046801023,-0.0146792019114469,0.0035447122594868,-0.23820252023467,-0.678957777550726,2.10682757930257,-0.0615590670001699,0.00227689887180274,0.0413699299775298,5.62076249387535,-0.00135878154073043,-0.00129986369051689,-0.00210864248776014
1,1.7918702045797,1.54475779732975,2.12868036840586,-0.0817713972365457,0.0101980337501546,0.0136699871212643,-0.270851578620287,-0.692430036160823,2.04174676715313,-0.11718780582405,-0.0480449456262915,-0.0474072478455606,5.6859012695574,-0.00115766756679895,-0.00144233999797682,0.00162824064578352
1.01,1.7938970290349,1.54975505307511,2.12966474076965,-0.0927660589200547,0.00265893726787355,-0.0100397364294272,-0.24020262034176,-0.69604153343573,2.11476095806093,-0.0991148734882379,-0.0406064877587977,0.0425050558661344,5.61586754543295,-0.00125512841868694,-0.0012090223991627,-0.00151002849583169
1.02,1.76752799775968,1.50925803651232,2.13849169905952,-0.11657653619167,-0.0258074769670524,-0.00453531022531147,-0.294223656384028,-0.748700598165053,2.02538603373074,-0.128884723854541,-0.0611591518430274,-0.0501396279967983,5.65543080810622,0.0010232422841398,0.000246740717255031,0.00259920840512111
1.03,1.755196650969,1.49460034712314,2.12348764783422,-0.12260762734207,-0.0284508592250006,-0.0349047431433876,-0.292295745523445,-0.743721156854574,2.0906549498158,-0.0321830508491886,0.0044585802319308,0.0428538595824242,5.6089818284967,-0.00119621734996692,-0.00148980383118765,-0.000364611424521349
1.04,1.79925039760606,1.53624294487672,2.20248328992203,-0.0428663909449824,0.0389794574757677,0.0433585348045814,-0.224359837774521,-0.67791836049147,2.09024652537822,-0.0876569893043532,-0.0323121599835201,0.0141121101590407,5.62450139418041,-0.00393064594620586,-0.00348844634295148,-0.00263690383538738
1.05,1.7779035079313,1.51056004135525,2.17724703789047,-0.104384763463839,-0.0143718663872014,-0.00746942985515654,-0.261644709374483,-0.786763946732773,2.05913023638071,-0.231202327298439,-0.142109420841017,-0.0664380528295704,5.59334035715915,0.00296662596141519,0.00171207130327419,0.00351904709819975
1.06,1.78117607687726,1.48852092785278,2.18908355448255,-0.146631572978987,-0.0446525705981096,-0.0240784485970226,-0.258459148950883,-0.738058080848979,2.05761585745405,0.0590887584140585,0.0770253249526558,0.0774867126678663,5.57182762718918,-0.00257102397941599,-0.00258264756985036,-0.00251403357620886
1.07,1.74244056379277,1.46068603076478,2.16869656949686,-0.0641978323398537,0.0104289649642371,0.00166320812496522,-0.324098029850146,-0.791817474339392,2.03607348597034,-0.192533173543906,-0.122636422435635,-0.0788878537798898,5.64184288211001,0.000260117442985108,-0.000542058834309232,0.00369254176513731
1.08,1.74347994840825,1.46200391801353,2.19930575485194,-0.144963526347663,-0.0483668770533778,-0.0414543596967978,-0.262815834475421,-0.804735399794199,2.09772210544173,-0.0614364801051293,-0.0203668137233505,0.0713571924410706,5.51870314653906,0.000574017038249784,-0.000179522355226494,-0.00141048257965066
1.09,1.75414988052266,1.44575128543951,2.22140287240401,-0.0994143204800713,-0.0125095960727072,0.0137663663952393,-0.298990790363951,-0.778647769142164,2.00938984219142,-0.0511493709677903,-0.0193924816889503,-0.0422331833527274,5.59588459386992,-0.00184898519084059,-0.00201623773521764,0.00137522900793161
1.1,1.75077143698283,1.45947843037759,2.21543077429589,-0.0869063853968049,-0.00333961534191859,-0.0226233889686577,-0.26498288856108,-0.804832274353606,2.07320135921813,-0.14209368168022,-0.0799623536337339,0.0248634596723745,5.55000861472474,-0.000207276401021301,-0.000839224646094043,-7.74021021030336e-05
1.11,1.7863960686705,1.47216002314465,2.2724594987886,-0.0996634077561328,-0.00459532682308893,0.026728859304576,-0.219573659795436,-0.775911877019692,2.05010442863358,-0.055676697248881,-0.0177128852949324,0.0137227300556836,5.52147750343852,-0.00202418834206033,-0.00208844331722251,-0.00188013748323478
1.12,1.8000734161761,1.47689723823908,2.27510991255642,-0.0655038274167302,0.0201150731492909,0.0233319560553296,-0.222438791628986,-0.775942440354612,2.03072876571731,-0.130196208483033,-0.0657023522202591,-0.0246059488552495,5.55827825849748,-0.00178504040909912,-0.00208248349390849,0.000115481277419566
1.13,1.80160762211037,1.47589950460729,2.2848211700302,-0.0930301450554374,0.00426857694912249,0.0104223763377148,-0.20229249727856,-0.800197211439957,2.07015818563679,-0.118484064194352,-0.0620556941323431,0.020503774235158,5.49190347934236,-0.000840892880877392,-0.00135309894806816,-0.00142859252084309
1.14,1.78590662218768,1.44104253829868,2.29135530209093,-0.107612659162625,-0.0138316845439958,0.00989916025195967,-0.243494199190241,-0.819857144368528,1.995550058704,-0.0962795443598062,-0.0520062250141456,-0.0283593548859379,5.52998783270523,-0.0005104728960206,-0.00106064425138495,0.000897913133697184
1.15,1.7774928761417,1.43649041782102,2.28313507117382,-0.0933553812075689,-0.00388149916537879,-0.00303587741534216,-0.243061916589883,-0.814660042137024,2.05119325355431,-0.0783235843131616,-0.0341662489221469,0.0263136861602627,5.49909972506783,-0.00170501954453826,-0.00216569685657471,-0.00106536709055056
1.16,1.74332158809564,1.39979159044601,2.28739852826974,-0.115524719003224,-0.026301243683349,-0.0103810201757341,-0.283978500966615,-0.880536905761892,1.99329731648617,-0.151316821031587,-0.103549969719674,-0.0399079884353808,5.5163084044197,0.00159122350590212,0.000273603535087259,0.00239583373730598
1.17,1.74040006613631,1.38511610799905,2.28727428050069,-0.134447832090921,-0.0441358960049621,-0.0264903965225022,-0.276304847484277,-0.860739116295436,2.03654164336254,-0.00975725962411897,0.00292495566609739,0.0430593647413501,5.47171390577007,-0.00122275928659599,-0.0017099241538328,-0.000771410731464882
1.18,1.77715090854099,1.42262221010726,2.35041858851376,-0.0445487946007447,0.0318900119670227,0.0413018553331774,-0.230618780662348,-0.800445259322998,2.03986471212754,-0.0953314619955113,-0.0496122014357659,0.00344825837924669,5.50016449328086,-0.00360333208360538,-0.00381550222884411,-0.00202602968715593
1.19,1.78289383158931,1.42974048414384,2.35782668622031,-0.0869767377715834,0.00353738641391476,0.0167394793858968,-0.195525095105736,-0.881249322673272,2.04160368392326,-0.198344641697659,-0.137764127688153,-0.0293633408325119,5.43560896136548,0.00104159748550796,0.000169749747665938,0.000634907492923957
1.2,1.78457965951666,1.38653342108909,2.35609743223249,-0.138230732675012,-0.0416673760886146,-0.00566123359261593,-0.229789352412831,-0.870168178158826,1.97432511965199,-0.0190759621075492,0.0104107835409915,0.0194398586298239,5.45814059109281,-0.000999497607887621,-0.00175103435598112,-0.000637170936962374
1.21,1.73555063998211,1.34943992780419,2.31244404934062,-0.0984540556269519,-0.013678916005372,-0.015859612704657,-0.308228517668048,-0.906826251627791,1.99791894937516,-0.127313653853597,-0.0929881782058438,-0.0339536836803809,5.48700348288246,0.000179566206366374,-0.00113493108750442,0.002379702389029
1.22,1.73974133004299,1.36497354611125,2.36733742815617,-0.113172833085725,-0.0263205248984168,-0.009586460271575,-0.238007908488389,-0.894723964363431,2.0370850519636,-0.0557284782808549,-0.0430359702120048,0.0549370539811312,5.40410816771061,-0.00119154026758145,-0.00152468022578164,-0.00212220137695036
1.23,1.76347097913306,1.36413073322771,2.39304081727252,-0.0826956199977506,-0.00483887856256728,0.0288870892838134,-0.244687618446212,-0.884839920369499,1.96678777735959,-0.109074624968863,-0.0604138211607992,-0.0393687027747787,5.45909720067708,-0.00129432642093821,-0.0020717555919665,0.000538761580331517
1.24,1.74243002455138,1.34534382124723,2.36217497329201,-0.120958680729941,-0.0274951498923143,-0.0249328936408604,-0.253994976669073,-0.947639574173614,2.00268331197468,-0.127626914715,-0.091707673151639,0.00426343508956406,5.41722327741433,0.0011987743754359,-0.000436912888186887,0.000991796218319377
1.25,1.75272612776866,1.33242725336589,2.39875958518388,-0.115273865158662,-0.0271892306329247,0.00515752840979235,-0.243670994750798,-0.903749244158625,1.98954665268684,-0.0148017588975845,-0.0198592475773231,0.0250220339767899,5.40629395021144,-0.0021019402347196,-0.00226807369695799,-0.00140071304160729
1.26,1.80187582795438,1.38993993785052,2.45428850378279,-0.0267090583003487,0.0443889797377434,0.0587103347854949,-0.173706179469907,-0.844750402818465,2.02090872180239,-0.112717979232617,-0.0554239594672482,0.0103083179024429,5.42831592876093,-0.00407582080403433,-0.00460518714588298,-0.00314037817621703
1.27,1.76055898538488,1.3398604868731,2.41843371480764,-0.124063420043043,-0.027578753473806,-0.00668813059780299,-0.215387906193305,-1.01666321050779,1.99103562736016,-0.241864270617797,-0.194680966161141,-0.0749332601391571,5.36369954906476,0.0044229281593456,0.00217996278864017,0.00388465195424205
1.28,1.72268975823595,1.24964913470715,2.39148656406954,-0.197906808101569,-0.109615751226329,-0.0644380128042833,-0.304552444744614,-0.984517895624221,1.91709149120699,0.0786202822993088,0.0565351030052487,0.0554467391369164,5.43002737923833,7.9926008325203e-05,-0.00129544202608247,0.000423372047674459
1.29,1.66665958561538,1.23361916349627,2.36094633678127,-0.090446917240119,-0.0244971546721117,-0.0272328218485081,-0.37043477430215,-1.00272401259182,2.05094945362109,-0.107545006811473,-0.102282237174593,-0.0337321708500802,5.38047496713706,-0.000312660841799291,-0.00166223827725976,0.00289974484549606
1.3,1.68170209898703,1.26142058069712,2.46819201722934,-0.1300874287719,-0.0537041251172082,-0.0299729180252509,-0.261883695770152,-1.0160833683578,1.94641339822258,-0.0945364607624804,-0.0847208985745096,0.0491830036614187,5.35396114609378,0.00107654526008508,-0.00012001484226402,-0.000901683950512895
1.31,1.71861269045398,1.25182162967749,2.42848554027358,-0.123465891714194,-0.0441331802069116,0.00549565920890217,-0.278174547969885,-0.990888029588575,1.94484703445914,-0.0345436975121207,-0.0274200492002145,-0.0298273136545138,5.38210126329738,-0.000841013582631903,-0.00199362891992418,0.00116651824046991
1.32,1.7000247876175,1.24414420719894,2.43373027333332,-0.109572974292212,-0.0319406463150414,-0.0346977906737067,-0.283658087054572,-1.02980681394266,1.96247316502337,-0.121314855527249,-0.105761811281515,0.00626590986224675,5.36647419853658,0.000842546451980965,-0.000823435876827552,0.00135555291060552
1.33,1.76359646085937,1.29230875296949,2.51323111093788,-0.083574607581597,-0.00295948869851777,0.0386935713534228,-0.168934559837995,-0.943991781085968,1.99634595003311,-0.00151195762410079,-0.0118764357865026,0.0611385766825308,5.30481821246608,-0.0039336668896099,-0.00398518838600307,-0.0046614853391241
1.34,1.7791737740553,1.29154119277872,2.51814097124442,-0.0543662095892457,0.0132275459651603,0.0433845348296337,-0.181800501158327,-1.00591761693957,1.91100656380939,-0.212911366325594,-0.151623228291217,-0.0835267698288218,5.37646446023603,0.000262888551505527,-0.00105171623567274,0.00195555763691999
1.35,1.76797904004422,1.25739616959177,2.48804396825828,-0.147991600366633,-0.04928294162156,-0.023731192435629,-0.176582440433166,-1.05260705366335,1.9818088589106,-0.0517302097589787,-0.0379052498329168,0.0514916564866865,5.27346108155035,0.000674780125869488,-0.00111464850815351,-0.00130788784381955
1.36,1.76415056096994,1.22838085736051,2.520361056399,-0.0874877437627187,-0.00704229794300361,0.0278771967716813,-0.233437939002585,-0.979723631065473,1.90701392010154,-0.0350512245811712,-0.0514814007161148,-0.0213293916485565,5.35321926057631,-0.00270383263221566,-0.00314059435299995,-0.00026621576854644
1.37,1.67221984830211,1.17935068880046,2.4489032254152,-0.144436932521461,-0.0759305303395344,-0.0633931184899648,-0.299368754051244,-1.16030183039046,1.90496088499369,-0.225755570266698,-0.180590570579463,-0.0515026180530131,5.34941937304925,0.00592544609843832,0.00222071738816102,0.00544384284209266
1.38,1.74515814472389,1.20655594558052,2.54076326206853,-0.134532187693008,-0.0447458020045974,0.00548784225751847,-0.20273292943221,-0.973572887008788,2.02038106189586,0.195185609109146,0.101059668532106,0.141912991732698,5.21380817768935,-0.00627470350975345,-0.00584732010077516,-0.00692277519997463
1.39,1.73935032168355,1.22908184537398,2.56953792644505,0.00785135528728159,0.0349767308523627,0.061531327956932,-0.23584599050035,-1.0353578105,1.84203207334993,-0.326596199282355,-0.23417719039665,-0.146440681458961,5.44142816555905,0.000569414776745642,-0.00101918304171271,0.00411765508630089
1.4,1.70720214912014,1.18243235545884,2.49249146367216,-0.225249254701109,-0.116885973053407,-0.07937251298008,-0.193208847002814,-1.20937470947567,2.0645054368989,-0.0726469725569217,-0.0542719214926589,0.0720221142539361,5.17163668184248,0.00562430151016842,0.00121655188372154,0.000348805653336196
1.41,1.70018905916014,1.08580719718128,2.55583573457526,-0.146411975484351,-0.0603691940758048,-0.0117408997937694,-0.340987793732698,-1.03578088356181,1.87073998589038,0.127104306300649,-0.00434563425485608,-0.0249533685556603,5.30886271051411,-0.00359376042748931,-0.00306289152617997,0.00174381220472145
1.42,1.68783043198187,1.19055816475013,2.55954232586839,-0.0256643268215025,-0.00240785187652787,-0.00596806746524189,-0.23054836350895,-1.07165047656006,1.95568189847261,-0.213034224083204,-0.134408989292207,0.0387836511365623,5.29591927138265,-0.000853795672065668,-0.00201923288968063,-0.00148869178365879
1.43,1.76623397336067,1.21212853795066,2.63128619008002,-0.123562983849006,-0.0177400314414652,0.0517343671936743,-0.114972144855997,-1.1263786683727,1.95847108070792,-0.0698030072209087,-0.0661156531816079,0.00165947458119285,5.16114409583596,9.96750053680829e-05,-0.00204424765618947,-0.00250740882337716
1.44,1.77056832662089,1.14448452760171,2.59400077737932,-0.100195243721119,-0.0235027071563814,0.00629341421881069,-0.190657296064872,-1.08020767714191,1.79682981580525,-0.0600283711396127,-0.0922075449901067,-0.0474388846185613,5.32483430059906,-0.00112960830112063,-0.00155525000460364,0.00196740675392292
1.45,1.75258482788205,1.16809662344336,2.56720968851213,-0.087865545209699,-0.0256635348327586,-0.00366591914338447,-0.170053971632317,-1.11569423542343,1.96631220025746,-0.103356065339583,-0.0652713740958393,0.0549756609642342,5.20472215594099,-0.000636443463413078,-0.00231909462815314,-0.00240151530760364
1.46,1.73713548244715,1.12549414011456,2.62196702341099,-0.124144368222812,-0.0342266390441096,0.0170240476511498,-0.203177213894806,-1.15917563296699,1.83091707862026,-0.0982784003410458,-0.114838424832866,-0.0540086947173271,5.2540564769597,0.00126298545281968,-0.000870095241582442,0.00175463548837854
1.47,1.74958366532476,1.12922141378108,2.59924237136808,-0.100865529705433,-0.0330382434712859,-0.00457025398498687,-0.172238956490937,-1.09966681728554,1.91237671499744,-0.00426833459500382,-0.0365036884903731,0.0532210102052387,5.21176212987903,-0.00253524384060517,-0.00292057074572139,-0.00227593350174073
1.48,1.70490112735963,1.08874639338416,2.60006228468537,-0.110625257017607,-0.0496506129366085,-0.00741005501030936,-0.245089786224385,-1.21206543150124,1.82285886183053,-0.196814168019469,-0.159613881475787,-0.0726482930316117,5.26365765015782,0.00349027107109977,0.000358928597549645,0.00379092150632549
1.49,1.73089565767952,1.09573587763409,2.61905649352485,-0.142220980670516,-0.0549805947807114,-0.0153190711046368,-0.178789352163784,-1.1373884768688,1.92692117252982,0.0831206571650789,0.0115547067380106,0.0952890239984769,5.15850521392233,-0.00259861669374823,-0.00350115928267267,-0.00377371436530093
1.5,1.74196843975423,1.10420963625925,2.66275985149501,-0.0359792126302783,0.00684535170935926,0.0501803406438897,-0.195565874252171,-1.11894442325688,1.8278303184494,-0.167451416891618,-0.148324065280155,-0.0717563964614449,5.27417827175599,-0.00123576167392471,-0.00233919925921955,0.00107579094336082
1.51,1.71970213800275,1.08974931785426,2.62704609626246,-0.153637275212918,-0.0713718129393451,-0.0344421785817629,-0.153676489104745,-1.27053237876525,1.91746064841465,-0.127213409717731,-0.112786392382092,0.0192922233194866,5.12974555903641,0.00371785325282116,0.000447350026001451,0.000712159227002741
1.52,1.7445541365523,1.03251455425255,2.66831879994895,-0.130084775699065,-0.0492760253152025,0.00825431046716611,-0.215704120850633,-1.13091410274693,1.81004115605956,0.0836680599239437,-0.00442667596826245,0.0179395653596966,5.21037261358216,-0.0030951057602735,-0.00358513367291251,-0.00122624460196651
1.53,1.74654587591379,1.10883883063521,2.67702329119907,-0.0187003036128934,0.0197206328637157,0.0396361087276919,-0.147625727579258,-1.13656032431792,1.89701354777192,-0.170602478407033,-0.137557906229628,-0.0010686795261121,5.20968973767371,-0.00201979185929254,-0.00328643603889319,-0.00174988224481439
1.54,1.73698528498717,1.06443892078892,2.68996491697957,-0.151259881825126,-0.0638361238088808,-0.0023125012689984,-0.121688262196184,-1.31037584433436,1.87097813151921,-0.153033666383144,-0.152308766922752,-0.0373506097897263,5.10300474866435,0.00440067104368867,0.00120019113117113,0.0018774627229731
1.55,1.76760112793525,1.00871420243357,2.69506747014404,-0.128631638148235,-0.0557244068917674,-0.00252402459974108,-0.184710861743662,-1.13794745566885,1.79665826493677,0.119828490513474,0.0358888198784491,0.0531336898583997,5.18129370786961,-0.00406155967117559,-0.00436925876318708,-0.0023741984832516
1.56,1.69327338590601,1.02148971620435,2.64888742644141,-0.0594320672359627,-0.020958332063286,-0.00103666161334318,-0.232878320978065,-1.25847071113406,1.82484702699701,-0.256071610600159,-0.215997583455571,-0.071442626279967,5.21742336658,0.00274355875238294,-0.000136089248530952,0.00343769618240157
1.57,1.72806849548648,1.02443772130892,2.71559031857025,-0.165400142008158,-0.0774995318319272,-0.0117162112428204,-0.115811448059999,-1.26354233719504,1.89162408478526,0.0544755888112969,-0.00885556390416505,0.0906538319742179,5.05655522246841,-0.000384803683404207,-0.00213189254785757,-0.00373985828387956
1.58,1.78232170288015,1.02298962124762,2.75577566784283,-0.0273225074532466,0.0198604982718954,0.0719607825677312,-0.158667595897818,-1.11784845167395,1.78478676971079,-0.0575157326131535,-0.0811567520490376,-0.0510460290953629,5.21728638797136,-0.00433143140769619,-0.00510138108683015,-0.000908682337867905
1.59,1.71244672659182,1.02077243395413,2.69198767513403,-0.120842266658528,-0.055131056811415,-0.0316162157669509,-0.122450722862387,-1.37346055259246,1.87366146587849,-0.257677560763877,-0.234715380298441,-0.029556718200258,5.07525301134008,0.00596404643222364,0.00227224166982723,0.0028993670738199
1.6,1.72190749364352,0.907508042328653,2.71685186310398,-0.208376973785353,-0.128129587057392,-0.0379306926954947,-0.212518741015225,-1.2792063083052,1.7268494566157,0.150477727186319,0.0460519392035781,0.044121661989425,5.17923067469228,-0.000252317944062975,-0.00207064451285835,-0.000302322994192785
1.61,1.68546232471142,0.939166878311715,2.67826505943471,-0.0439507979618024,-0.0120229849155366,0.00118957022867824,-0.260445711019366,-1.2258088344112,1.92358932647398,-0.0957732961040703,-0.124779616502528,-0.0221048087431665,5.12256669971138,-0.0021436938128924,-0.00354570755951963,0.00100199542064927
1.62,1.69909218391463,0.988072618089023,2.80902919061167,-0.11231532666409,-0.0506694336011902,0.0030169081189361,-0.0984358787779834,-1.34934720929788,1.79854860458965,-0.147109669422071,-0.156918828904286,0.0316227058095679,5.04639879874984,0.00257574562968597,0.000152223049113889,-0.00164224198998518
1.63,1.72875120301846,0.896755759003824,2.72224698965726,-0.160972186161434,-0.0907931089658178,-0.0052671881721059,-0.188075180176011,-1.3166710017076,1.70246623139596,0.0224857890979814,-0.0391815163292407,-0.0475589788010847,5.16862634885822,0.00082606274938257,-0.00145382088899014,0.00248718952385686
1.64,1.70769051613924,0.918980455135352,2.71534825582536,-0.0807821588490438,-0.0330529313566306,-0.0214659697219698,-0.195123381457629,-1.27231827055996,1.87230580139445,-0.0384784545560483,-0.0898061437896636,0.0507966569282832,5.07732241145988,-0.0017114291828346,-0.00322307147883482,-0.00138919374067208
1.65,1.6746736350661,0.900109053486102,2.77383419291281,-0.128948747147425,-0.0777913440869987,-0.00694749875938077,-0.170511805563083,-1.40264114187741,1.71688618094745,-0.160480565677865,-0.181291572884138,-0.0520574041748652,5.11194517892269,0.00432728098524018,0.00120195324163673,0.00278344819690414
1.66,1.73648788571913,0.893877883175685,2.76078627308631,-0.132971267820782,-0.0715055829602201,-0.00644636344781316,-0.141654608152519,-1.2824938342127,1.81661783099983,0.119432559726788,0.0320039095745812,0.0748998832501468,5.04180613527118,-0.00316296042721498,-0.00434697244988236,-0.00323454684177637
1.67,1.70405127187628,0.891433904148714,2.78008817076791,-0.0528576854138129,-0.0185354627450189,0.0181988967060459,-0.185924415382038,-1.3401553945107,1.71387760686675,-0.209629727387476,-0.213034837966929,-0.0807789523231007,5.15089799880936,0.00175485774569855,-0.000839715083927241,0.00295684179283245
1.68,1.72215369448935,0.898865196737015,2.78284982155499,-0.156601015365841,-0.088351778423709,-0.0204344956163085,-0.0676921605214912,-1.40124034401489,1.83516308473126,0.0105088653627743,-0.0483229585170078,0.0758821549409432,4.97796848224116,0.00104275651953701,-0.00120367939179239,-0.00263659432586577
1.69,1.76394096138668,0.859254446112964,2.83041016293599,-0.0698070548802074,-0.0215508310613779,0.0444478307723896,-0.152145812956163,-1.2704598012936,1.69571468726228,-0.0136397216649963,-0.0707534544016701,-0.0440596935971266,5.11161081620798,-0.00270800345013507,-0.00406369902442142,-3.44511710309382e-06
1.7,1.70878802863594,0.884678506657624,2.77982084794229,-0.0987845285947787,-0.0498213985456388,-0.0204710938768085,-0.0962457088754912,-1.43433538234008,1.7764204074283,-0.182567187817874,-0.195627459552402,-0.00319445550014144,5.03249268363353,0.00344938490534082,0.000460290626052418,0.00110773351928193
1.71,1.74239957333208,0.822175080244328,2.82186250224213,-0.157381075684057,-0.0921725944902722,-0.000661477058860444,-0.109159413023487,-1.38291439803834,1.70960346007005,0.0745676823828417,-0.0139986811013823,0.0275492456818409,5.03835150626996,-0.000383708142284794,-0.00220181583717532,-0.00128384794461908
1.72,1.72171628338744,0.820184020798821,2.79645529543348,-0.0660899586329225,-0.030867580548819,0.00561265858163932,-0.172630730548149,-1.34904806597832,1.74101032981418,-0.0889384796471859,-0.127834208474681,-0.0326732956289577,5.07675037391249,-0.00061663303600182,-0.00268457989658999,0.00127004355824106
1.73,1.69448944415362,0.826645048323751,2.82440287624085,-0.133279869082429,-0.0789518688408934,-0.0219380915799391,-0.0947960103427918,-1.47373930271619,1.74238976924777,-0.101053018667842,-0.146809224279062,0.0205863439852743,4.99848873940576,0.00329091233015551,0.00025727184515998,4.63194128605008e-05
1.74,1.75719235806181,0.799041063542903,2.85376282262864,-0.109564970090461,-0.0575473921024648,0.0261254785638063,-0.10223456203085,-1.34099594449535,1.70887058278066,0.0840904100531636,-0.0117693476282363,0.0187511985494473,5.01619397349001,-0.00298874056438691,-0.00405382126026129,-0.00212039409344961
1.75,1.72625022544785,0.817958495030491,2.83744591179344,-0.0558235939354659,-0.0254045431358089,0.0103976045007441,-0.108831262656363,-1.42472443736451,1.69490891110457,-0.188402013344449,-0.195607141870868,-0.0447385848203706,5.05642802427343,0.00173242858029706,-0.00103322771989295,0.00161371581394599
1.76,1.70077513764606,0.75400039945027,2.81694620076471,-0.18764235249763,-0.122940341140674,-0.0430571667803036,-0.0952639398115401,-1.53819144355617,1.71357839961048,-0.0194023964819883,-0.0939549103540738,0.0159394248254014,5.00502713186617,0.00433671765848769,0.000514227867215493,0.00126950118686196
1.77,1.76414687448248,0.756849158093999,2.87949998236244,-0.0696808956790642,-0.0303267956628452,0.0329140533465123,-0.11548941512819,-1.29305972424638,1.77643158021393,0.133907023157757,0.00343707846487673,0.0514538409541385,4.96231280778703,-0.00611045978835508,-0.00635041590048774,-0.00396023986173061
1.78,1.69397049268027,0.787185970183416,2.8814358939723,-0.0556372010833023,-0.0431304749216271,0.00529013316759392,-0.0907332864916945,-1.53844291557891,1.61713525530681,-0.331323721505188,-0.302981229316444,-0.10099861561183,5.04994914535172,0.00604369772477536,0.0021422818099433,0.00452716565203148
1.79,1.73914187915334,0.715493998222819,2.84136892978684,-0.215350776005569,-0.143577873104964,-0.0403908883391653,-0.0525385409968064,-1.52053345814977,1.73697333026622,0.173768070933668,0.0582742628372613,0.101322999645656,4.95246864457108,0.000726273366900383,-0.00230934399667865,-0.00289549263452943
1.8,1.72400399094302,0.683136262633078,2.87068151061174,-0.0374498850139447,-0.0153891282702067,0.0270658244494929,-0.19325049018138,-1.36701726801066,1.71779565332925,-0.0511078769694333,-0.142529871914874,-0.0750248710665145,5.02715518252653,-0.00249249144561919,-0.00382872566088518,0.00225139557636289
1.81,1.67866565997545,0.752161633487762,2.90673127013292,-0.119864199272342,-0.088566913797134,-0.0359878210449042,-0.0261792934787187,-1.59170619289525,1.70361128550877,-0.175650327029054,-0.194823912199621,0.0423612462920668,4.91042396729967,0.00517190508778319,0.00160903490738102,-0.00031423455102182
1.82,1.76050655623279,0.663755507641895,2.90197934862501,-0.156219833553235,-0.0949095842623015,0.0187131708667523,-0.0936789659861655,-1.45415825109372,1.60746633742828,0.151333123397734,0.0221959181025567,-0.000826486065381596,4.99382105729952,-0.00173331115889366,-0.00363393415609534,-0.000857785861180797
1.83,1.74237132056535,0.724394524793901,2.89380843409401,-0.0123562324418215,0.0026634533464535,0.0226889512728407,-0.0749303658011841,-1.41727879550666,1.71689294030715,-0.118990876362835,-0.167994427874253,-0.00184542372636799,4.99091963750591,-0.00184110501952219,-0.00355325236985308,-0.000989008818240896
1.84,1.71869691004586,0.70023163101542,2.92628523731677,-0.14703717329616,-0.101062508874599,-0.0086166542608561,0.0145545548913955,-1.65214309076828,1.68136013909716,-0.146429875725689,-0.18867839249258,-0.0270341931319361,4.88296438740165,0.0061394259068595,0.0021648268840991,0.00168428901740644
1.85,1.77409465564559,0.609039402162279,2.91963402200292,-0.145628009894254,-0.0989885977260296,-0.0110108348427542,-0.0998259525240554,-1.4486744790067,1.59292458710816,0.186680600931384,0.0444992886934139,0.0403677808391542,4.97583834164441,-0.00296340932937315,-0.00439133617158619,-0.00139823809608292
1.86,1.71070554576868,0.672407388936461,2.89693873032762,-0.0215308549631804,-0.0149155610763802,0.0156537580117204,-0.0956463676732293,-1.49615961012377,1.67131817554224,-0.188411669167916,-0.218372927952915,-0.0335007019426274,4.98735147817134,0.000815212285403829,-0.00183318796015954,0.000817762615531652
1.87,1.71731965153044,0.651050912524455,2.943175471903,-0.169070982284908,-0.117504130565469,-0.0171664653079786,0.0226653228966075,-1.65954371169935,1.67738281149486,-0.0344169774826227,-0.11601374318768,0.0167773921428708,4.85817754752644,0.00444779327979839,0.000866924044515876,6.83553591411394e-06
1.88,1.74120440420547,0.54500785809624,2.91762819868014,-0.130812619867048,-0.0983847609877752,-0.0202626378140957,-0.144891991827337,-1.49739586729538,1.55864679686738,0.0973585019906572,-0.0339175612930661,-0.0191148647388115,4.99364091193787,-0.00101808337186947,-0.00297375488283731,0.00183837895433639
1.89,1.69394718877701,0.630310649384095,2.91781903328144,-0.0574865825244645,-0.0466118349349606,-0.00911468687051088,-0.0683600070450888,-1.54498244336528,1.68247279523465,-0.106709255918812,-0.16598388432092,0.0368034446602363,4.90805750923882,0.000669223972879674,-0.00184367172919893,-0.0013424302898336
1.9,1.75556046710526,0.633799857521155,3.00240587600201,-0.108184615827558,-0.069148256596242,0.0404385585445009,0.0467098347918096,-1.59268296269482,1.60634859108388,-0.010699618608382,-0.0990028903376671,-0.00518876876590817,4.85691612377243,0.000726966417041399,-0.00152515689590663,-0.00168468801184739
1.91,1.75117867520647,0.549032098352415,2.92807265919167,-0.114681920467105,-0.087654023715136,-0.0194412339988324,-0.0589593313391935,-1.60440950173929,1.51770371521907,-0.0472302236503658,-0.12240845447777,-0.0493950120324092,4.98134644545144,0.00239615990853629,-0.00089037271868419,0.00323141692676892
1.92,1.70180028601897,0.531108572619973,2.89925823949931,-0.137817901773895,-0.108003219355348,-0.0478563555757416,-0.0717660251874778,-1.62991183087211,1.63936406451796,0.0114135188773666,-0.104054316242243,0.0476009511927938,4.90295704149991,0.00216389461463058,-0.000963627877534282,-1.62222832309019e-05
1.93,1.75626888189931,0.573822609115046,3.01335256573672,-0.05965907418615,-0.0441797576620787,0.0469736071032708,-0.00384850089892597,-1.50315614878484,1.62214393065998,0.0527288734963008,-0.063806658939614,0.0246397585107888,4.85521707795519,-0.0032162614001751,-0.00439984440984896,-0.00339515111326506
1.94,1.76837225559107,0.600935703145248,3.01176093677521,-0.0504544888308295,-0.0379183866041805,0.0345525570464143,0.0628548563421159,-1.64080776107976,1.54504042021066,-0.172690732631376,-0.203489535507339,-0.0537865686343219,4.88798657116306,0.00254618411846555,-0.000499637738459235,0.000892123437314309
